time_s,frame_rate_hz,frame_count,pwm_1_us,pwm_2_us,pwm_3_us,pwm_4_us,motor_1_radps,motor_2_radps,motor_3_radps,motor_4_radps,altitude_m,vertical_speed_up_mps,roll_rad,pitch_rad,yaw_rad,total_thrust_N,total_thrust_to_weight,valid_rx_count,json_response_tx_count,duplicate_frame_count,missed_frame_count
0.000833333333333333,1200,0,0,0,0,0,0,0,0,0,-0,-0,0,0,0,0,0,1,1,0,0
0.00166666666666667,1200,1,0,0,0,0,0,0,0,0,-0,-0,0,0,0,0,0,2,2,0,0
0.0025,1200,2,0,0,0,0,0,0,0,0,-0,-0,0,0,0,0,0,3,3,0,0
0.00333333333333333,1200,3,0,0,0,0,0,0,0,0,-0,-0,0,0,0,0,0,4,4,0,0
0.00416666666666667,1200,4,0,0,0,0,0,0,0,0,-0,-0,0,0,0,0,0,5,5,0,0
0.005,1200,5,0,0,0,0,0,0,0,0,-0,-0,0,0,0,0,0,6,6,0,0
0.00583333333333333,1200,6,0,0,0,0,0,0,0,0,-0,-0,0,0,0,0,0,7,7,0,0
0.00666666666666667,1200,7,0,0,0,0,0,0,0,0,-0,-0,0,0,0,0,0,8,8,0,0
0.0075,1200,8,0,0,0,0,0,0,0,0,-0,-0,0,0,0,0,0,9,9,0,0
0.00833333333333333,1200,9,0,0,0,0,0,0,0,0,-0,-0,0,0,0,0,0,10,10,0,0
0.00916666666666667,1200,10,0,0,0,0,0,0,0,0,-0,-0,0,0,0,0,0,11,11,0,0
0.01,1200,11,0,0,0,0,0,0,0,0,-0,-0,0,0,0,0,0,12,12,0,0
0.0108333333333333,1200,12,0,0,0,0,0,0,0,0,-0,-0,0,0,0,0,0,13,13,0,0
0.0116666666666667,1200,13,0,0,0,0,0,0,0,0,-0,-0,0,0,0,0,0,14,14,0,0
0.0125,1200,14,0,0,0,0,0,0,0,0,-0,-0,0,0,0,0,0,15,15,0,0
0.0133333333333333,1200,15,0,0,0,0,0,0,0,0,-0,-0,0,0,0,0,0,16,16,0,0
0.0141666666666667,1200,16,0,0,0,0,0,0,0,0,-0,-0,0,0,0,0,0,17,17,0,0
0.015,1200,17,0,0,0,0,0,0,0,0,-0,-0,0,0,0,0,0,18,18,0,0
0.0158333333333333,1200,18,0,0,0,0,0,0,0,0,-0,-0,0,0,0,0,0,19,19,0,0
0.0166666666666667,1200,19,0,0,0,0,0,0,0,0,-0,-0,0,0,0,0,0,20,20,0,0
0.0175,1200,20,0,0,0,0,0,0,0,0,-0,-0,0,0,0,0,0,21,21,0,0
0.0183333333333333,1200,21,0,0,0,0,0,0,0,0,-0,-0,0,0,0,0,0,22,22,0,0
0.0191666666666667,1200,22,0,0,0,0,0,0,0,0,-0,-0,0,0,0,0,0,23,23,0,0
0.02,1200,23,0,0,0,0,0,0,0,0,-0,-0,0,0,0,0,0,24,24,0,0
0.0208333333333333,1200,24,0,0,0,0,0,0,0,0,-0,-0,0,0,0,0,0,25,25,0,0
0.0216666666666667,1200,25,0,0,0,0,0,0,0,0,-0,-0,0,0,0,0,0,26,26,0,0
0.0225,1200,26,0,0,0,0,0,0,0,0,-0,-0,0,0,0,0,0,27,27,0,0
0.0233333333333333,1200,27,0,0,0,0,0,0,0,0,-0,-0,0,0,0,0,0,28,28,0,0
0.0241666666666667,1200,28,0,0,0,0,0,0,0,0,-0,-0,0,0,0,0,0,29,29,0,0
0.025,1200,29,0,0,0,0,0,0,0,0,-0,-0,0,0,0,0,0,30,30,0,0
0.0258333333333333,1200,30,0,0,0,0,0,0,0,0,-0,-0,0,0,0,0,0,31,31,0,0
0.0266666666666666,1200,31,0,0,0,0,0,0,0,0,-0,-0,0,0,0,0,0,32,32,0,0
0.0275,1200,32,0,0,0,0,0,0,0,0,-0,-0,0,0,0,0,0,33,33,0,0
0.0283333333333333,1200,33,0,0,0,0,0,0,0,0,-0,-0,0,0,0,0,0,34,34,0,0
0.0291666666666666,1200,34,0,0,0,0,0,0,0,0,-0,-0,0,0,0,0,0,35,35,0,0
0.03,1200,35,0,0,0,0,0,0,0,0,-0,-0,0,0,0,0,0,36,36,0,0
0.0308333333333333,1200,36,0,0,0,0,0,0,0,0,-0,-0,0,0,0,0,0,37,37,0,0
0.0316666666666666,1200,37,0,0,0,0,0,0,0,0,-0,-0,0,0,0,0,0,38,38,0,0
0.0325,1200,38,0,0,0,0,0,0,0,0,-0,-0,0,0,0,0,0,39,39,0,0
0.0333333333333333,1200,39,0,0,0,0,0,0,0,0,-0,-0,0,0,0,0,0,40,40,0,0
0.0341666666666666,1200,40,0,0,0,0,0,0,0,0,-0,-0,0,0,0,0,0,41,41,0,0
0.035,1200,41,0,0,0,0,0,0,0,0,-0,-0,0,0,0,0,0,42,42,0,0
0.0358333333333333,1200,42,0,0,0,0,0,0,0,0,-0,-0,0,0,0,0,0,43,43,0,0
0.0366666666666666,1200,43,0,0,0,0,0,0,0,0,-0,-0,0,0,0,0,0,44,44,0,0
0.0375,1200,44,0,0,0,0,0,0,0,0,-0,-0,0,0,0,0,0,45,45,0,0
0.0383333333333333,1200,45,0,0,0,0,0,0,0,0,-0,-0,0,0,0,0,0,46,46,0,0
0.0391666666666666,1200,46,0,0,0,0,0,0,0,0,-0,-0,0,0,0,0,0,47,47,0,0
0.04,1200,47,0,0,0,0,0,0,0,0,-0,-0,0,0,0,0,0,48,48,0,0
0.0408333333333333,1200,48,0,0,0,0,0,0,0,0,-0,-0,0,0,0,0,0,49,49,0,0
0.0416666666666666,1200,49,0,0,0,0,0,0,0,0,-0,-0,0,0,0,0,0,50,50,0,0
0.0425,1200,50,0,0,0,0,0,0,0,0,-0,-0,0,0,0,0,0,51,51,0,0
0.0433333333333333,1200,51,0,0,0,0,0,0,0,0,-0,-0,0,0,0,0,0,52,52,0,0
0.0441666666666666,1200,52,0,0,0,0,0,0,0,0,-0,-0,0,0,0,0,0,53,53,0,0
0.0449999999999999,1200,53,0,0,0,0,0,0,0,0,-0,-0,0,0,0,0,0,54,54,0,0
0.0458333333333333,1200,54,0,0,0,0,0,0,0,0,-0,-0,0,0,0,0,0,55,55,0,0
0.0466666666666666,1200,55,0,0,0,0,0,0,0,0,-0,-0,0,0,0,0,0,56,56,0,0
0.0474999999999999,1200,56,0,0,0,0,0,0,0,0,-0,-0,0,0,0,0,0,57,57,0,0
0.0483333333333333,1200,57,0,0,0,0,0,0,0,0,-0,-0,0,0,0,0,0,58,58,0,0
0.0491666666666666,1200,58,0,0,0,0,0,0,0,0,-0,-0,0,0,0,0,0,59,59,0,0
0.0499999999999999,1200,59,0,0,0,0,0,0,0,0,-0,-0,0,0,0,0,0,60,60,0,0
0.0508333333333333,1200,60,0,0,0,0,0,0,0,0,-0,-0,0,0,0,0,0,61,61,0,0
0.0516666666666666,1200,61,0,0,0,0,0,0,0,0,-0,-0,0,0,0,0,0,62,62,0,0
0.0524999999999999,1200,62,0,0,0,0,0,0,0,0,-0,-0,0,0,0,0,0,63,63,0,0
0.0533333333333333,1200,63,0,0,0,0,0,0,0,0,-0,-0,0,0,0,0,0,64,64,0,0
0.0541666666666666,1200,64,0,0,0,0,0,0,0,0,-0,-0,0,0,0,0,0,65,65,0,0
0.0549999999999999,1200,65,0,0,0,0,0,0,0,0,-0,-0,0,0,0,0,0,66,66,0,0
0.0558333333333333,1200,66,0,0,0,0,0,0,0,0,-0,-0,0,0,0,0,0,67,67,0,0
0.0566666666666666,1200,67,0,0,0,0,0,0,0,0,-0,-0,0,0,0,0,0,68,68,0,0
0.0574999999999999,1200,68,0,0,0,0,0,0,0,0,-0,-0,0,0,0,0,0,69,69,0,0
0.0583333333333333,1200,69,0,0,0,0,0,0,0,0,-0,-0,0,0,0,0,0,70,70,0,0
0.0591666666666666,1200,70,0,0,0,0,0,0,0,0,-0,-0,0,0,0,0,0,71,71,0,0
0.0599999999999999,1200,71,0,0,0,0,0,0,0,0,-0,-0,0,0,0,0,0,72,72,0,0
0.0608333333333333,1200,72,0,0,0,0,0,0,0,0,-0,-0,0,0,0,0,0,73,73,0,0
0.0616666666666666,1200,73,0,0,0,0,0,0,0,0,-0,-0,0,0,0,0,0,74,74,0,0
0.0624999999999999,1200,74,0,0,0,0,0,0,0,0,-0,-0,0,0,0,0,0,75,75,0,0
0.0633333333333333,1200,75,0,0,0,0,0,0,0,0,-0,-0,0,0,0,0,0,76,76,0,0
0.0641666666666666,1200,76,0,0,0,0,0,0,0,0,-0,-0,0,0,0,0,0,77,77,0,0
0.0649999999999999,1200,77,0,0,0,0,0,0,0,0,-0,-0,0,0,0,0,0,78,78,0,0
0.0658333333333333,1200,78,0,0,0,0,0,0,0,0,-0,-0,0,0,0,0,0,79,79,0,0
0.0666666666666666,1200,79,0,0,0,0,0,0,0,0,-0,-0,0,0,0,0,0,80,80,0,0
0.0674999999999999,1200,80,0,0,0,0,0,0,0,0,-0,-0,0,0,0,0,0,81,81,0,0
0.0683333333333333,1200,81,0,0,0,0,0,0,0,0,-0,-0,0,0,0,0,0,82,82,0,0
0.0691666666666666,1200,82,0,0,0,0,0,0,0,0,-0,-0,0,0,0,0,0,83,83,0,0
0.07,1200,83,0,0,0,0,0,0,0,0,-0,-0,0,0,0,0,0,84,84,0,0
0.0708333333333333,1200,84,0,0,0,0,0,0,0,0,-0,-0,0,0,0,0,0,85,85,0,0
0.0716666666666666,1200,85,0,0,0,0,0,0,0,0,-0,-0,0,0,0,0,0,86,86,0,0
0.0725,1200,86,0,0,0,0,0,0,0,0,-0,-0,0,0,0,0,0,87,87,0,0
0.0733333333333333,1200,87,0,0,0,0,0,0,0,0,-0,-0,0,0,0,0,0,88,88,0,0
0.0741666666666667,1200,88,0,0,0,0,0,0,0,0,-0,-0,0,0,0,0,0,89,89,0,0
0.075,1200,89,0,0,0,0,0,0,0,0,-0,-0,0,0,0,0,0,90,90,0,0
0.0758333333333333,1200,90,0,0,0,0,0,0,0,0,-0,-0,0,0,0,0,0,91,91,0,0
0.0766666666666667,1200,91,0,0,0,0,0,0,0,0,-0,-0,0,0,0,0,0,92,92,0,0
0.0775,1200,92,0,0,0,0,0,0,0,0,-0,-0,0,0,0,0,0,93,93,0,0
0.0783333333333334,1200,93,0,0,0,0,0,0,0,0,-0,-0,0,0,0,0,0,94,94,0,0
0.0791666666666667,1200,94,0,0,0,0,0,0,0,0,-0,-0,0,0,0,0,0,95,95,0,0
0.08,1200,95,0,0,0,0,0,0,0,0,-0,-0,0,0,0,0,0,96,96,0,0
0.0808333333333334,1200,96,0,0,0,0,0,0,0,0,-0,-0,0,0,0,0,0,97,97,0,0
0.0816666666666667,1200,97,0,0,0,0,0,0,0,0,-0,-0,0,0,0,0,0,98,98,0,0
0.0825,1200,98,0,0,0,0,0,0,0,0,-0,-0,0,0,0,0,0,99,99,0,0
0.0833333333333334,1200,99,0,0,0,0,0,0,0,0,-0,-0,0,0,0,0,0,100,100,0,0
0.0841666666666667,1200,100,0,0,0,0,0,0,0,0,-0,-0,0,0,0,0,0,101,101,0,0
0.0850000000000001,1200,101,0,0,0,0,0,0,0,0,-0,-0,0,0,0,0,0,102,102,0,0
0.0858333333333334,1200,102,0,0,0,0,0,0,0,0,-0,-0,0,0,0,0,0,103,103,0,0
0.0866666666666667,1200,103,0,0,0,0,0,0,0,0,-0,-0,0,0,0,0,0,104,104,0,0
0.0875000000000001,1200,104,0,0,0,0,0,0,0,0,-0,-0,0,0,0,0,0,105,105,0,0
0.0883333333333334,1200,105,0,0,0,0,0,0,0,0,-0,-0,0,0,0,0,0,106,106,0,0
0.0891666666666668,1200,106,0,0,0,0,0,0,0,0,-0,-0,0,0,0,0,0,107,107,0,0
0.0900000000000001,1200,107,0,0,0,0,0,0,0,0,-0,-0,0,0,0,0,0,108,108,0,0
0.0908333333333334,1200,108,0,0,0,0,0,0,0,0,-0,-0,0,0,0,0,0,109,109,0,0
0.0916666666666668,1200,109,0,0,0,0,0,0,0,0,-0,-0,0,0,0,0,0,110,110,0,0
0.0925000000000001,1200,110,0,0,0,0,0,0,0,0,-0,-0,0,0,0,0,0,111,111,0,0
0.0933333333333334,1200,111,0,0,0,0,0,0,0,0,-0,-0,0,0,0,0,0,112,112,0,0
0.0941666666666668,1200,112,0,0,0,0,0,0,0,0,-0,-0,0,0,0,0,0,113,113,0,0
0.0950000000000001,1200,113,0,0,0,0,0,0,0,0,-0,-0,0,0,0,0,0,114,114,0,0
0.0958333333333335,1200,114,0,0,0,0,0,0,0,0,-0,-0,0,0,0,0,0,115,115,0,0
0.0966666666666668,1200,115,0,0,0,0,0,0,0,0,-0,-0,0,0,0,0,0,116,116,0,0
0.0975000000000001,1200,116,0,0,0,0,0,0,0,0,-0,-0,0,0,0,0,0,117,117,0,0
0.0983333333333335,1200,117,0,0,0,0,0,0,0,0,-0,-0,0,0,0,0,0,118,118,0,0
0.0991666666666668,1200,118,0,0,0,0,0,0,0,0,-0,-0,0,0,0,0,0,119,119,0,0
0.1,1200,119,0,0,0,0,0,0,0,0,-0,-0,0,0,0,0,0,120,120,0,0
0.100833333333333,1200,120,0,0,0,0,0,0,0,0,-0,-0,0,0,0,0,0,121,121,0,0
0.101666666666667,1200,121,0,0,0,0,0,0,0,0,-0,-0,0,0,0,0,0,122,122,0,0
0.1025,1200,122,0,0,0,0,0,0,0,0,-0,-0,0,0,0,0,0,123,123,0,0
0.103333333333334,1200,123,0,0,0,0,0,0,0,0,-0,-0,0,0,0,0,0,124,124,0,0
0.104166666666667,1200,124,0,0,0,0,0,0,0,0,-0,-0,0,0,0,0,0,125,125,0,0
0.105,1200,125,0,0,0,0,0,0,0,0,-0,-0,0,0,0,0,0,126,126,0,0
0.105833333333334,1200,126,0,0,0,0,0,0,0,0,-0,-0,0,0,0,0,0,127,127,0,0
0.106666666666667,1200,127,0,0,0,0,0,0,0,0,-0,-0,0,0,0,0,0,128,128,0,0
0.1075,1200,128,0,0,0,0,0,0,0,0,-0,-0,0,0,0,0,0,129,129,0,0
0.108333333333334,1200,129,0,0,0,0,0,0,0,0,-0,-0,0,0,0,0,0,130,130,0,0
0.109166666666667,1200,130,0,0,0,0,0,0,0,0,-0,-0,0,0,0,0,0,131,131,0,0
0.11,1200,131,0,0,0,0,0,0,0,0,-0,-0,0,0,0,0,0,132,132,0,0
0.110833333333334,1200,132,0,0,0,0,0,0,0,0,-0,-0,0,0,0,0,0,133,133,0,0
0.111666666666667,1200,133,0,0,0,0,0,0,0,0,-0,-0,0,0,0,0,0,134,134,0,0
0.1125,1200,134,0,0,0,0,0,0,0,0,-0,-0,0,0,0,0,0,135,135,0,0
0.113333333333334,1200,135,0,0,0,0,0,0,0,0,-0,-0,0,0,0,0,0,136,136,0,0
0.114166666666667,1200,136,0,0,0,0,0,0,0,0,-0,-0,0,0,0,0,0,137,137,0,0
0.115,1200,137,0,0,0,0,0,0,0,0,-0,-0,0,0,0,0,0,138,138,0,0
0.115833333333334,1200,138,0,0,0,0,0,0,0,0,-0,-0,0,0,0,0,0,139,139,0,0
0.116666666666667,1200,139,0,0,0,0,0,0,0,0,-0,-0,0,0,0,0,0,140,140,0,0
0.1175,1200,140,0,0,0,0,0,0,0,0,-0,-0,0,0,0,0,0,141,141,0,0
0.118333333333334,1200,141,0,0,0,0,0,0,0,0,-0,-0,0,0,0,0,0,142,142,0,0
0.119166666666667,1200,142,0,0,0,0,0,0,0,0,-0,-0,0,0,0,0,0,143,143,0,0
0.12,1200,143,0,0,0,0,0,0,0,0,-0,-0,0,0,0,0,0,144,144,0,0
0.120833333333334,1200,144,0,0,0,0,0,0,0,0,-0,-0,0,0,0,0,0,145,145,0,0
0.121666666666667,1200,145,0,0,0,0,0,0,0,0,-0,-0,0,0,0,0,0,146,146,0,0
0.1225,1200,146,0,0,0,0,0,0,0,0,-0,-0,0,0,0,0,0,147,147,0,0
0.123333333333334,1200,147,0,0,0,0,0,0,0,0,-0,-0,0,0,0,0,0,148,148,0,0
0.124166666666667,1200,148,0,0,0,0,0,0,0,0,-0,-0,0,0,0,0,0,149,149,0,0
0.125,1200,149,0,0,0,0,0,0,0,0,-0,-0,0,0,0,0,0,150,150,0,0
0.125833333333334,1200,150,0,0,0,0,0,0,0,0,-0,-0,0,0,0,0,0,151,151,0,0
0.126666666666667,1200,151,0,0,0,0,0,0,0,0,-0,-0,0,0,0,0,0,152,152,0,0
0.1275,1200,152,0,0,0,0,0,0,0,0,-0,-0,0,0,0,0,0,153,153,0,0
0.128333333333334,1200,153,0,0,0,0,0,0,0,0,-0,-0,0,0,0,0,0,154,154,0,0
0.129166666666667,1200,154,0,0,0,0,0,0,0,0,-0,-0,0,0,0,0,0,155,155,0,0
0.13,1200,155,0,0,0,0,0,0,0,0,-0,-0,0,0,0,0,0,156,156,0,0
0.130833333333334,1200,156,0,0,0,0,0,0,0,0,-0,-0,0,0,0,0,0,157,157,0,0
0.131666666666667,1200,157,0,0,0,0,0,0,0,0,-0,-0,0,0,0,0,0,158,158,0,0
0.1325,1200,158,0,0,0,0,0,0,0,0,-0,-0,0,0,0,0,0,159,159,0,0
0.133333333333334,1200,159,0,0,0,0,0,0,0,0,-0,-0,0,0,0,0,0,160,160,0,0
0.134166666666667,1200,160,0,0,0,0,0,0,0,0,-0,-0,0,0,0,0,0,161,161,0,0
0.135,1200,161,0,0,0,0,0,0,0,0,-0,-0,0,0,0,0,0,162,162,0,0
0.135833333333334,1200,162,0,0,0,0,0,0,0,0,-0,-0,0,0,0,0,0,163,163,0,0
0.136666666666667,1200,163,0,0,0,0,0,0,0,0,-0,-0,0,0,0,0,0,164,164,0,0
0.1375,1200,164,0,0,0,0,0,0,0,0,-0,-0,0,0,0,0,0,165,165,0,0
0.138333333333334,1200,165,0,0,0,0,0,0,0,0,-0,-0,0,0,0,0,0,166,166,0,0
0.139166666666667,1200,166,0,0,0,0,0,0,0,0,-0,-0,0,0,0,0,0,167,167,0,0
0.14,1200,167,0,0,0,0,0,0,0,0,-0,-0,0,0,0,0,0,168,168,0,0
0.140833333333333,1200,168,0,0,0,0,0,0,0,0,-0,-0,0,0,0,0,0,169,169,0,0
0.141666666666667,1200,169,0,0,0,0,0,0,0,0,-0,-0,0,0,0,0,0,170,170,0,0
0.1425,1200,170,0,0,0,0,0,0,0,0,-0,-0,0,0,0,0,0,171,171,0,0
0.143333333333333,1200,171,0,0,0,0,0,0,0,0,-0,-0,0,0,0,0,0,172,172,0,0
0.144166666666667,1200,172,0,0,0,0,0,0,0,0,-0,-0,0,0,0,0,0,173,173,0,0
0.145,1200,173,0,0,0,0,0,0,0,0,-0,-0,0,0,0,0,0,174,174,0,0
0.145833333333333,1200,174,0,0,0,0,0,0,0,0,-0,-0,0,0,0,0,0,175,175,0,0
0.146666666666667,1200,175,0,0,0,0,0,0,0,0,-0,-0,0,0,0,0,0,176,176,0,0
0.1475,1200,176,0,0,0,0,0,0,0,0,-0,-0,0,0,0,0,0,177,177,0,0
0.148333333333333,1200,177,0,0,0,0,0,0,0,0,-0,-0,0,0,0,0,0,178,178,0,0
0.149166666666667,1200,178,0,0,0,0,0,0,0,0,-0,-0,0,0,0,0,0,179,179,0,0
0.15,1200,179,0,0,0,0,0,0,0,0,-0,-0,0,0,0,0,0,180,180,0,0
0.150833333333333,1200,180,0,0,0,0,0,0,0,0,-0,-0,0,0,0,0,0,181,181,0,0
0.151666666666667,1200,181,0,0,0,0,0,0,0,0,-0,-0,0,0,0,0,0,182,182,0,0
0.1525,1200,182,0,0,0,0,0,0,0,0,-0,-0,0,0,0,0,0,183,183,0,0
0.153333333333333,1200,183,0,0,0,0,0,0,0,0,-0,-0,0,0,0,0,0,184,184,0,0
0.154166666666667,1200,184,0,0,0,0,0,0,0,0,-0,-0,0,0,0,0,0,185,185,0,0
0.155,1200,185,0,0,0,0,0,0,0,0,-0,-0,0,0,0,0,0,186,186,0,0
0.155833333333333,1200,186,0,0,0,0,0,0,0,0,-0,-0,0,0,0,0,0,187,187,0,0
0.156666666666667,1200,187,0,0,0,0,0,0,0,0,-0,-0,0,0,0,0,0,188,188,0,0
0.1575,1200,188,0,0,0,0,0,0,0,0,-0,-0,0,0,0,0,0,189,189,0,0
0.158333333333333,1200,189,0,0,0,0,0,0,0,0,-0,-0,0,0,0,0,0,190,190,0,0
0.159166666666667,1200,190,0,0,0,0,0,0,0,0,-0,-0,0,0,0,0,0,191,191,0,0
0.16,1200,191,0,0,0,0,0,0,0,0,-0,-0,0,0,0,0,0,192,192,0,0
0.160833333333333,1200,192,0,0,0,0,0,0,0,0,-0,-0,0,0,0,0,0,193,193,0,0
0.161666666666667,1200,193,0,0,0,0,0,0,0,0,-0,-0,0,0,0,0,0,194,194,0,0
0.1625,1200,194,0,0,0,0,0,0,0,0,-0,-0,0,0,0,0,0,195,195,0,0
0.163333333333333,1200,195,0,0,0,0,0,0,0,0,-0,-0,0,0,0,0,0,196,196,0,0
0.164166666666667,1200,196,0,0,0,0,0,0,0,0,-0,-0,0,0,0,0,0,197,197,0,0
0.165,1200,197,0,0,0,0,0,0,0,0,-0,-0,0,0,0,0,0,198,198,0,0
0.165833333333333,1200,198,0,0,0,0,0,0,0,0,-0,-0,0,0,0,0,0,199,199,0,0
0.166666666666667,1200,199,0,0,0,0,0,0,0,0,-0,-0,0,0,0,0,0,200,200,0,0
0.1675,1200,200,0,0,0,0,0,0,0,0,-0,-0,0,0,0,0,0,201,201,0,0
0.168333333333333,1200,201,0,0,0,0,0,0,0,0,-0,-0,0,0,0,0,0,202,202,0,0
0.169166666666667,1200,202,0,0,0,0,0,0,0,0,-0,-0,0,0,0,0,0,203,203,0,0
0.17,1200,203,0,0,0,0,0,0,0,0,-0,-0,0,0,0,0,0,204,204,0,0
0.170833333333333,1200,204,0,0,0,0,0,0,0,0,-0,-0,0,0,0,0,0,205,205,0,0
0.171666666666666,1200,205,0,0,0,0,0,0,0,0,-0,-0,0,0,0,0,0,206,206,0,0
0.1725,1200,206,0,0,0,0,0,0,0,0,-0,-0,0,0,0,0,0,207,207,0,0
0.173333333333333,1200,207,0,0,0,0,0,0,0,0,-0,-0,0,0,0,0,0,208,208,0,0
0.174166666666666,1200,208,0,0,0,0,0,0,0,0,-0,-0,0,0,0,0,0,209,209,0,0
0.175,1200,209,0,0,0,0,0,0,0,0,-0,-0,0,0,0,0,0,210,210,0,0
0.175833333333333,1200,210,0,0,0,0,0,0,0,0,-0,-0,0,0,0,0,0,211,211,0,0
0.176666666666666,1200,211,0,0,0,0,0,0,0,0,-0,-0,0,0,0,0,0,212,212,0,0
0.1775,1200,212,0,0,0,0,0,0,0,0,-0,-0,0,0,0,0,0,213,213,0,0
0.178333333333333,1200,213,0,0,0,0,0,0,0,0,-0,-0,0,0,0,0,0,214,214,0,0
0.179166666666666,1200,214,0,0,0,0,0,0,0,0,-0,-0,0,0,0,0,0,215,215,0,0
0.18,1200,215,0,0,0,0,0,0,0,0,-0,-0,0,0,0,0,0,216,216,0,0
0.180833333333333,1200,216,0,0,0,0,0,0,0,0,-0,-0,0,0,0,0,0,217,217,0,0
0.181666666666666,1200,217,0,0,0,0,0,0,0,0,-0,-0,0,0,0,0,0,218,218,0,0
0.1825,1200,218,0,0,0,0,0,0,0,0,-0,-0,0,0,0,0,0,219,219,0,0
0.183333333333333,1200,219,0,0,0,0,0,0,0,0,-0,-0,0,0,0,0,0,220,220,0,0
0.184166666666666,1200,220,0,0,0,0,0,0,0,0,-0,-0,0,0,0,0,0,221,221,0,0
0.185,1200,221,0,0,0,0,0,0,0,0,-0,-0,0,0,0,0,0,222,222,0,0
0.185833333333333,1200,222,0,0,0,0,0,0,0,0,-0,-0,0,0,0,0,0,223,223,0,0
0.186666666666666,1200,223,0,0,0,0,0,0,0,0,-0,-0,0,0,0,0,0,224,224,0,0
0.1875,1200,224,0,0,0,0,0,0,0,0,-0,-0,0,0,0,0,0,225,225,0,0
0.188333333333333,1200,225,0,0,0,0,0,0,0,0,-0,-0,0,0,0,0,0,226,226,0,0
0.189166666666666,1200,226,0,0,0,0,0,0,0,0,-0,-0,0,0,0,0,0,227,227,0,0
0.19,1200,227,0,0,0,0,0,0,0,0,-0,-0,0,0,0,0,0,228,228,0,0
0.190833333333333,1200,228,0,0,0,0,0,0,0,0,-0,-0,0,0,0,0,0,229,229,0,0
0.191666666666666,1200,229,0,0,0,0,0,0,0,0,-0,-0,0,0,0,0,0,230,230,0,0
0.1925,1200,230,0,0,0,0,0,0,0,0,-0,-0,0,0,0,0,0,231,231,0,0
0.193333333333333,1200,231,0,0,0,0,0,0,0,0,-0,-0,0,0,0,0,0,232,232,0,0
0.194166666666666,1200,232,0,0,0,0,0,0,0,0,-0,-0,0,0,0,0,0,233,233,0,0
0.195,1200,233,0,0,0,0,0,0,0,0,-0,-0,0,0,0,0,0,234,234,0,0
0.195833333333333,1200,234,0,0,0,0,0,0,0,0,-0,-0,0,0,0,0,0,235,235,0,0
0.196666666666666,1200,235,0,0,0,0,0,0,0,0,-0,-0,0,0,0,0,0,236,236,0,0
0.1975,1200,236,0,0,0,0,0,0,0,0,-0,-0,0,0,0,0,0,237,237,0,0
0.198333333333333,1200,237,0,0,0,0,0,0,0,0,-0,-0,0,0,0,0,0,238,238,0,0
0.199166666666666,1200,238,0,0,0,0,0,0,0,0,-0,-0,0,0,0,0,0,239,239,0,0
0.2,1200,239,0,0,0,0,0,0,0,0,-0,-0,0,0,0,0,0,240,240,0,0
0.200833333333333,1200,240,0,0,0,0,0,0,0,0,-0,-0,0,0,0,0,0,241,241,0,0
0.201666666666666,1200,241,0,0,0,0,0,0,0,0,-0,-0,0,0,0,0,0,242,242,0,0
0.2025,1200,242,0,0,0,0,0,0,0,0,-0,-0,0,0,0,0,0,243,243,0,0
0.203333333333333,1200,243,0,0,0,0,0,0,0,0,-0,-0,0,0,0,0,0,244,244,0,0
0.204166666666666,1200,244,0,0,0,0,0,0,0,0,-0,-0,0,0,0,0,0,245,245,0,0
0.204999999999999,1200,245,0,0,0,0,0,0,0,0,-0,-0,0,0,0,0,0,246,246,0,0
0.205833333333333,1200,246,0,0,0,0,0,0,0,0,-0,-0,0,0,0,0,0,247,247,0,0
0.206666666666666,1200,247,0,0,0,0,0,0,0,0,-0,-0,0,0,0,0,0,248,248,0,0
0.207499999999999,1200,248,0,0,0,0,0,0,0,0,-0,-0,0,0,0,0,0,249,249,0,0
0.208333333333333,1200,249,0,0,0,0,0,0,0,0,-0,-0,0,0,0,0,0,250,250,0,0
0.209166666666666,1200,250,0,0,0,0,0,0,0,0,-0,-0,0,0,0,0,0,251,251,0,0
0.209999999999999,1200,251,0,0,0,0,0,0,0,0,-0,-0,0,0,0,0,0,252,252,0,0
0.210833333333333,1200,252,0,0,0,0,0,0,0,0,-0,-0,0,0,0,0,0,253,253,0,0
0.211666666666666,1200,253,0,0,0,0,0,0,0,0,-0,-0,0,0,0,0,0,254,254,0,0
0.212499999999999,1200,254,0,0,0,0,0,0,0,0,-0,-0,0,0,0,0,0,255,255,0,0
0.213333333333333,1200,255,0,0,0,0,0,0,0,0,-0,-0,0,0,0,0,0,256,256,0,0
0.214166666666666,1200,256,0,0,0,0,0,0,0,0,-0,-0,0,0,0,0,0,257,257,0,0
0.214999999999999,1200,257,0,0,0,0,0,0,0,0,-0,-0,0,0,0,0,0,258,258,0,0
0.215833333333333,1200,258,0,0,0,0,0,0,0,0,-0,-0,0,0,0,0,0,259,259,0,0
0.216666666666666,1200,259,0,0,0,0,0,0,0,0,-0,-0,0,0,0,0,0,260,260,0,0
0.217499999999999,1200,260,0,0,0,0,0,0,0,0,-0,-0,0,0,0,0,0,261,261,0,0
0.218333333333333,1200,261,0,0,0,0,0,0,0,0,-0,-0,0,0,0,0,0,262,262,0,0
0.219166666666666,1200,262,0,0,0,0,0,0,0,0,-0,-0,0,0,0,0,0,263,263,0,0
0.219999999999999,1200,263,0,0,0,0,0,0,0,0,-0,-0,0,0,0,0,0,264,264,0,0
0.220833333333333,1200,264,0,0,0,0,0,0,0,0,-0,-0,0,0,0,0,0,265,265,0,0
0.221666666666666,1200,265,0,0,0,0,0,0,0,0,-0,-0,0,0,0,0,0,266,266,0,0
0.222499999999999,1200,266,0,0,0,0,0,0,0,0,-0,-0,0,0,0,0,0,267,267,0,0
0.223333333333333,1200,267,0,0,0,0,0,0,0,0,-0,-0,0,0,0,0,0,268,268,0,0
0.224166666666666,1200,268,0,0,0,0,0,0,0,0,-0,-0,0,0,0,0,0,269,269,0,0
0.224999999999999,1200,269,0,0,0,0,0,0,0,0,-0,-0,0,0,0,0,0,270,270,0,0
0.225833333333333,1200,270,0,0,0,0,0,0,0,0,-0,-0,0,0,0,0,0,271,271,0,0
0.226666666666666,1200,271,0,0,0,0,0,0,0,0,-0,-0,0,0,0,0,0,272,272,0,0
0.227499999999999,1200,272,0,0,0,0,0,0,0,0,-0,-0,0,0,0,0,0,273,273,0,0
0.228333333333333,1200,273,0,0,0,0,0,0,0,0,-0,-0,0,0,0,0,0,274,274,0,0
0.229166666666666,1200,274,0,0,0,0,0,0,0,0,-0,-0,0,0,0,0,0,275,275,0,0
0.229999999999999,1200,275,0,0,0,0,0,0,0,0,-0,-0,0,0,0,0,0,276,276,0,0
0.230833333333333,1200,276,0,0,0,0,0,0,0,0,-0,-0,0,0,0,0,0,277,277,0,0
0.231666666666666,1200,277,0,0,0,0,0,0,0,0,-0,-0,0,0,0,0,0,278,278,0,0
0.232499999999999,1200,278,0,0,0,0,0,0,0,0,-0,-0,0,0,0,0,0,279,279,0,0
0.233333333333333,1200,279,0,0,0,0,0,0,0,0,-0,-0,0,0,0,0,0,280,280,0,0
0.234166666666666,1200,280,0,0,0,0,0,0,0,0,-0,-0,0,0,0,0,0,281,281,0,0
0.234999999999999,1200,281,0,0,0,0,0,0,0,0,-0,-0,0,0,0,0,0,282,282,0,0
0.235833333333333,1200,282,0,0,0,0,0,0,0,0,-0,-0,0,0,0,0,0,283,283,0,0
0.236666666666666,1200,283,0,0,0,0,0,0,0,0,-0,-0,0,0,0,0,0,284,284,0,0
0.237499999999999,1200,284,0,0,0,0,0,0,0,0,-0,-0,0,0,0,0,0,285,285,0,0
0.238333333333332,1200,285,0,0,0,0,0,0,0,0,-0,-0,0,0,0,0,0,286,286,0,0
0.239166666666666,1200,286,0,0,0,0,0,0,0,0,-0,-0,0,0,0,0,0,287,287,0,0
0.239999999999999,1200,287,0,0,0,0,0,0,0,0,-0,-0,0,0,0,0,0,288,288,0,0
0.240833333333332,1200,288,0,0,0,0,0,0,0,0,-0,-0,0,0,0,0,0,289,289,0,0
0.241666666666666,1200,289,0,0,0,0,0,0,0,0,-0,-0,0,0,0,0,0,290,290,0,0
0.242499999999999,1200,290,0,0,0,0,0,0,0,0,-0,-0,0,0,0,0,0,291,291,0,0
0.243333333333332,1200,291,0,0,0,0,0,0,0,0,-0,-0,0,0,0,0,0,292,292,0,0
0.244166666666666,1200,292,0,0,0,0,0,0,0,0,-0,-0,0,0,0,0,0,293,293,0,0
0.244999999999999,1200,293,0,0,0,0,0,0,0,0,-0,-0,0,0,0,0,0,294,294,0,0
0.245833333333332,1200,294,0,0,0,0,0,0,0,0,-0,-0,0,0,0,0,0,295,295,0,0
0.246666666666666,1200,295,0,0,0,0,0,0,0,0,-0,-0,0,0,0,0,0,296,296,0,0
0.247499999999999,1200,296,0,0,0,0,0,0,0,0,-0,-0,0,0,0,0,0,297,297,0,0
0.248333333333332,1200,297,0,0,0,0,0,0,0,0,-0,-0,0,0,0,0,0,298,298,0,0
0.249166666666666,1200,298,0,0,0,0,0,0,0,0,-0,-0,0,0,0,0,0,299,299,0,0
0.249999999999999,1200,299,0,0,0,0,0,0,0,0,-0,-0,0,0,0,0,0,300,300,0,0
0.250833333333332,1200,300,0,0,0,0,0,0,0,0,-0,-0,0,0,0,0,0,301,301,0,0
0.251666666666666,1200,301,0,0,0,0,0,0,0,0,-0,-0,0,0,0,0,0,302,302,0,0
0.252499999999999,1200,302,0,0,0,0,0,0,0,0,-0,-0,0,0,0,0,0,303,303,0,0
0.253333333333332,1200,303,0,0,0,0,0,0,0,0,-0,-0,0,0,0,0,0,304,304,0,0
0.254166666666666,1200,304,0,0,0,0,0,0,0,0,-0,-0,0,0,0,0,0,305,305,0,0
0.254999999999999,1200,305,0,0,0,0,0,0,0,0,-0,-0,0,0,0,0,0,306,306,0,0
0.255833333333332,1200,306,0,0,0,0,0,0,0,0,-0,-0,0,0,0,0,0,307,307,0,0
0.256666666666666,1200,307,0,0,0,0,0,0,0,0,-0,-0,0,0,0,0,0,308,308,0,0
0.257499999999999,1200,308,0,0,0,0,0,0,0,0,-0,-0,0,0,0,0,0,309,309,0,0
0.258333333333333,1200,309,0,0,0,0,0,0,0,0,-0,-0,0,0,0,0,0,310,310,0,0
0.259166666666666,1200,310,0,0,0,0,0,0,0,0,-0,-0,0,0,0,0,0,311,311,0,0
0.259999999999999,1200,311,0,0,0,0,0,0,0,0,-0,-0,0,0,0,0,0,312,312,0,0
0.260833333333333,1200,312,0,0,0,0,0,0,0,0,-0,-0,0,0,0,0,0,313,313,0,0
0.261666666666666,1200,313,0,0,0,0,0,0,0,0,-0,-0,0,0,0,0,0,314,314,0,0
0.262499999999999,1200,314,0,0,0,0,0,0,0,0,-0,-0,0,0,0,0,0,315,315,0,0
0.263333333333333,1200,315,0,0,0,0,0,0,0,0,-0,-0,0,0,0,0,0,316,316,0,0
0.264166666666666,1200,316,0,0,0,0,0,0,0,0,-0,-0,0,0,0,0,0,317,317,0,0
0.264999999999999,1200,317,0,0,0,0,0,0,0,0,-0,-0,0,0,0,0,0,318,318,0,0
0.265833333333333,1200,318,0,0,0,0,0,0,0,0,-0,-0,0,0,0,0,0,319,319,0,0
0.266666666666666,1200,319,0,0,0,0,0,0,0,0,-0,-0,0,0,0,0,0,320,320,0,0
0.267499999999999,1200,320,0,0,0,0,0,0,0,0,-0,-0,0,0,0,0,0,321,321,0,0
0.268333333333333,1200,321,0,0,0,0,0,0,0,0,-0,-0,0,0,0,0,0,322,322,0,0
0.269166666666666,1200,322,0,0,0,0,0,0,0,0,-0,-0,0,0,0,0,0,323,323,0,0
0.269999999999999,1200,323,0,0,0,0,0,0,0,0,-0,-0,0,0,0,0,0,324,324,0,0
0.270833333333333,1200,324,0,0,0,0,0,0,0,0,-0,-0,0,0,0,0,0,325,325,0,0
0.271666666666666,1200,325,0,0,0,0,0,0,0,0,-0,-0,0,0,0,0,0,326,326,0,0
0.2725,1200,326,0,0,0,0,0,0,0,0,-0,-0,0,0,0,0,0,327,327,0,0
0.273333333333333,1200,327,0,0,0,0,0,0,0,0,-0,-0,0,0,0,0,0,328,328,0,0
0.274166666666666,1200,328,0,0,0,0,0,0,0,0,-0,-0,0,0,0,0,0,329,329,0,0
0.275,1200,329,0,0,0,0,0,0,0,0,-0,-0,0,0,0,0,0,330,330,0,0
0.275833333333333,1200,330,0,0,0,0,0,0,0,0,-0,-0,0,0,0,0,0,331,331,0,0
0.276666666666666,1200,331,0,0,0,0,0,0,0,0,-0,-0,0,0,0,0,0,332,332,0,0
0.2775,1200,332,0,0,0,0,0,0,0,0,-0,-0,0,0,0,0,0,333,333,0,0
0.278333333333333,1200,333,0,0,0,0,0,0,0,0,-0,-0,0,0,0,0,0,334,334,0,0
0.279166666666666,1200,334,0,0,0,0,0,0,0,0,-0,-0,0,0,0,0,0,335,335,0,0
0.28,1200,335,0,0,0,0,0,0,0,0,-0,-0,0,0,0,0,0,336,336,0,0
0.280833333333333,1200,336,0,0,0,0,0,0,0,0,-0,-0,0,0,0,0,0,337,337,0,0
0.281666666666666,1200,337,0,0,0,0,0,0,0,0,-0,-0,0,0,0,0,0,338,338,0,0
0.2825,1200,338,0,0,0,0,0,0,0,0,-0,-0,0,0,0,0,0,339,339,0,0
0.283333333333333,1200,339,0,0,0,0,0,0,0,0,-0,-0,0,0,0,0,0,340,340,0,0
0.284166666666666,1200,340,0,0,0,0,0,0,0,0,-0,-0,0,0,0,0,0,341,341,0,0
0.285,1200,341,0,0,0,0,0,0,0,0,-0,-0,0,0,0,0,0,342,342,0,0
0.285833333333333,1200,342,0,0,0,0,0,0,0,0,-0,-0,0,0,0,0,0,343,343,0,0
0.286666666666667,1200,343,0,0,0,0,0,0,0,0,-0,-0,0,0,0,0,0,344,344,0,0
0.2875,1200,344,0,0,0,0,0,0,0,0,-0,-0,0,0,0,0,0,345,345,0,0
0.288333333333333,1200,345,0,0,0,0,0,0,0,0,-0,-0,0,0,0,0,0,346,346,0,0
0.289166666666667,1200,346,0,0,0,0,0,0,0,0,-0,-0,0,0,0,0,0,347,347,0,0
0.29,1200,347,0,0,0,0,0,0,0,0,-0,-0,0,0,0,0,0,348,348,0,0
0.290833333333333,1200,348,0,0,0,0,0,0,0,0,-0,-0,0,0,0,0,0,349,349,0,0
0.291666666666667,1200,349,0,0,0,0,0,0,0,0,-0,-0,0,0,0,0,0,350,350,0,0
0.2925,1200,350,0,0,0,0,0,0,0,0,-0,-0,0,0,0,0,0,351,351,0,0
0.293333333333333,1200,351,0,0,0,0,0,0,0,0,-0,-0,0,0,0,0,0,352,352,0,0
0.294166666666667,1200,352,0,0,0,0,0,0,0,0,-0,-0,0,0,0,0,0,353,353,0,0
0.295,1200,353,0,0,0,0,0,0,0,0,-0,-0,0,0,0,0,0,354,354,0,0
0.295833333333333,1200,354,0,0,0,0,0,0,0,0,-0,-0,0,0,0,0,0,355,355,0,0
0.296666666666667,1200,355,0,0,0,0,0,0,0,0,-0,-0,0,0,0,0,0,356,356,0,0
0.2975,1200,356,0,0,0,0,0,0,0,0,-0,-0,0,0,0,0,0,357,357,0,0
0.298333333333333,1200,357,0,0,0,0,0,0,0,0,-0,-0,0,0,0,0,0,358,358,0,0
0.299166666666667,1200,358,0,0,0,0,0,0,0,0,-0,-0,0,0,0,0,0,359,359,0,0
0.3,1200,359,0,0,0,0,0,0,0,0,-0,-0,0,0,0,0,0,360,360,0,0
0.300833333333334,1200,360,0,0,0,0,0,0,0,0,-0,-0,0,0,0,0,0,361,361,0,0
0.301666666666667,1200,361,0,0,0,0,0,0,0,0,-0,-0,0,0,0,0,0,362,362,0,0
0.3025,1200,362,0,0,0,0,0,0,0,0,-0,-0,0,0,0,0,0,363,363,0,0
0.303333333333334,1200,363,0,0,0,0,0,0,0,0,-0,-0,0,0,0,0,0,364,364,0,0
0.304166666666667,1200,364,0,0,0,0,0,0,0,0,-0,-0,0,0,0,0,0,365,365,0,0
0.305,1200,365,0,0,0,0,0,0,0,0,-0,-0,0,0,0,0,0,366,366,0,0
0.305833333333334,1200,366,0,0,0,0,0,0,0,0,-0,-0,0,0,0,0,0,367,367,0,0
0.306666666666667,1200,367,0,0,0,0,0,0,0,0,-0,-0,0,0,0,0,0,368,368,0,0
0.3075,1200,368,0,0,0,0,0,0,0,0,-0,-0,0,0,0,0,0,369,369,0,0
0.308333333333334,1200,369,0,0,0,0,0,0,0,0,-0,-0,0,0,0,0,0,370,370,0,0
0.309166666666667,1200,370,0,0,0,0,0,0,0,0,-0,-0,0,0,0,0,0,371,371,0,0
0.31,1200,371,0,0,0,0,0,0,0,0,-0,-0,0,0,0,0,0,372,372,0,0
0.310833333333334,1200,372,0,0,0,0,0,0,0,0,-0,-0,0,0,0,0,0,373,373,0,0
0.311666666666667,1200,373,0,0,0,0,0,0,0,0,-0,-0,0,0,0,0,0,374,374,0,0
0.3125,1200,374,0,0,0,0,0,0,0,0,-0,-0,0,0,0,0,0,375,375,0,0
0.313333333333334,1200,375,0,0,0,0,0,0,0,0,-0,-0,0,0,0,0,0,376,376,0,0
0.314166666666667,1200,376,0,0,0,0,0,0,0,0,-0,-0,0,0,0,0,0,377,377,0,0
0.315000000000001,1200,377,0,0,0,0,0,0,0,0,-0,-0,0,0,0,0,0,378,378,0,0
0.315833333333334,1200,378,0,0,0,0,0,0,0,0,-0,-0,0,0,0,0,0,379,379,0,0
0.316666666666667,1200,379,0,0,0,0,0,0,0,0,-0,-0,0,0,0,0,0,380,380,0,0
0.317500000000001,1200,380,0,0,0,0,0,0,0,0,-0,-0,0,0,0,0,0,381,381,0,0
0.318333333333334,1200,381,0,0,0,0,0,0,0,0,-0,-0,0,0,0,0,0,382,382,0,0
0.319166666666667,1200,382,0,0,0,0,0,0,0,0,-0,-0,0,0,0,0,0,383,383,0,0
0.320000000000001,1200,383,0,0,0,0,0,0,0,0,-0,-0,0,0,0,0,0,384,384,0,0
0.320833333333334,1200,384,0,0,0,0,0,0,0,0,-0,-0,0,0,0,0,0,385,385,0,0
0.321666666666667,1200,385,0,0,0,0,0,0,0,0,-0,-0,0,0,0,0,0,386,386,0,0
0.322500000000001,1200,386,0,0,0,0,0,0,0,0,-0,-0,0,0,0,0,0,387,387,0,0
0.323333333333334,1200,387,0,0,0,0,0,0,0,0,-0,-0,0,0,0,0,0,388,388,0,0
0.324166666666667,1200,388,0,0,0,0,0,0,0,0,-0,-0,0,0,0,0,0,389,389,0,0
0.325000000000001,1200,389,0,0,0,0,0,0,0,0,-0,-0,0,0,0,0,0,390,390,0,0
0.325833333333334,1200,390,0,0,0,0,0,0,0,0,-0,-0,0,0,0,0,0,391,391,0,0
0.326666666666667,1200,391,0,0,0,0,0,0,0,0,-0,-0,0,0,0,0,0,392,392,0,0
0.327500000000001,1200,392,0,0,0,0,0,0,0,0,-0,-0,0,0,0,0,0,393,393,0,0
0.328333333333334,1200,393,0,0,0,0,0,0,0,0,-0,-0,0,0,0,0,0,394,394,0,0
0.329166666666667,1200,394,0,0,0,0,0,0,0,0,-0,-0,0,0,0,0,0,395,395,0,0
0.330000000000001,1200,395,0,0,0,0,0,0,0,0,-0,-0,0,0,0,0,0,396,396,0,0
0.330833333333334,1200,396,0,0,0,0,0,0,0,0,-0,-0,0,0,0,0,0,397,397,0,0
0.331666666666668,1200,397,0,0,0,0,0,0,0,0,-0,-0,0,0,0,0,0,398,398,0,0
0.332500000000001,1200,398,0,0,0,0,0,0,0,0,-0,-0,0,0,0,0,0,399,399,0,0
0.333333333333334,1200,399,0,0,0,0,0,0,0,0,-0,-0,0,0,0,0,0,400,400,0,0
0.334166666666668,1200,400,0,0,0,0,0,0,0,0,-0,-0,0,0,0,0,0,401,401,0,0
0.335000000000001,1200,401,0,0,0,0,0,0,0,0,-0,-0,0,0,0,0,0,402,402,0,0
0.335833333333334,1200,402,0,0,0,0,0,0,0,0,-0,-0,0,0,0,0,0,403,403,0,0
0.336666666666668,1200,403,0,0,0,0,0,0,0,0,-0,-0,0,0,0,0,0,404,404,0,0
0.337500000000001,1200,404,0,0,0,0,0,0,0,0,-0,-0,0,0,0,0,0,405,405,0,0
0.338333333333334,1200,405,0,0,0,0,0,0,0,0,-0,-0,0,0,0,0,0,406,406,0,0
0.339166666666668,1200,406,0,0,0,0,0,0,0,0,-0,-0,0,0,0,0,0,407,407,0,0
0.340000000000001,1200,407,0,0,0,0,0,0,0,0,-0,-0,0,0,0,0,0,408,408,0,0
0.340833333333334,1200,408,0,0,0,0,0,0,0,0,-0,-0,0,0,0,0,0,409,409,0,0
0.341666666666668,1200,409,0,0,0,0,0,0,0,0,-0,-0,0,0,0,0,0,410,410,0,0
0.342500000000001,1200,410,0,0,0,0,0,0,0,0,-0,-0,0,0,0,0,0,411,411,0,0
0.343333333333334,1200,411,0,0,0,0,0,0,0,0,-0,-0,0,0,0,0,0,412,412,0,0
0.344166666666668,1200,412,0,0,0,0,0,0,0,0,-0,-0,0,0,0,0,0,413,413,0,0
0.345000000000001,1200,413,0,0,0,0,0,0,0,0,-0,-0,0,0,0,0,0,414,414,0,0
0.345833333333335,1200,414,0,0,0,0,0,0,0,0,-0,-0,0,0,0,0,0,415,415,0,0
0.346666666666668,1200,415,0,0,0,0,0,0,0,0,-0,-0,0,0,0,0,0,416,416,0,0
0.347500000000001,1200,416,0,0,0,0,0,0,0,0,-0,-0,0,0,0,0,0,417,417,0,0
0.348333333333335,1200,417,0,0,0,0,0,0,0,0,-0,-0,0,0,0,0,0,418,418,0,0
0.349166666666668,1200,418,0,0,0,0,0,0,0,0,-0,-0,0,0,0,0,0,419,419,0,0
0.350000000000001,1200,419,0,0,0,0,0,0,0,0,-0,-0,0,0,0,0,0,420,420,0,0
0.350833333333335,1200,420,0,0,0,0,0,0,0,0,-0,-0,0,0,0,0,0,421,421,0,0
0.351666666666668,1200,421,0,0,0,0,0,0,0,0,-0,-0,0,0,0,0,0,422,422,0,0
0.352500000000001,1200,422,0,0,0,0,0,0,0,0,-0,-0,0,0,0,0,0,423,423,0,0
0.353333333333335,1200,423,0,0,0,0,0,0,0,0,-0,-0,0,0,0,0,0,424,424,0,0
0.354166666666668,1200,424,0,0,0,0,0,0,0,0,-0,-0,0,0,0,0,0,425,425,0,0
0.355000000000001,1200,425,0,0,0,0,0,0,0,0,-0,-0,0,0,0,0,0,426,426,0,0
0.355833333333335,1200,426,0,0,0,0,0,0,0,0,-0,-0,0,0,0,0,0,427,427,0,0
0.356666666666668,1200,427,0,0,0,0,0,0,0,0,-0,-0,0,0,0,0,0,428,428,0,0
0.357500000000001,1200,428,0,0,0,0,0,0,0,0,-0,-0,0,0,0,0,0,429,429,0,0
0.358333333333335,1200,429,0,0,0,0,0,0,0,0,-0,-0,0,0,0,0,0,430,430,0,0
0.359166666666668,1200,430,0,0,0,0,0,0,0,0,-0,-0,0,0,0,0,0,431,431,0,0
0.360000000000002,1200,431,0,0,0,0,0,0,0,0,-0,-0,0,0,0,0,0,432,432,0,0
0.360833333333335,1200,432,0,0,0,0,0,0,0,0,-0,-0,0,0,0,0,0,433,433,0,0
0.361666666666668,1200,433,0,0,0,0,0,0,0,0,-0,-0,0,0,0,0,0,434,434,0,0
0.362500000000002,1200,434,0,0,0,0,0,0,0,0,-0,-0,0,0,0,0,0,435,435,0,0
0.363333333333335,1200,435,0,0,0,0,0,0,0,0,-0,-0,0,0,0,0,0,436,436,0,0
0.364166666666668,1200,436,0,0,0,0,0,0,0,0,-0,-0,0,0,0,0,0,437,437,0,0
0.365000000000002,1200,437,0,0,0,0,0,0,0,0,-0,-0,0,0,0,0,0,438,438,0,0
0.365833333333335,1200,438,0,0,0,0,0,0,0,0,-0,-0,0,0,0,0,0,439,439,0,0
0.366666666666668,1200,439,0,0,0,0,0,0,0,0,-0,-0,0,0,0,0,0,440,440,0,0
0.367500000000002,1200,440,0,0,0,0,0,0,0,0,-0,-0,0,0,0,0,0,441,441,0,0
0.368333333333335,1200,441,0,0,0,0,0,0,0,0,-0,-0,0,0,0,0,0,442,442,0,0
0.369166666666668,1200,442,0,0,0,0,0,0,0,0,-0,-0,0,0,0,0,0,443,443,0,0
0.370000000000002,1200,443,0,0,0,0,0,0,0,0,-0,-0,0,0,0,0,0,444,444,0,0
0.370833333333335,1200,444,0,0,0,0,0,0,0,0,-0,-0,0,0,0,0,0,445,445,0,0
0.371666666666668,1200,445,0,0,0,0,0,0,0,0,-0,-0,0,0,0,0,0,446,446,0,0
0.372500000000002,1200,446,0,0,0,0,0,0,0,0,-0,-0,0,0,0,0,0,447,447,0,0
0.373333333333335,1200,447,0,0,0,0,0,0,0,0,-0,-0,0,0,0,0,0,448,448,0,0
0.374166666666669,1200,448,0,0,0,0,0,0,0,0,-0,-0,0,0,0,0,0,449,449,0,0
0.375000000000002,1200,449,0,0,0,0,0,0,0,0,-0,-0,0,0,0,0,0,450,450,0,0
0.375833333333335,1200,450,0,0,0,0,0,0,0,0,-0,-0,0,0,0,0,0,451,451,0,0
0.376666666666669,1200,451,0,0,0,0,0,0,0,0,-0,-0,0,0,0,0,0,452,452,0,0
0.377500000000002,1200,452,0,0,0,0,0,0,0,0,-0,-0,0,0,0,0,0,453,453,0,0
0.378333333333335,1200,453,0,0,0,0,0,0,0,0,-0,-0,0,0,0,0,0,454,454,0,0
0.379166666666669,1200,454,0,0,0,0,0,0,0,0,-0,-0,0,0,0,0,0,455,455,0,0
0.380000000000002,1200,455,0,0,0,0,0,0,0,0,-0,-0,0,0,0,0,0,456,456,0,0
0.380833333333335,1200,456,0,0,0,0,0,0,0,0,-0,-0,0,0,0,0,0,457,457,0,0
0.381666666666669,1200,457,0,0,0,0,0,0,0,0,-0,-0,0,0,0,0,0,458,458,0,0
0.382500000000002,1200,458,0,0,0,0,0,0,0,0,-0,-0,0,0,0,0,0,459,459,0,0
0.383333333333335,1200,459,0,0,0,0,0,0,0,0,-0,-0,0,0,0,0,0,460,460,0,0
0.384166666666669,1200,460,0,0,0,0,0,0,0,0,-0,-0,0,0,0,0,0,461,461,0,0
0.385000000000002,1200,461,0,0,0,0,0,0,0,0,-0,-0,0,0,0,0,0,462,462,0,0
0.385833333333335,1200,462,0,0,0,0,0,0,0,0,-0,-0,0,0,0,0,0,463,463,0,0
0.386666666666669,1200,463,0,0,0,0,0,0,0,0,-0,-0,0,0,0,0,0,464,464,0,0
0.387500000000002,1200,464,0,0,0,0,0,0,0,0,-0,-0,0,0,0,0,0,465,465,0,0
0.388333333333336,1200,465,0,0,0,0,0,0,0,0,-0,-0,0,0,0,0,0,466,466,0,0
0.389166666666669,1200,466,0,0,0,0,0,0,0,0,-0,-0,0,0,0,0,0,467,467,0,0
0.390000000000002,1200,467,0,0,0,0,0,0,0,0,-0,-0,0,0,0,0,0,468,468,0,0
0.390833333333336,1200,468,0,0,0,0,0,0,0,0,-0,-0,0,0,0,0,0,469,469,0,0
0.391666666666669,1200,469,0,0,0,0,0,0,0,0,-0,-0,0,0,0,0,0,470,470,0,0
0.392500000000002,1200,470,0,0,0,0,0,0,0,0,-0,-0,0,0,0,0,0,471,471,0,0
0.393333333333336,1200,471,0,0,0,0,0,0,0,0,-0,-0,0,0,0,0,0,472,472,0,0
0.394166666666669,1200,472,0,0,0,0,0,0,0,0,-0,-0,0,0,0,0,0,473,473,0,0
0.395000000000002,1200,473,0,0,0,0,0,0,0,0,-0,-0,0,0,0,0,0,474,474,0,0
0.395833333333336,1200,474,0,0,0,0,0,0,0,0,-0,-0,0,0,0,0,0,475,475,0,0
0.396666666666669,1200,475,0,0,0,0,0,0,0,0,-0,-0,0,0,0,0,0,476,476,0,0
0.397500000000002,1200,476,0,0,0,0,0,0,0,0,-0,-0,0,0,0,0,0,477,477,0,0
0.398333333333336,1200,477,0,0,0,0,0,0,0,0,-0,-0,0,0,0,0,0,478,478,0,0
0.399166666666669,1200,478,0,0,0,0,0,0,0,0,-0,-0,0,0,0,0,0,479,479,0,0
0.400000000000002,1200,479,0,0,0,0,0,0,0,0,-0,-0,0,0,0,0,0,480,480,0,0
0.400833333333336,1200,480,0,0,0,0,0,0,0,0,-0,-0,0,0,0,0,0,481,481,0,0
0.401666666666669,1200,481,0,0,0,0,0,0,0,0,-0,-0,0,0,0,0,0,482,482,0,0
0.402500000000003,1200,482,0,0,0,0,0,0,0,0,-0,-0,0,0,0,0,0,483,483,0,0
0.403333333333336,1200,483,0,0,0,0,0,0,0,0,-0,-0,0,0,0,0,0,484,484,0,0
0.404166666666669,1200,484,0,0,0,0,0,0,0,0,-0,-0,0,0,0,0,0,485,485,0,0
0.405000000000003,1200,485,0,0,0,0,0,0,0,0,-0,-0,0,0,0,0,0,486,486,0,0
0.405833333333336,1200,486,0,0,0,0,0,0,0,0,-0,-0,0,0,0,0,0,487,487,0,0
0.406666666666669,1200,487,0,0,0,0,0,0,0,0,-0,-0,0,0,0,0,0,488,488,0,0
0.407500000000003,1200,488,0,0,0,0,0,0,0,0,-0,-0,0,0,0,0,0,489,489,0,0
0.408333333333336,1200,489,0,0,0,0,0,0,0,0,-0,-0,0,0,0,0,0,490,490,0,0
0.409166666666669,1200,490,0,0,0,0,0,0,0,0,-0,-0,0,0,0,0,0,491,491,0,0
0.410000000000003,1200,491,0,0,0,0,0,0,0,0,-0,-0,0,0,0,0,0,492,492,0,0
0.410833333333336,1200,492,0,0,0,0,0,0,0,0,-0,-0,0,0,0,0,0,493,493,0,0
0.411666666666669,1200,493,0,0,0,0,0,0,0,0,-0,-0,0,0,0,0,0,494,494,0,0
0.412500000000003,1200,494,0,0,0,0,0,0,0,0,-0,-0,0,0,0,0,0,495,495,0,0
0.413333333333336,1200,495,0,0,0,0,0,0,0,0,-0,-0,0,0,0,0,0,496,496,0,0
0.414166666666669,1200,496,0,0,0,0,0,0,0,0,-0,-0,0,0,0,0,0,497,497,0,0
0.415000000000003,1200,497,0,0,0,0,0,0,0,0,-0,-0,0,0,0,0,0,498,498,0,0
0.415833333333336,1200,498,0,0,0,0,0,0,0,0,-0,-0,0,0,0,0,0,499,499,0,0
0.41666666666667,1200,499,0,0,0,0,0,0,0,0,-0,-0,0,0,0,0,0,500,500,0,0
0.417500000000003,1200,500,0,0,0,0,0,0,0,0,-0,-0,0,0,0,0,0,501,501,0,0
0.418333333333336,1200,501,0,0,0,0,0,0,0,0,-0,-0,0,0,0,0,0,502,502,0,0
0.41916666666667,1200,502,0,0,0,0,0,0,0,0,-0,-0,0,0,0,0,0,503,503,0,0
0.420000000000003,1200,503,0,0,0,0,0,0,0,0,-0,-0,0,0,0,0,0,504,504,0,0
0.420833333333336,1200,504,0,0,0,0,0,0,0,0,-0,-0,0,0,0,0,0,505,505,0,0
0.42166666666667,1200,505,0,0,0,0,0,0,0,0,-0,-0,0,0,0,0,0,506,506,0,0
0.422500000000003,1200,506,0,0,0,0,0,0,0,0,-0,-0,0,0,0,0,0,507,507,0,0
0.423333333333336,1200,507,0,0,0,0,0,0,0,0,-0,-0,0,0,0,0,0,508,508,0,0
0.42416666666667,1200,508,0,0,0,0,0,0,0,0,-0,-0,0,0,0,0,0,509,509,0,0
0.425000000000003,1200,509,0,0,0,0,0,0,0,0,-0,-0,0,0,0,0,0,510,510,0,0
0.425833333333336,1200,510,0,0,0,0,0,0,0,0,-0,-0,0,0,0,0,0,511,511,0,0
0.42666666666667,1200,511,0,0,0,0,0,0,0,0,-0,-0,0,0,0,0,0,512,512,0,0
0.427500000000003,1200,512,0,0,0,0,0,0,0,0,-0,-0,0,0,0,0,0,513,513,0,0
0.428333333333336,1200,513,0,0,0,0,0,0,0,0,-0,-0,0,0,0,0,0,514,514,0,0
0.42916666666667,1200,514,0,0,0,0,0,0,0,0,-0,-0,0,0,0,0,0,515,515,0,0
0.430000000000003,1200,515,0,0,0,0,0,0,0,0,-0,-0,0,0,0,0,0,516,516,0,0
0.430833333333337,1200,516,0,0,0,0,0,0,0,0,-0,-0,0,0,0,0,0,517,517,0,0
0.43166666666667,1200,517,0,0,0,0,0,0,0,0,-0,-0,0,0,0,0,0,518,518,0,0
0.432500000000003,1200,518,0,0,0,0,0,0,0,0,-0,-0,0,0,0,0,0,519,519,0,0
0.433333333333337,1200,519,0,0,0,0,0,0,0,0,-0,-0,0,0,0,0,0,520,520,0,0
0.43416666666667,1200,520,0,0,0,0,0,0,0,0,-0,-0,0,0,0,0,0,521,521,0,0
0.435000000000003,1200,521,0,0,0,0,0,0,0,0,-0,-0,0,0,0,0,0,522,522,0,0
0.435833333333337,1200,522,0,0,0,0,0,0,0,0,-0,-0,0,0,0,0,0,523,523,0,0
0.43666666666667,1200,523,0,0,0,0,0,0,0,0,-0,-0,0,0,0,0,0,524,524,0,0
0.437500000000003,1200,524,0,0,0,0,0,0,0,0,-0,-0,0,0,0,0,0,525,525,0,0
0.438333333333337,1200,525,0,0,0,0,0,0,0,0,-0,-0,0,0,0,0,0,526,526,0,0
0.43916666666667,1200,526,0,0,0,0,0,0,0,0,-0,-0,0,0,0,0,0,527,527,0,0
0.440000000000003,1200,527,0,0,0,0,0,0,0,0,-0,-0,0,0,0,0,0,528,528,0,0
0.440833333333337,1200,528,0,0,0,0,0,0,0,0,-0,-0,0,0,0,0,0,529,529,0,0
0.44166666666667,1200,529,0,0,0,0,0,0,0,0,-0,-0,0,0,0,0,0,530,530,0,0
0.442500000000003,1200,530,0,0,0,0,0,0,0,0,-0,-0,0,0,0,0,0,531,531,0,0
0.443333333333337,1200,531,0,0,0,0,0,0,0,0,-0,-0,0,0,0,0,0,532,532,0,0
0.44416666666667,1200,532,0,0,0,0,0,0,0,0,-0,-0,0,0,0,0,0,533,533,0,0
0.445000000000004,1200,533,0,0,0,0,0,0,0,0,-0,-0,0,0,0,0,0,534,534,0,0
0.445833333333337,1200,534,0,0,0,0,0,0,0,0,-0,-0,0,0,0,0,0,535,535,0,0
0.44666666666667,1200,535,0,0,0,0,0,0,0,0,-0,-0,0,0,0,0,0,536,536,0,0
0.447500000000004,1200,536,0,0,0,0,0,0,0,0,-0,-0,0,0,0,0,0,537,537,0,0
0.448333333333337,1200,537,0,0,0,0,0,0,0,0,-0,-0,0,0,0,0,0,538,538,0,0
0.44916666666667,1200,538,0,0,0,0,0,0,0,0,-0,-0,0,0,0,0,0,539,539,0,0
0.450000000000004,1200,539,0,0,0,0,0,0,0,0,-0,-0,0,0,0,0,0,540,540,0,0
0.450833333333337,1200,540,0,0,0,0,0,0,0,0,-0,-0,0,0,0,0,0,541,541,0,0
0.45166666666667,1200,541,0,0,0,0,0,0,0,0,-0,-0,0,0,0,0,0,542,542,0,0
0.452500000000004,1200,542,0,0,0,0,0,0,0,0,-0,-0,0,0,0,0,0,543,543,0,0
0.453333333333337,1200,543,0,0,0,0,0,0,0,0,-0,-0,0,0,0,0,0,544,544,0,0
0.45416666666667,1200,544,0,0,0,0,0,0,0,0,-0,-0,0,0,0,0,0,545,545,0,0
0.455000000000004,1200,545,0,0,0,0,0,0,0,0,-0,-0,0,0,0,0,0,546,546,0,0
0.455833333333337,1200,546,0,0,0,0,0,0,0,0,-0,-0,0,0,0,0,0,547,547,0,0
0.45666666666667,1200,547,0,0,0,0,0,0,0,0,-0,-0,0,0,0,0,0,548,548,0,0
0.457500000000004,1200,548,0,0,0,0,0,0,0,0,-0,-0,0,0,0,0,0,549,549,0,0
0.458333333333337,1200,549,0,0,0,0,0,0,0,0,-0,-0,0,0,0,0,0,550,550,0,0
0.45916666666667,1200,550,0,0,0,0,0,0,0,0,-0,-0,0,0,0,0,0,551,551,0,0
0.460000000000004,1200,551,0,0,0,0,0,0,0,0,-0,-0,0,0,0,0,0,552,552,0,0
0.460833333333337,1200,552,0,0,0,0,0,0,0,0,-0,-0,0,0,0,0,0,553,553,0,0
0.461666666666671,1200,553,0,0,0,0,0,0,0,0,-0,-0,0,0,0,0,0,554,554,0,0
0.462500000000004,1200,554,0,0,0,0,0,0,0,0,-0,-0,0,0,0,0,0,555,555,0,0
0.463333333333337,1200,555,0,0,0,0,0,0,0,0,-0,-0,0,0,0,0,0,556,556,0,0
0.464166666666671,1200,556,0,0,0,0,0,0,0,0,-0,-0,0,0,0,0,0,557,557,0,0
0.465000000000004,1200,557,0,0,0,0,0,0,0,0,-0,-0,0,0,0,0,0,558,558,0,0
0.465833333333337,1200,558,0,0,0,0,0,0,0,0,-0,-0,0,0,0,0,0,559,559,0,0
0.466666666666671,1200,559,0,0,0,0,0,0,0,0,-0,-0,0,0,0,0,0,560,560,0,0
0.467500000000004,1200,560,0,0,0,0,0,0,0,0,-0,-0,0,0,0,0,0,561,561,0,0
0.468333333333337,1200,561,0,0,0,0,0,0,0,0,-0,-0,0,0,0,0,0,562,562,0,0
0.469166666666671,1200,562,0,0,0,0,0,0,0,0,-0,-0,0,0,0,0,0,563,563,0,0
0.470000000000004,1200,563,0,0,0,0,0,0,0,0,-0,-0,0,0,0,0,0,564,564,0,0
0.470833333333337,1200,564,0,0,0,0,0,0,0,0,-0,-0,0,0,0,0,0,565,565,0,0
0.471666666666671,1200,565,0,0,0,0,0,0,0,0,-0,-0,0,0,0,0,0,566,566,0,0
0.472500000000004,1200,566,0,0,0,0,0,0,0,0,-0,-0,0,0,0,0,0,567,567,0,0
0.473333333333337,1200,567,0,0,0,0,0,0,0,0,-0,-0,0,0,0,0,0,568,568,0,0
0.474166666666671,1200,568,0,0,0,0,0,0,0,0,-0,-0,0,0,0,0,0,569,569,0,0
0.475000000000004,1200,569,0,0,0,0,0,0,0,0,-0,-0,0,0,0,0,0,570,570,0,0
0.475833333333338,1200,570,0,0,0,0,0,0,0,0,-0,-0,0,0,0,0,0,571,571,0,0
0.476666666666671,1200,571,0,0,0,0,0,0,0,0,-0,-0,0,0,0,0,0,572,572,0,0
0.477500000000004,1200,572,0,0,0,0,0,0,0,0,-0,-0,0,0,0,0,0,573,573,0,0
0.478333333333338,1200,573,0,0,0,0,0,0,0,0,-0,-0,0,0,0,0,0,574,574,0,0
0.479166666666671,1200,574,0,0,0,0,0,0,0,0,-0,-0,0,0,0,0,0,575,575,0,0
0.480000000000004,1200,575,0,0,0,0,0,0,0,0,-0,-0,0,0,0,0,0,576,576,0,0
0.480833333333338,1200,576,0,0,0,0,0,0,0,0,-0,-0,0,0,0,0,0,577,577,0,0
0.481666666666671,1200,577,0,0,0,0,0,0,0,0,-0,-0,0,0,0,0,0,578,578,0,0
0.482500000000004,1200,578,0,0,0,0,0,0,0,0,-0,-0,0,0,0,0,0,579,579,0,0
0.483333333333338,1200,579,0,0,0,0,0,0,0,0,-0,-0,0,0,0,0,0,580,580,0,0
0.484166666666671,1200,580,0,0,0,0,0,0,0,0,-0,-0,0,0,0,0,0,581,581,0,0
0.485000000000004,1200,581,0,0,0,0,0,0,0,0,-0,-0,0,0,0,0,0,582,582,0,0
0.485833333333338,1200,582,0,0,0,0,0,0,0,0,-0,-0,0,0,0,0,0,583,583,0,0
0.486666666666671,1200,583,0,0,0,0,0,0,0,0,-0,-0,0,0,0,0,0,584,584,0,0
0.487500000000004,1200,584,0,0,0,0,0,0,0,0,-0,-0,0,0,0,0,0,585,585,0,0
0.488333333333338,1200,585,0,0,0,0,0,0,0,0,-0,-0,0,0,0,0,0,586,586,0,0
0.489166666666671,1200,586,0,0,0,0,0,0,0,0,-0,-0,0,0,0,0,0,587,587,0,0
0.490000000000005,1200,587,0,0,0,0,0,0,0,0,-0,-0,0,0,0,0,0,588,588,0,0
0.490833333333338,1200,588,0,0,0,0,0,0,0,0,-0,-0,0,0,0,0,0,589,589,0,0
0.491666666666671,1200,589,0,0,0,0,0,0,0,0,-0,-0,0,0,0,0,0,590,590,0,0
0.492500000000005,1200,590,0,0,0,0,0,0,0,0,-0,-0,0,0,0,0,0,591,591,0,0
0.493333333333338,1200,591,0,0,0,0,0,0,0,0,-0,-0,0,0,0,0,0,592,592,0,0
0.494166666666671,1200,592,0,0,0,0,0,0,0,0,-0,-0,0,0,0,0,0,593,593,0,0
0.495000000000005,1200,593,0,0,0,0,0,0,0,0,-0,-0,0,0,0,0,0,594,594,0,0
0.495833333333338,1200,594,0,0,0,0,0,0,0,0,-0,-0,0,0,0,0,0,595,595,0,0
0.496666666666671,1200,595,0,0,0,0,0,0,0,0,-0,-0,0,0,0,0,0,596,596,0,0
0.497500000000005,1200,596,0,0,0,0,0,0,0,0,-0,-0,0,0,0,0,0,597,597,0,0
0.498333333333338,1200,597,0,0,0,0,0,0,0,0,-0,-0,0,0,0,0,0,598,598,0,0
0.499166666666671,1200,598,0,0,0,0,0,0,0,0,-0,-0,0,0,0,0,0,599,599,0,0
0.500000000000005,1200,599,0,0,0,0,0,0,0,0,-0,-0,0,0,0,0,0,600,600,0,0
0.500833333333338,1200,600,0,0,0,0,0,0,0,0,-0,-0,0,0,0,0,0,601,601,0,0
0.501666666666671,1200,601,0,0,0,0,0,0,0,0,-0,-0,0,0,0,0,0,602,602,0,0
0.502500000000005,1200,602,0,0,0,0,0,0,0,0,-0,-0,0,0,0,0,0,603,603,0,0
0.503333333333338,1200,603,0,0,0,0,0,0,0,0,-0,-0,0,0,0,0,0,604,604,0,0
0.504166666666672,1200,604,0,0,0,0,0,0,0,0,-0,-0,0,0,0,0,0,605,605,0,0
0.505000000000005,1200,605,0,0,0,0,0,0,0,0,-0,-0,0,0,0,0,0,606,606,0,0
0.505833333333338,1200,606,0,0,0,0,0,0,0,0,-0,-0,0,0,0,0,0,607,607,0,0
0.506666666666672,1200,607,0,0,0,0,0,0,0,0,-0,-0,0,0,0,0,0,608,608,0,0
0.507500000000005,1200,608,0,0,0,0,0,0,0,0,-0,-0,0,0,0,0,0,609,609,0,0
0.508333333333338,1200,609,0,0,0,0,0,0,0,0,-0,-0,0,0,0,0,0,610,610,0,0
0.509166666666672,1200,610,0,0,0,0,0,0,0,0,-0,-0,0,0,0,0,0,611,611,0,0
0.510000000000005,1200,611,0,0,0,0,0,0,0,0,-0,-0,0,0,0,0,0,612,612,0,0
0.510833333333338,1200,612,0,0,0,0,0,0,0,0,-0,-0,0,0,0,0,0,613,613,0,0
0.511666666666672,1200,613,0,0,0,0,0,0,0,0,-0,-0,0,0,0,0,0,614,614,0,0
0.512500000000005,1200,614,0,0,0,0,0,0,0,0,-0,-0,0,0,0,0,0,615,615,0,0
0.513333333333338,1200,615,0,0,0,0,0,0,0,0,-0,-0,0,0,0,0,0,616,616,0,0
0.514166666666672,1200,616,0,0,0,0,0,0,0,0,-0,-0,0,0,0,0,0,617,617,0,0
0.515000000000005,1200,617,0,0,0,0,0,0,0,0,-0,-0,0,0,0,0,0,618,618,0,0
0.515833333333338,1200,618,0,0,0,0,0,0,0,0,-0,-0,0,0,0,0,0,619,619,0,0
0.516666666666672,1200,619,0,0,0,0,0,0,0,0,-0,-0,0,0,0,0,0,620,620,0,0
0.517500000000005,1200,620,0,0,0,0,0,0,0,0,-0,-0,0,0,0,0,0,621,621,0,0
0.518333333333339,1200,621,0,0,0,0,0,0,0,0,-0,-0,0,0,0,0,0,622,622,0,0
0.519166666666672,1200,622,0,0,0,0,0,0,0,0,-0,-0,0,0,0,0,0,623,623,0,0
0.520000000000005,1200,623,0,0,0,0,0,0,0,0,-0,-0,0,0,0,0,0,624,624,0,0
0.520833333333339,1200,624,0,0,0,0,0,0,0,0,-0,-0,0,0,0,0,0,625,625,0,0
0.521666666666672,1200,625,0,0,0,0,0,0,0,0,-0,-0,0,0,0,0,0,626,626,0,0
0.522500000000005,1200,626,0,0,0,0,0,0,0,0,-0,-0,0,0,0,0,0,627,627,0,0
0.523333333333339,1200,627,0,0,0,0,0,0,0,0,-0,-0,0,0,0,0,0,628,628,0,0
0.524166666666672,1200,628,0,0,0,0,0,0,0,0,-0,-0,0,0,0,0,0,629,629,0,0
0.525000000000005,1200,629,0,0,0,0,0,0,0,0,-0,-0,0,0,0,0,0,630,630,0,0
0.525833333333339,1200,630,0,0,0,0,0,0,0,0,-0,-0,0,0,0,0,0,631,631,0,0
0.526666666666672,1200,631,0,0,0,0,0,0,0,0,-0,-0,0,0,0,0,0,632,632,0,0
0.527500000000005,1200,632,0,0,0,0,0,0,0,0,-0,-0,0,0,0,0,0,633,633,0,0
0.528333333333339,1200,633,0,0,0,0,0,0,0,0,-0,-0,0,0,0,0,0,634,634,0,0
0.529166666666672,1200,634,0,0,0,0,0,0,0,0,-0,-0,0,0,0,0,0,635,635,0,0
0.530000000000005,1200,635,0,0,0,0,0,0,0,0,-0,-0,0,0,0,0,0,636,636,0,0
0.530833333333339,1200,636,0,0,0,0,0,0,0,0,-0,-0,0,0,0,0,0,637,637,0,0
0.531666666666672,1200,637,0,0,0,0,0,0,0,0,-0,-0,0,0,0,0,0,638,638,0,0
0.532500000000006,1200,638,0,0,0,0,0,0,0,0,-0,-0,0,0,0,0,0,639,639,0,0
0.533333333333339,1200,639,0,0,0,0,0,0,0,0,-0,-0,0,0,0,0,0,640,640,0,0
0.534166666666672,1200,640,0,0,0,0,0,0,0,0,-0,-0,0,0,0,0,0,641,641,0,0
0.535000000000006,1200,641,0,0,0,0,0,0,0,0,-0,-0,0,0,0,0,0,642,642,0,0
0.535833333333339,1200,642,0,0,0,0,0,0,0,0,-0,-0,0,0,0,0,0,643,643,0,0
0.536666666666672,1200,643,0,0,0,0,0,0,0,0,-0,-0,0,0,0,0,0,644,644,0,0
0.537500000000006,1200,644,0,0,0,0,0,0,0,0,-0,-0,0,0,0,0,0,645,645,0,0
0.538333333333339,1200,645,0,0,0,0,0,0,0,0,-0,-0,0,0,0,0,0,646,646,0,0
0.539166666666672,1200,646,0,0,0,0,0,0,0,0,-0,-0,0,0,0,0,0,647,647,0,0
0.540000000000006,1200,647,0,0,0,0,0,0,0,0,-0,-0,0,0,0,0,0,648,648,0,0
0.540833333333339,1200,648,0,0,0,0,0,0,0,0,-0,-0,0,0,0,0,0,649,649,0,0
0.541666666666672,1200,649,0,0,0,0,0,0,0,0,-0,-0,0,0,0,0,0,650,650,0,0
0.542500000000006,1200,650,0,0,0,0,0,0,0,0,-0,-0,0,0,0,0,0,651,651,0,0
0.543333333333339,1200,651,0,0,0,0,0,0,0,0,-0,-0,0,0,0,0,0,652,652,0,0
0.544166666666672,1200,652,0,0,0,0,0,0,0,0,-0,-0,0,0,0,0,0,653,653,0,0
0.545000000000006,1200,653,0,0,0,0,0,0,0,0,-0,-0,0,0,0,0,0,654,654,0,0
0.545833333333339,1200,654,0,0,0,0,0,0,0,0,-0,-0,0,0,0,0,0,655,655,0,0
0.546666666666673,1200,655,0,0,0,0,0,0,0,0,-0,-0,0,0,0,0,0,656,656,0,0
0.547500000000006,1200,656,0,0,0,0,0,0,0,0,-0,-0,0,0,0,0,0,657,657,0,0
0.548333333333339,1200,657,0,0,0,0,0,0,0,0,-0,-0,0,0,0,0,0,658,658,0,0
0.549166666666673,1200,658,0,0,0,0,0,0,0,0,-0,-0,0,0,0,0,0,659,659,0,0
0.550000000000006,1200,659,0,0,0,0,0,0,0,0,-0,-0,0,0,0,0,0,660,660,0,0
0.550833333333339,1200,660,0,0,0,0,0,0,0,0,-0,-0,0,0,0,0,0,661,661,0,0
0.551666666666673,1200,661,0,0,0,0,0,0,0,0,-0,-0,0,0,0,0,0,662,662,0,0
0.552500000000006,1200,662,0,0,0,0,0,0,0,0,-0,-0,0,0,0,0,0,663,663,0,0
0.553333333333339,1200,663,0,0,0,0,0,0,0,0,-0,-0,0,0,0,0,0,664,664,0,0
0.554166666666673,1200,664,0,0,0,0,0,0,0,0,-0,-0,0,0,0,0,0,665,665,0,0
0.555000000000006,1200,665,0,0,0,0,0,0,0,0,-0,-0,0,0,0,0,0,666,666,0,0
0.555833333333339,1200,666,0,0,0,0,0,0,0,0,-0,-0,0,0,0,0,0,667,667,0,0
0.556666666666673,1200,667,0,0,0,0,0,0,0,0,-0,-0,0,0,0,0,0,668,668,0,0
0.557500000000006,1200,668,0,0,0,0,0,0,0,0,-0,-0,0,0,0,0,0,669,669,0,0
0.558333333333339,1200,669,0,0,0,0,0,0,0,0,-0,-0,0,0,0,0,0,670,670,0,0
0.559166666666673,1200,670,0,0,0,0,0,0,0,0,-0,-0,0,0,0,0,0,671,671,0,0
0.560000000000006,1200,671,0,0,0,0,0,0,0,0,-0,-0,0,0,0,0,0,672,672,0,0
0.56083333333334,1200,672,0,0,0,0,0,0,0,0,-0,-0,0,0,0,0,0,673,673,0,0
0.561666666666673,1200,673,0,0,0,0,0,0,0,0,-0,-0,0,0,0,0,0,674,674,0,0
0.562500000000006,1200,674,0,0,0,0,0,0,0,0,-0,-0,0,0,0,0,0,675,675,0,0
0.56333333333334,1200,675,0,0,0,0,0,0,0,0,-0,-0,0,0,0,0,0,676,676,0,0
0.564166666666673,1200,676,0,0,0,0,0,0,0,0,-0,-0,0,0,0,0,0,677,677,0,0
0.565000000000006,1200,677,0,0,0,0,0,0,0,0,-0,-0,0,0,0,0,0,678,678,0,0
0.56583333333334,1200,678,0,0,0,0,0,0,0,0,-0,-0,0,0,0,0,0,679,679,0,0
0.566666666666673,1200,679,0,0,0,0,0,0,0,0,-0,-0,0,0,0,0,0,680,680,0,0
0.567500000000006,1200,680,0,0,0,0,0,0,0,0,-0,-0,0,0,0,0,0,681,681,0,0
0.56833333333334,1200,681,0,0,0,0,0,0,0,0,-0,-0,0,0,0,0,0,682,682,0,0
0.569166666666673,1200,682,0,0,0,0,0,0,0,0,-0,-0,0,0,0,0,0,683,683,0,0
0.570000000000006,1200,683,0,0,0,0,0,0,0,0,-0,-0,0,0,0,0,0,684,684,0,0
0.57083333333334,1200,684,0,0,0,0,0,0,0,0,-0,-0,0,0,0,0,0,685,685,0,0
0.571666666666673,1200,685,0,0,0,0,0,0,0,0,-0,-0,0,0,0,0,0,686,686,0,0
0.572500000000006,1200,686,0,0,0,0,0,0,0,0,-0,-0,0,0,0,0,0,687,687,0,0
0.57333333333334,1200,687,0,0,0,0,0,0,0,0,-0,-0,0,0,0,0,0,688,688,0,0
0.574166666666673,1200,688,0,0,0,0,0,0,0,0,-0,-0,0,0,0,0,0,689,689,0,0
0.575000000000007,1200,689,0,0,0,0,0,0,0,0,-0,-0,0,0,0,0,0,690,690,0,0
0.57583333333334,1200,690,0,0,0,0,0,0,0,0,-0,-0,0,0,0,0,0,691,691,0,0
0.576666666666673,1200,691,0,0,0,0,0,0,0,0,-0,-0,0,0,0,0,0,692,692,0,0
0.577500000000007,1200,692,0,0,0,0,0,0,0,0,-0,-0,0,0,0,0,0,693,693,0,0
0.57833333333334,1200,693,0,0,0,0,0,0,0,0,-0,-0,0,0,0,0,0,694,694,0,0
0.579166666666673,1200,694,0,0,0,0,0,0,0,0,-0,-0,0,0,0,0,0,695,695,0,0
0.580000000000007,1200,695,0,0,0,0,0,0,0,0,-0,-0,0,0,0,0,0,696,696,0,0
0.58083333333334,1200,696,0,0,0,0,0,0,0,0,-0,-0,0,0,0,0,0,697,697,0,0
0.581666666666673,1200,697,0,0,0,0,0,0,0,0,-0,-0,0,0,0,0,0,698,698,0,0
0.582500000000007,1200,698,0,0,0,0,0,0,0,0,-0,-0,0,0,0,0,0,699,699,0,0
0.58333333333334,1200,699,0,0,0,0,0,0,0,0,-0,-0,0,0,0,0,0,700,700,0,0
0.584166666666673,1200,700,0,0,0,0,0,0,0,0,-0,-0,0,0,0,0,0,701,701,0,0
0.585000000000007,1200,701,0,0,0,0,0,0,0,0,-0,-0,0,0,0,0,0,702,702,0,0
0.58583333333334,1200,702,0,0,0,0,0,0,0,0,-0,-0,0,0,0,0,0,703,703,0,0
0.586666666666673,1200,703,0,0,0,0,0,0,0,0,-0,-0,0,0,0,0,0,704,704,0,0
0.587500000000007,1200,704,0,0,0,0,0,0,0,0,-0,-0,0,0,0,0,0,705,705,0,0
0.58833333333334,1200,705,0,0,0,0,0,0,0,0,-0,-0,0,0,0,0,0,706,706,0,0
0.589166666666673,1200,706,0,0,0,0,0,0,0,0,-0,-0,0,0,0,0,0,707,707,0,0
0.590000000000007,1200,707,0,0,0,0,0,0,0,0,-0,-0,0,0,0,0,0,708,708,0,0
0.59083333333334,1200,708,0,0,0,0,0,0,0,0,-0,-0,0,0,0,0,0,709,709,0,0
0.591666666666674,1200,709,0,0,0,0,0,0,0,0,-0,-0,0,0,0,0,0,710,710,0,0
0.592500000000007,1200,710,0,0,0,0,0,0,0,0,-0,-0,0,0,0,0,0,711,711,0,0
0.59333333333334,1200,711,0,0,0,0,0,0,0,0,-0,-0,0,0,0,0,0,712,712,0,0
0.594166666666674,1200,712,0,0,0,0,0,0,0,0,-0,-0,0,0,0,0,0,713,713,0,0
0.595000000000007,1200,713,0,0,0,0,0,0,0,0,-0,-0,0,0,0,0,0,714,714,0,0
0.59583333333334,1200,714,0,0,0,0,0,0,0,0,-0,-0,0,0,0,0,0,715,715,0,0
0.596666666666674,1200,715,0,0,0,0,0,0,0,0,-0,-0,0,0,0,0,0,716,716,0,0
0.597500000000007,1200,716,0,0,0,0,0,0,0,0,-0,-0,0,0,0,0,0,717,717,0,0
0.59833333333334,1200,717,0,0,0,0,0,0,0,0,-0,-0,0,0,0,0,0,718,718,0,0
0.599166666666674,1200,718,0,0,0,0,0,0,0,0,-0,-0,0,0,0,0,0,719,719,0,0
0.600000000000007,1200,719,0,0,0,0,0,0,0,0,-0,-0,0,0,0,0,0,720,720,0,0
0.60083333333334,1200,720,0,0,0,0,0,0,0,0,-0,-0,0,0,0,0,0,721,721,0,0
0.601666666666674,1200,721,0,0,0,0,0,0,0,0,-0,-0,0,0,0,0,0,722,722,0,0
0.602500000000007,1200,722,0,0,0,0,0,0,0,0,-0,-0,0,0,0,0,0,723,723,0,0
0.60333333333334,1200,723,0,0,0,0,0,0,0,0,-0,-0,0,0,0,0,0,724,724,0,0
0.604166666666674,1200,724,0,0,0,0,0,0,0,0,-0,-0,0,0,0,0,0,725,725,0,0
0.605000000000007,1200,725,0,0,0,0,0,0,0,0,-0,-0,0,0,0,0,0,726,726,0,0
0.605833333333341,1200,726,0,0,0,0,0,0,0,0,-0,-0,0,0,0,0,0,727,727,0,0
0.606666666666674,1200,727,0,0,0,0,0,0,0,0,-0,-0,0,0,0,0,0,728,728,0,0
0.607500000000007,1200,728,0,0,0,0,0,0,0,0,-0,-0,0,0,0,0,0,729,729,0,0
0.608333333333341,1200,729,0,0,0,0,0,0,0,0,-0,-0,0,0,0,0,0,730,730,0,0
0.609166666666674,1200,730,0,0,0,0,0,0,0,0,-0,-0,0,0,0,0,0,731,731,0,0
0.610000000000007,1200,731,0,0,0,0,0,0,0,0,-0,-0,0,0,0,0,0,732,732,0,0
0.610833333333341,1200,732,0,0,0,0,0,0,0,0,-0,-0,0,0,0,0,0,733,733,0,0
0.611666666666674,1200,733,0,0,0,0,0,0,0,0,-0,-0,0,0,0,0,0,734,734,0,0
0.612500000000007,1200,734,0,0,0,0,0,0,0,0,-0,-0,0,0,0,0,0,735,735,0,0
0.613333333333341,1200,735,0,0,0,0,0,0,0,0,-0,-0,0,0,0,0,0,736,736,0,0
0.614166666666674,1200,736,0,0,0,0,0,0,0,0,-0,-0,0,0,0,0,0,737,737,0,0
0.615000000000007,1200,737,0,0,0,0,0,0,0,0,-0,-0,0,0,0,0,0,738,738,0,0
0.615833333333341,1200,738,0,0,0,0,0,0,0,0,-0,-0,0,0,0,0,0,739,739,0,0
0.616666666666674,1200,739,0,0,0,0,0,0,0,0,-0,-0,0,0,0,0,0,740,740,0,0
0.617500000000007,1200,740,0,0,0,0,0,0,0,0,-0,-0,0,0,0,0,0,741,741,0,0
0.618333333333341,1200,741,0,0,0,0,0,0,0,0,-0,-0,0,0,0,0,0,742,742,0,0
0.619166666666674,1200,742,0,0,0,0,0,0,0,0,-0,-0,0,0,0,0,0,743,743,0,0
0.620000000000008,1200,743,0,0,0,0,0,0,0,0,-0,-0,0,0,0,0,0,744,744,0,0
0.620833333333341,1200,744,0,0,0,0,0,0,0,0,-0,-0,0,0,0,0,0,745,745,0,0
0.621666666666674,1200,745,0,0,0,0,0,0,0,0,-0,-0,0,0,0,0,0,746,746,0,0
0.622500000000008,1200,746,0,0,0,0,0,0,0,0,-0,-0,0,0,0,0,0,747,747,0,0
0.623333333333341,1200,747,0,0,0,0,0,0,0,0,-0,-0,0,0,0,0,0,748,748,0,0
0.624166666666674,1200,748,0,0,0,0,0,0,0,0,-0,-0,0,0,0,0,0,749,749,0,0
0.625000000000008,1200,749,0,0,0,0,0,0,0,0,-0,-0,0,0,0,0,0,750,750,0,0
0.625833333333341,1200,750,0,0,0,0,0,0,0,0,-0,-0,0,0,0,0,0,751,751,0,0
0.626666666666674,1200,751,0,0,0,0,0,0,0,0,-0,-0,0,0,0,0,0,752,752,0,0
0.627500000000008,1200,752,0,0,0,0,0,0,0,0,-0,-0,0,0,0,0,0,753,753,0,0
0.628333333333341,1200,753,0,0,0,0,0,0,0,0,-0,-0,0,0,0,0,0,754,754,0,0
0.629166666666674,1200,754,0,0,0,0,0,0,0,0,-0,-0,0,0,0,0,0,755,755,0,0
0.630000000000008,1200,755,0,0,0,0,0,0,0,0,-0,-0,0,0,0,0,0,756,756,0,0
0.630833333333341,1200,756,0,0,0,0,0,0,0,0,-0,-0,0,0,0,0,0,757,757,0,0
0.631666666666674,1200,757,0,0,0,0,0,0,0,0,-0,-0,0,0,0,0,0,758,758,0,0
0.632500000000008,1200,758,0,0,0,0,0,0,0,0,-0,-0,0,0,0,0,0,759,759,0,0
0.633333333333341,1200,759,0,0,0,0,0,0,0,0,-0,-0,0,0,0,0,0,760,760,0,0
0.634166666666675,1200,760,0,0,0,0,0,0,0,0,-0,-0,0,0,0,0,0,761,761,0,0
0.635000000000008,1200,761,0,0,0,0,0,0,0,0,-0,-0,0,0,0,0,0,762,762,0,0
0.635833333333341,1200,762,0,0,0,0,0,0,0,0,-0,-0,0,0,0,0,0,763,763,0,0
0.636666666666675,1200,763,0,0,0,0,0,0,0,0,-0,-0,0,0,0,0,0,764,764,0,0
0.637500000000008,1200,764,0,0,0,0,0,0,0,0,-0,-0,0,0,0,0,0,765,765,0,0
0.638333333333341,1200,765,0,0,0,0,0,0,0,0,-0,-0,0,0,0,0,0,766,766,0,0
0.639166666666675,1200,766,0,0,0,0,0,0,0,0,-0,-0,0,0,0,0,0,767,767,0,0
0.640000000000008,1200,767,0,0,0,0,0,0,0,0,-0,-0,0,0,0,0,0,768,768,0,0
0.640833333333341,1200,768,0,0,0,0,0,0,0,0,-0,-0,0,0,0,0,0,769,769,0,0
0.641666666666675,1200,769,0,0,0,0,0,0,0,0,-0,-0,0,0,0,0,0,770,770,0,0
0.642500000000008,1200,770,0,0,0,0,0,0,0,0,-0,-0,0,0,0,0,0,771,771,0,0
0.643333333333341,1200,771,0,0,0,0,0,0,0,0,-0,-0,0,0,0,0,0,772,772,0,0
0.644166666666675,1200,772,0,0,0,0,0,0,0,0,-0,-0,0,0,0,0,0,773,773,0,0
0.645000000000008,1200,773,0,0,0,0,0,0,0,0,-0,-0,0,0,0,0,0,774,774,0,0
0.645833333333341,1200,774,0,0,0,0,0,0,0,0,-0,-0,0,0,0,0,0,775,775,0,0
0.646666666666675,1200,775,0,0,0,0,0,0,0,0,-0,-0,0,0,0,0,0,776,776,0,0
0.647500000000008,1200,776,0,0,0,0,0,0,0,0,-0,-0,0,0,0,0,0,777,777,0,0
0.648333333333342,1200,777,0,0,0,0,0,0,0,0,-0,-0,0,0,0,0,0,778,778,0,0
0.649166666666675,1200,778,0,0,0,0,0,0,0,0,-0,-0,0,0,0,0,0,779,779,0,0
0.650000000000008,1200,779,0,0,0,0,0,0,0,0,-0,-0,0,0,0,0,0,780,780,0,0
0.650833333333342,1200,780,0,0,0,0,0,0,0,0,-0,-0,0,0,0,0,0,781,781,0,0
0.651666666666675,1200,781,0,0,0,0,0,0,0,0,-0,-0,0,0,0,0,0,782,782,0,0
0.652500000000008,1200,782,0,0,0,0,0,0,0,0,-0,-0,0,0,0,0,0,783,783,0,0
0.653333333333342,1200,783,0,0,0,0,0,0,0,0,-0,-0,0,0,0,0,0,784,784,0,0
0.654166666666675,1200,784,0,0,0,0,0,0,0,0,-0,-0,0,0,0,0,0,785,785,0,0
0.655000000000008,1200,785,0,0,0,0,0,0,0,0,-0,-0,0,0,0,0,0,786,786,0,0
0.655833333333342,1200,786,0,0,0,0,0,0,0,0,-0,-0,0,0,0,0,0,787,787,0,0
0.656666666666675,1200,787,0,0,0,0,0,0,0,0,-0,-0,0,0,0,0,0,788,788,0,0
0.657500000000008,1200,788,0,0,0,0,0,0,0,0,-0,-0,0,0,0,0,0,789,789,0,0
0.658333333333342,1200,789,0,0,0,0,0,0,0,0,-0,-0,0,0,0,0,0,790,790,0,0
0.659166666666675,1200,790,0,0,0,0,0,0,0,0,-0,-0,0,0,0,0,0,791,791,0,0
0.660000000000008,1200,791,0,0,0,0,0,0,0,0,-0,-0,0,0,0,0,0,792,792,0,0
0.660833333333342,1200,792,0,0,0,0,0,0,0,0,-0,-0,0,0,0,0,0,793,793,0,0
0.661666666666675,1200,793,0,0,0,0,0,0,0,0,-0,-0,0,0,0,0,0,794,794,0,0
0.662500000000009,1200,794,0,0,0,0,0,0,0,0,-0,-0,0,0,0,0,0,795,795,0,0
0.663333333333342,1200,795,0,0,0,0,0,0,0,0,-0,-0,0,0,0,0,0,796,796,0,0
0.664166666666675,1200,796,0,0,0,0,0,0,0,0,-0,-0,0,0,0,0,0,797,797,0,0
0.665000000000009,1200,797,0,0,0,0,0,0,0,0,-0,-0,0,0,0,0,0,798,798,0,0
0.665833333333342,1200,798,0,0,0,0,0,0,0,0,-0,-0,0,0,0,0,0,799,799,0,0
0.666666666666675,1200,799,0,0,0,0,0,0,0,0,-0,-0,0,0,0,0,0,800,800,0,0
0.667500000000009,1200,800,0,0,0,0,0,0,0,0,-0,-0,0,0,0,0,0,801,801,0,0
0.668333333333342,1200,801,0,0,0,0,0,0,0,0,-0,-0,0,0,0,0,0,802,802,0,0
0.669166666666675,1200,802,0,0,0,0,0,0,0,0,-0,-0,0,0,0,0,0,803,803,0,0
0.670000000000009,1200,803,0,0,0,0,0,0,0,0,-0,-0,0,0,0,0,0,804,804,0,0
0.670833333333342,1200,804,0,0,0,0,0,0,0,0,-0,-0,0,0,0,0,0,805,805,0,0
0.671666666666675,1200,805,0,0,0,0,0,0,0,0,-0,-0,0,0,0,0,0,806,806,0,0
0.672500000000009,1200,806,0,0,0,0,0,0,0,0,-0,-0,0,0,0,0,0,807,807,0,0
0.673333333333342,1200,807,0,0,0,0,0,0,0,0,-0,-0,0,0,0,0,0,808,808,0,0
0.674166666666675,1200,808,0,0,0,0,0,0,0,0,-0,-0,0,0,0,0,0,809,809,0,0
0.675000000000009,1200,809,0,0,0,0,0,0,0,0,-0,-0,0,0,0,0,0,810,810,0,0
0.675833333333342,1200,810,0,0,0,0,0,0,0,0,-0,-0,0,0,0,0,0,811,811,0,0
0.676666666666676,1200,811,0,0,0,0,0,0,0,0,-0,-0,0,0,0,0,0,812,812,0,0
0.677500000000009,1200,812,0,0,0,0,0,0,0,0,-0,-0,0,0,0,0,0,813,813,0,0
0.678333333333342,1200,813,0,0,0,0,0,0,0,0,-0,-0,0,0,0,0,0,814,814,0,0
0.679166666666676,1200,814,0,0,0,0,0,0,0,0,-0,-0,0,0,0,0,0,815,815,0,0
0.680000000000009,1200,815,0,0,0,0,0,0,0,0,-0,-0,0,0,0,0,0,816,816,0,0
0.680833333333342,1200,816,0,0,0,0,0,0,0,0,-0,-0,0,0,0,0,0,817,817,0,0
0.681666666666676,1200,817,0,0,0,0,0,0,0,0,-0,-0,0,0,0,0,0,818,818,0,0
0.682500000000009,1200,818,0,0,0,0,0,0,0,0,-0,-0,0,0,0,0,0,819,819,0,0
0.683333333333342,1200,819,0,0,0,0,0,0,0,0,-0,-0,0,0,0,0,0,820,820,0,0
0.684166666666676,1200,820,0,0,0,0,0,0,0,0,-0,-0,0,0,0,0,0,821,821,0,0
0.685000000000009,1200,821,0,0,0,0,0,0,0,0,-0,-0,0,0,0,0,0,822,822,0,0
0.685833333333342,1200,822,0,0,0,0,0,0,0,0,-0,-0,0,0,0,0,0,823,823,0,0
0.686666666666676,1200,823,0,0,0,0,0,0,0,0,-0,-0,0,0,0,0,0,824,824,0,0
0.687500000000009,1200,824,0,0,0,0,0,0,0,0,-0,-0,0,0,0,0,0,825,825,0,0
0.688333333333342,1200,825,0,0,0,0,0,0,0,0,-0,-0,0,0,0,0,0,826,826,0,0
0.689166666666676,1200,826,0,0,0,0,0,0,0,0,-0,-0,0,0,0,0,0,827,827,0,0
0.690000000000009,1200,827,0,0,0,0,0,0,0,0,-0,-0,0,0,0,0,0,828,828,0,0
0.690833333333343,1200,828,0,0,0,0,0,0,0,0,-0,-0,0,0,0,0,0,829,829,0,0
0.691666666666676,1200,829,0,0,0,0,0,0,0,0,-0,-0,0,0,0,0,0,830,830,0,0
0.692500000000009,1200,830,0,0,0,0,0,0,0,0,-0,-0,0,0,0,0,0,831,831,0,0
0.693333333333343,1200,831,0,0,0,0,0,0,0,0,-0,-0,0,0,0,0,0,832,832,0,0
0.694166666666676,1200,832,0,0,0,0,0,0,0,0,-0,-0,0,0,0,0,0,833,833,0,0
0.695000000000009,1200,833,0,0,0,0,0,0,0,0,-0,-0,0,0,0,0,0,834,834,0,0
0.695833333333343,1200,834,0,0,0,0,0,0,0,0,-0,-0,0,0,0,0,0,835,835,0,0
0.696666666666676,1200,835,0,0,0,0,0,0,0,0,-0,-0,0,0,0,0,0,836,836,0,0
0.697500000000009,1200,836,0,0,0,0,0,0,0,0,-0,-0,0,0,0,0,0,837,837,0,0
0.698333333333343,1200,837,0,0,0,0,0,0,0,0,-0,-0,0,0,0,0,0,838,838,0,0
0.699166666666676,1200,838,0,0,0,0,0,0,0,0,-0,-0,0,0,0,0,0,839,839,0,0
0.700000000000009,1200,839,0,0,0,0,0,0,0,0,-0,-0,0,0,0,0,0,840,840,0,0
0.700833333333343,1200,840,0,0,0,0,0,0,0,0,-0,-0,0,0,0,0,0,841,841,0,0
0.701666666666676,1200,841,0,0,0,0,0,0,0,0,-0,-0,0,0,0,0,0,842,842,0,0
0.702500000000009,1200,842,0,0,0,0,0,0,0,0,-0,-0,0,0,0,0,0,843,843,0,0
0.703333333333343,1200,843,0,0,0,0,0,0,0,0,-0,-0,0,0,0,0,0,844,844,0,0
0.704166666666676,1200,844,0,0,0,0,0,0,0,0,-0,-0,0,0,0,0,0,845,845,0,0
0.70500000000001,1200,845,0,0,0,0,0,0,0,0,-0,-0,0,0,0,0,0,846,846,0,0
0.705833333333343,1200,846,0,0,0,0,0,0,0,0,-0,-0,0,0,0,0,0,847,847,0,0
0.706666666666676,1200,847,0,0,0,0,0,0,0,0,-0,-0,0,0,0,0,0,848,848,0,0
0.70750000000001,1200,848,0,0,0,0,0,0,0,0,-0,-0,0,0,0,0,0,849,849,0,0
0.708333333333343,1200,849,0,0,0,0,0,0,0,0,-0,-0,0,0,0,0,0,850,850,0,0
0.709166666666676,1200,850,0,0,0,0,0,0,0,0,-0,-0,0,0,0,0,0,851,851,0,0
0.71000000000001,1200,851,0,0,0,0,0,0,0,0,-0,-0,0,0,0,0,0,852,852,0,0
0.710833333333343,1200,852,0,0,0,0,0,0,0,0,-0,-0,0,0,0,0,0,853,853,0,0
0.711666666666676,1200,853,0,0,0,0,0,0,0,0,-0,-0,0,0,0,0,0,854,854,0,0
0.71250000000001,1200,854,0,0,0,0,0,0,0,0,-0,-0,0,0,0,0,0,855,855,0,0
0.713333333333343,1200,855,0,0,0,0,0,0,0,0,-0,-0,0,0,0,0,0,856,856,0,0
0.714166666666676,1200,856,0,0,0,0,0,0,0,0,-0,-0,0,0,0,0,0,857,857,0,0
0.71500000000001,1200,857,0,0,0,0,0,0,0,0,-0,-0,0,0,0,0,0,858,858,0,0
