time_s,altitude_m,est_altitude_m,roll_rad,pitch_rad,yaw_rad,yaw_rate_radps,frame_count,pwm_1_us,pwm_2_us,pwm_3_us,pwm_4_us,motor_cmd_1_radps,motor_cmd_2_radps,motor_cmd_3_radps,motor_cmd_4_radps,exchange_status
0.0003955,-0,-0.00094395744,0,0,0,0,0,NaN,NaN,NaN,NaN,0,0,0,0,ответная передача
0.0209406,-0.000981,-0.00282402732860928,0,0,0,0,0,NaN,NaN,NaN,NaN,0,0,0,0,ответная передача
0.0336467,-0.002943,-0.00563273846700084,0,0,0,0,0,NaN,NaN,NaN,NaN,0,0,0,0,ответная передача
0.0462152,-0.005886,-0.00936299224473575,0,0,0,0,0,NaN,NaN,NaN,NaN,0,0,0,0,ответная передача
0.0589977,-0.00981,-0.0140080608372245,0,0,0,0,0,NaN,NaN,NaN,NaN,0,0,0,0,ответная передача
0.0639108,-0.014715,-0.0195615848305341,0,0,0,0,1133,1000,1000,1000,1000,0,0,0,0,ответная передача
0.0786384,-0.020601,-0.0260175702992692,0,0,0,0,0,NaN,NaN,NaN,NaN,0,0,0,0,ответная передача
0.0913667,-0.027468,-0.0333703853632278,0,0,0,0,0,NaN,NaN,NaN,NaN,0,0,0,0,ответная передача
0.1018017,-0.035316,-0.0416147562484636,0,0,0,0,1134,1000,1000,1000,1000,0,0,0,0,ответная передача
0.1151543,-0.044145,-0.0507457628782755,0,0,0,0,0,NaN,NaN,NaN,NaN,0,0,0,0,ответная передача
0.1277327,-0.053955,-0.0607588340194921,0,0,0,0,0,NaN,NaN,NaN,NaN,0,0,0,0,ответная передача
0.1388947,-0.064746,-0.0716497420092307,0,0,0,0,1135,1000,1000,1000,1000,0,0,0,0,ответная передача
0.1517284,-0.076518,-0.0834145970870848,0,0,0,0,0,NaN,NaN,NaN,NaN,0,0,0,0,ответная передача
0.1650379,-0.089271,-0.0960498413574326,0,0,0,0,0,NaN,NaN,NaN,NaN,0,0,0,0,ответная передача
0.1724943,-0.103005,-0.109552242406266,0,0,0,0,1136,1000,1000,1000,1000,0,0,0,0,ответная передача
0.1856622,-0.11772,-0.123918886596618,0,0,0,0,0,NaN,NaN,NaN,NaN,0,0,0,0,ответная передача
0.198015,-0.133416,-0.139147172066304,0,0,0,0,0,NaN,NaN,NaN,NaN,0,0,0,0,ответная передача
0.2062405,-0.150093,-0.155234801451323,0,0,0,0,1137,1000,1000,1000,1000,0,0,0,0,ответная передача
0.2215683,-0.167751,-0.172179774357856,0,0,0,0,0,NaN,NaN,NaN,NaN,0,0,0,0,ответная передача
0.2337518,-0.18639,-0.189980379605348,0,0,0,0,0,NaN,NaN,NaN,NaN,0,0,0,0,ответная передача
0.2403216,-0.20601,-0.208635187262737,0,0,0,0,1138,1000,1000,1000,1000,0,0,0,0,ответная передача
0.2533642,-0.226611,-0.228143040499393,0,0,0,0,0,NaN,NaN,NaN,NaN,0,0,0,0,ответная передача
0.2656684,-0.248193,-0.248503047271849,0,0,0,0,0,NaN,NaN,NaN,NaN,0,0,0,0,ответная передача
0.2736797,-0.270756,-0.269714571866892,0,0,0,0,1139,1000,1000,1000,1000,0,0,0,0,ответная передача
0.2865455,-0.2943,-0.29177722632104,0,0,0,0,0,NaN,NaN,NaN,NaN,0,0,0,0,ответная передача
0.2989971,-0.318825,-0.314690861735917,0,0,0,0,0,NaN,NaN,NaN,NaN,0,0,0,0,ответная передача
0.3101898,-0.344331,-0.338455559508448,0,0,0,0,1140,1000,1000,1000,1000,0,0,0,0,ответная передача
0.3230285,-0.370818,-0.363071622494258,0,0,0,0,0,NaN,NaN,NaN,NaN,0,0,0,0,ответная передача
0.335193,-0.398286,-0.388539566122054,0,0,0,0,0,NaN,NaN,NaN,NaN,0,0,0,0,ответная передача
0.3477819,-0.426735,-0.414860109476205,0,0,0,0,0,NaN,NaN,NaN,NaN,0,0,0,0,ответная передача
0.3582826,-0.456165,-0.442034166364129,0,0,0,0,1141,1000,1000,1000,1000,0,0,0,0,ответная передача
0.3712407,-0.486576,-0.470062836384487,0,0,0,0,0,NaN,NaN,NaN,NaN,0,0,0,0,ответная передача
0.384145,-0.517968,-0.498947396011604,0,0,0,0,0,NaN,NaN,NaN,NaN,0,0,0,0,ответная передача
0.3933547,-0.550341,-0.528689289710894,0,0,0,0,1142,1000,1000,1000,1000,0,0,0,0,ответная передача
0.4064405,-0.583695,-0.559290121099477,0,0,0,0,0,NaN,NaN,NaN,NaN,0,0,0,0,ответная передача
0.4187448,-0.61803,-0.590751644165568,0,0,0,0,0,NaN,NaN,NaN,NaN,0,0,0,0,ответная передача
0.4277758,-0.653346,-0.623075754559565,0,0,0,0,1143,1000,1000,1000,1000,0,0,0,0,ответная передача
0.4417112,-0.689643,-0.656264480969206,0,0,0,0,0,NaN,NaN,NaN,NaN,0,0,0,0,ответная передача
0.4549126,-0.726921,-0.690319976590504,0,0,0,0,0,NaN,NaN,NaN,NaN,0,0,0,0,ответная передача
0.4682682,-0.76518,-0.725244510705594,0,0,0,0,0,NaN,NaN,NaN,NaN,0,0,0,0,ответная передача
0.4733039,-0.80442,-0.761040460377998,0,0,0,0,1144,1000,1000,1000,1000,0,0,0,0,ответная передача
0.4868506,-0.844641,-0.797710302275239,0,0,0,0,0,NaN,NaN,NaN,NaN,0,0,0,0,ответная передача
0.4995247,-0.885843,-0.835256604628109,0,0,0,0,0,NaN,NaN,NaN,NaN,0,0,0,0,ответная передача
0.5057615,-0.928026,-0.873682019335337,0,0,0,0,1145,1000,1000,1000,1000,0,0,0,0,ответная передача
0.5197911,-0.97119,-0.912989274221809,0,0,0,0,0,NaN,NaN,NaN,NaN,0,0,0,0,ответная передача
0.532348,-1.015335,-0.953181165457912,0,0,0,0,0,NaN,NaN,NaN,NaN,0,0,0,0,ответная передача
0.5389678,-1.060461,-0.994260550147029,0,0,0,0,1146,1000,1000,1000,1000,0,0,0,0,ответная передача
0.551858,-1.106568,-1.03623033908763,0,0,0,0,0,NaN,NaN,NaN,NaN,0,0,0,0,ответная передача
0.5645737,-1.153656,-1.07909348971589,0,0,0,0,0,NaN,NaN,NaN,NaN,0,0,0,0,ответная передача
0.5724428,-1.201725,-1.1228529992342,0,0,0,0,1147,1000,1000,1000,1000,0,0,0,0,ответная передача
0.5854614,-1.250775,-1.16751189793042,0,0,0,0,0,NaN,NaN,NaN,NaN,0,0,0,0,ответная передача
0.5977465,-1.300806,-1.21307324269225,0,0,0,0,0,NaN,NaN,NaN,NaN,0,0,0,0,ответная передача
0.6058136,-1.351818,-1.2595401107205,0,0,0,0,1148,1000,1000,1000,1000,0,0,0,0,ответная передача
0.6195904,-1.403811,-1.30691559344468,0,0,0,0,0,NaN,NaN,NaN,NaN,0,0,0,0,ответная передача
0.6320818,-1.456785,-1.35520279064371,0,0,0,0,0,NaN,NaN,NaN,NaN,0,0,0,0,ответная передача
0.6390185,-1.51074,-1.40440480477429,0,0,0,0,1149,1000,1000,1000,1000,0,0,0,0,ответная передача
0.6522608,-1.565676,-1.45452473550864,0,0,0,0,0,NaN,NaN,NaN,NaN,0,0,0,0,ответная передача
0.6650428,-1.621593,-1.5055656744835,0,0,0,0,0,NaN,NaN,NaN,NaN,0,0,0,0,ответная передача
0.6733391,-1.678491,-1.55753070026117,0,0,0,0,1150,1000,1000,1000,1000,0,0,0,0,ответная передача
0.6863792,-1.73637,-1.61042287350342,0,0,0,0,0,NaN,NaN,NaN,NaN,0,0,0,0,ответная передача
0.698804,-1.79523,-1.66424523235862,0,0,0,0,0,NaN,NaN,NaN,NaN,0,0,0,0,ответная передача
0.7064756,-1.855071,-1.71900078806194,0,0,0,0,1151,1000,1000,1000,1000,0,0,0,0,ответная передача
0.7195065,-1.915893,-1.77469252074813,0,0,0,0,0,NaN,NaN,NaN,NaN,0,0,0,0,ответная передача
0.7321266,-1.977696,-1.83132337547624,0,0,0,0,0,NaN,NaN,NaN,NaN,0,0,0,0,ответная передача
0.7435038,-2.04048,-1.88889625846499,0,0,0,0,1152,1000,1000,1000,1000,0,0,0,0,ответная передача
0.756539,-2.104245,-1.94741403353746,0,0,0,0,0,NaN,NaN,NaN,NaN,0,0,0,0,ответная передача
0.7689701,-2.168991,-2.00687951877324,0,0,0,0,0,NaN,NaN,NaN,NaN,0,0,0,0,ответная передача
0.7779981,-2.234718,-2.06729548336608,0,0,0,0,1153,1000,1000,1000,1000,0,0,0,0,ответная передача
0.7916523,-2.301426,-2.12866464468463,0,0,0,0,0,NaN,NaN,NaN,NaN,0,0,0,0,ответная передача
0.8041812,-2.369115,-2.19098966553378,0,0,0,0,0,NaN,NaN,NaN,NaN,0,0,0,0,ответная передача
0.8130041,-2.437785,-2.25427315161363,0,0,0,0,1154,1000,1000,1000,1000,0,0,0,0,ответная передача
0.8259062,-2.507436,-2.31851764917311,0,0,0,0,0,NaN,NaN,NaN,NaN,0,0,0,0,ответная передача
0.838163,-2.578068,-2.38372564285497,0,0,0,0,0,NaN,NaN,NaN,NaN,0,0,0,0,ответная передача
0.8474642,-2.649681,-2.44989955372855,0,0,0,0,1155,1000,1000,1000,1000,0,0,0,0,ответная передача
0.861315,-2.722275,-2.51704173750671,0,0,0,0,0,NaN,NaN,NaN,NaN,0,0,0,0,ответная передача
0.8737293,-2.79585,-2.58515448294299,0,0,0,0,0,NaN,NaN,NaN,NaN,0,0,0,0,ответная передача
0.8816676,-2.870406,-2.65424001040507,0,0,0,0,1156,1000,1000,1000,1000,0,0,0,0,ответная передача
0.8950148,-2.945943,-2.7243004706202,0,0,0,0,0,NaN,NaN,NaN,NaN,0,0,0,0,ответная передача
0.9079277,-3.022461,-2.79533794358837,0,0,0,0,0,NaN,NaN,NaN,NaN,0,0,0,0,ответная передача
0.9202607,-3.09996,-2.86735443765875,0,0,0,0,0,NaN,NaN,NaN,NaN,0,0,0,0,ответная передача
0.9331564,-3.17844,-2.94035188876476,0,0,0,0,0,NaN,NaN,NaN,NaN,0,0,0,0,ответная передача
0.9466648,-3.257901,-3.01433215981322,0,0,0,0,0,NaN,NaN,NaN,NaN,0,0,0,0,ответная передача
0.956008,-3.338343,-3.08929704022273,0,0,0,0,1157,1000,1000,1000,1000,0,0,0,0,ответная передача
0.969903,-3.419766,-3.16524824560647,0,0,0,0,0,NaN,NaN,NaN,NaN,0,0,0,0,ответная передача
0.9823243,-3.50217,-3.24218741759451,0,0,0,0,0,NaN,NaN,NaN,NaN,0,0,0,0,ответная передача
0.9891277,-3.585555,-3.32011612379069,0,0,0,0,1158,1000,1000,1000,1000,0,0,0,0,ответная передача
1.0020445,-3.669921,-3.39903585785898,0,0,0,0,0,NaN,NaN,NaN,NaN,0,0,0,0,ответная передача
1.0146098,-3.755268,-3.47894803973448,0,0,0,0,0,NaN,NaN,NaN,NaN,0,0,0,0,ответная передача
1.0280661,-3.841596,-3.55985401595369,0,0,0,0,0,NaN,NaN,NaN,NaN,0,0,0,0,ответная передача
1.0349743,-3.928905,-3.6417550600993,0,0,0,0,1159,1000,1000,1000,1000,0,0,0,0,ответная передача
1.0490839,-4.017195,-3.72465237335412,0,0,0,0,0,NaN,NaN,NaN,NaN,0,0,0,0,ответная передача
1.0617523,-4.106466,-3.80854708515928,0,0,0,0,0,NaN,NaN,NaN,NaN,0,0,0,0,ответная передача
1.0685832,-4.196718,-3.89344025397153,0,0,0,0,1160,1000,1000,1000,1000,0,0,0,0,ответная передача
1.0818605,-4.287951,-3.97933286811456,0,0,0,0,0,NaN,NaN,NaN,NaN,0,0,0,0,ответная передача
1.0945795,-4.380165,-4.06622584671945,0,0,0,0,0,NaN,NaN,NaN,NaN,0,0,0,0,ответная передача
1.1014311,-4.47336,-4.15412004074908,0,0,0,0,1161,1000,1000,1000,1000,0,0,0,0,ответная передача
1.1144002,-4.567536,-4.24301623410175,0,0,0,0,0,NaN,NaN,NaN,NaN,0,0,0,0,ответная передача
1.1274085,-4.662693,-4.33291514478889,0,0,0,0,0,NaN,NaN,NaN,NaN,0,0,0,0,ответная передача
1.1399536,-4.758831,-4.42381742618228,0,0,0,0,0,NaN,NaN,NaN,NaN,0,0,0,0,ответная передача
1.1526314,-4.85595,-4.51572366832582,0,0,0,0,0,NaN,NaN,NaN,NaN,0,0,0,0,ответная передача
1.1654774,-4.95405,-4.60863439930715,0,0,0,0,0,NaN,NaN,NaN,NaN,0,0,0,0,ответная передача
1.1768232,-5.053131,-4.70255008668463,0,0,0,0,1162,1000,1000,1000,1000,0,0,0,0,ответная передача
1.1907798,-5.153193,-4.79747113896494,0,0,0,0,0,NaN,NaN,NaN,NaN,0,0,0,0,ответная передача
1.2036427,-5.254236,-4.89339790712701,0,0,0,0,0,NaN,NaN,NaN,NaN,0,0,0,0,ответная передача
1.2108636,-5.35626,-4.99033068618777,0,0,0,0,1163,1000,1000,1000,1000,0,0,0,0,ответная передача
1.2244187,-5.459265,-5.08826971680546,0,0,0,0,0,NaN,NaN,NaN,NaN,0,0,0,0,ответная передача
1.2369223,-5.563251,-5.18721518691639,0,0,0,0,0,NaN,NaN,NaN,NaN,0,0,0,0,ответная передача
1.2495771,-5.668218,-5.28716723340094,0,0,0,0,0,NaN,NaN,NaN,NaN,0,0,0,0,ответная передача
1.2625106,-5.774166,-5.38812594377491,0,0,0,0,0,NaN,NaN,NaN,NaN,0,0,0,0,ответная передача
1.2757754,-5.881095,-5.49009135790232,0,0,0,0,0,NaN,NaN,NaN,NaN,0,0,0,0,ответная передача
1.2863849,-5.989005,-5.59306346972583,0,0,0,0,1164,1000,1000,1000,1000,0,0,0,0,ответная передача
1.2998562,-6.097896,-5.69704222901119,0,0,0,0,0,NaN,NaN,NaN,NaN,0,0,0,0,ответная передача
1.3125043,-6.207768,-5.8020275431022,0,0,0,0,0,NaN,NaN,NaN,NaN,0,0,0,0,ответная передача
1.3228336,-6.318621,-5.90801927868266,0,0,0,0,1165,1000,1000,1000,1000,0,0,0,0,ответная передача
1.3360953,-6.430455,-6.01501726354204,0,0,0,0,0,NaN,NaN,NaN,NaN,0,0,0,0,ответная передача
1.34882,-6.54327,-6.12302128834172,0,0,0,0,0,NaN,NaN,NaN,NaN,0,0,0,0,ответная передача
1.3606329,-6.657066,-6.23203110837872,0,0,0,0,1166,1000,1000,1000,1000,0,0,0,0,ответная передача
1.3736774,-6.771843,-6.34204644534384,0,0,0,0,0,NaN,NaN,NaN,NaN,0,0,0,0,ответная передача
1.3863177,-6.887601,-6.4530669890716,0,0,0,0,0,NaN,NaN,NaN,NaN,0,0,0,0,ответная передача
1.3940539,-7.00434,-6.56509239927909,0,0,0,0,1167,1000,1000,1000,1000,0,0,0,0,ответная передача
1.4076484,-7.12206,-6.67812230729119,0,0,0,0,0,NaN,NaN,NaN,NaN,0,0,0,0,ответная передача
1.4206838,-7.240761,-6.79215631774975,0,0,0,0,0,NaN,NaN,NaN,NaN,0,0,0,0,ответная передача
1.4277648,-7.360443,-6.90719401030432,0,0,0,0,1168,1000,1000,1000,1000,0,0,0,0,ответная передача
1.4410289,-7.481106,-7.02323494128223,0,0,0,0,0,NaN,NaN,NaN,NaN,0,0,0,0,ответная передача
1.4536816,-7.60275,-7.14027864533588,0,0,0,0,0,NaN,NaN,NaN,NaN,0,0,0,0,ответная передача
1.4666636,-7.725375,-7.25832463706532,0,0,0,0,0,NaN,NaN,NaN,NaN,0,0,0,0,ответная передача
1.4703648,-7.848981,-7.37737241261421,0,0,0,0,1169,1000,1000,1000,1000,0,0,0,0,ответная передача
1.4841318,-7.973568,-7.49742145123737,0,0,0,0,0,NaN,NaN,NaN,NaN,0,0,0,0,ответная передача
1.4981498,-8.099136,-7.61847121683839,0,0,0,0,0,NaN,NaN,NaN,NaN,0,0,0,0,ответная передача
1.5056963,-8.225685,-7.74052115947561,0,0,0,0,1170,1000,1000,1000,1000,0,0,0,0,ответная передача
1.5187033,-8.353215,-7.86357071683528,0,0,0,0,0,NaN,NaN,NaN,NaN,0,0,0,0,ответная передача
1.5310334,-8.481726,-7.98761931567036,0,0,0,0,0,NaN,NaN,NaN,NaN,0,0,0,0,ответная передача
1.5392314,-8.611218,-8.11266637320394,0,0,0,0,1171,1000,1000,1000,1000,0,0,0,0,ответная передача
1.5522235,-8.741691,-8.23871129849617,0,0,0,0,0,NaN,NaN,NaN,NaN,0,0,0,0,ответная передача
1.5647581,-8.873145,-8.36575349377355,0,0,0,0,0,NaN,NaN,NaN,NaN,0,0,0,0,ответная передача
1.5750165,-9.00558,-8.49379235572002,0,0,0,0,1172,1000,1000,1000,1000,0,0,0,0,ответная передача
1.587842,-9.138996,-8.62282727672871,0,0,0,0,0,NaN,NaN,NaN,NaN,0,0,0,0,ответная передача
1.6001664,-9.273393,-8.75285764611392,0,0,0,0,0,NaN,NaN,NaN,NaN,0,0,0,0,ответная передача
1.6099284,-9.408771,-8.88388285128266,0,0,0,0,1173,1000,1000,1000,1000,0,0,0,0,ответная передача
1.623982,-9.54513,-9.01590227886522,0,0,0,0,0,NaN,NaN,NaN,NaN,0,0,0,0,ответная передача
1.6363157,-9.68247,-9.14891531580438,0,0,0,0,0,NaN,NaN,NaN,NaN,0,0,0,0,ответная передача
1.6431935,-9.820791,-9.282921350403,0,0,0,0,1174,1000,1000,1000,1000,0,0,0,0,ответная передача
1.6567077,-9.960093,-9.41791977332968,0,0,0,0,0,NaN,NaN,NaN,NaN,0,0,0,0,ответная передача
1.6695841,-10.100376,-9.55390997858234,0,0,0,0,0,NaN,NaN,NaN,NaN,0,0,0,0,ответная передача
1.6820694,-10.24164,-9.69089136440967,0,0,0,0,0,NaN,NaN,NaN,NaN,0,0,0,0,ответная передача
1.6892898,-10.383885,-9.82886333419046,0,0,0,0,1175,1000,1000,1000,1000,0,0,0,0,ответная передача
1.7033169,-10.527111,-9.96782529727085,0,0,0,0,0,NaN,NaN,NaN,NaN,0,0,0,0,ответная передача
1.7159389,-10.671318,-10.1077766697596,0,0,0,0,0,NaN,NaN,NaN,NaN,0,0,0,0,ответная передача
1.7224669,-10.816506,-10.2487168752819,0,0,0,0,1176,1000,1000,1000,1000,0,0,0,0,ответная передача
1.7355681,-10.962675,-10.3906453456912,0,0,0,0,0,NaN,NaN,NaN,NaN,0,0,0,0,ответная передача
1.7480712,-11.109825,-10.5335615217404,0,0,0,0,0,NaN,NaN,NaN,NaN,0,0,0,0,ответная передача
1.7557733,-11.257956,-10.6774648537125,0,0,0,0,1177,1000,1000,1000,1000,0,0,0,0,ответная передача
1.7690475,-11.407068,-10.82235480201,0,0,0,0,0,NaN,NaN,NaN,NaN,0,0,0,0,ответная передача
1.7815172,-11.557161,-10.968230837706,0,0,0,0,0,NaN,NaN,NaN,NaN,0,0,0,0,ответная передача
1.7943507,-11.708235,-11.1150924430546,0,0,0,0,0,NaN,NaN,NaN,NaN,0,0,0,0,ответная передача
1.7984971,-11.86029,-11.2629391119636,0,0,0,0,1178,1000,1000,1000,1000,0,0,0,0,ответная передача
1.8114013,-12.013326,-11.4117703504291,0,0,0,0,0,NaN,NaN,NaN,NaN,0,0,0,0,ответная передача
1.8239295,-12.167343,-11.5615856769326,0,0,0,0,0,NaN,NaN,NaN,NaN,0,0,0,0,ответная передача
1.8351522,-12.322341,-11.7123846228016,0,0,0,0,1179,1000,1000,1000,1000,0,0,0,0,ответная передача
1.8493096,-12.47832,-11.8641667325344,0,0,0,0,0,NaN,NaN,NaN,NaN,0,0,0,0,ответная передача
1.8621925,-12.63528,-12.0169315640899,0,0,0,0,0,NaN,NaN,NaN,NaN,0,0,0,0,ответная передача
1.8694811,-12.793221,-12.1706786891431,0,0,0,0,1180,1000,1000,1000,1000,0,0,0,0,ответная передача
1.8826805,-12.952143,-12.3254076933074,0,0,0,0,0,NaN,NaN,NaN,NaN,0,0,0,0,ответная передача
1.8952162,-13.112046,-12.4811181763245,0,0,0,0,0,NaN,NaN,NaN,NaN,0,0,0,0,ответная передача
1.9078137,-13.27293,-12.6378097522221,0,0,0,0,0,NaN,NaN,NaN,NaN,0,0,0,0,ответная передача
1.9207143,-13.434795,-12.795482049442,0,0,0,0,0,NaN,NaN,NaN,NaN,0,0,0,0,ответная передача
1.9340116,-13.597641,-12.9541347109374,0,0,0,0,0,NaN,NaN,NaN,NaN,0,0,0,0,ответная передача
1.9434272,-13.761468,-13.1137673942423,0,0,0,0,1181,1000,1000,1000,1000,0,0,0,0,ответная передача
1.9570833,-13.926276,-13.2743797715124,0,0,0,0,0,NaN,NaN,NaN,NaN,0,0,0,0,ответная передача
1.9696524,-14.092065,-13.4359715295395,0,0,0,0,0,NaN,NaN,NaN,NaN,0,0,0,0,ответная передача
1.9771052,-14.258835,-13.5985423697405,0,0,0,0,1182,1000,1000,1000,1000,0,0,0,0,ответная передача
1.9920264,-14.426586,-13.7620920081206,0,0,0,0,0,NaN,NaN,NaN,NaN,0,0,0,0,ответная передача
2.0057003,-14.595318,-13.9266201752134,0,0,0,0,0,NaN,NaN,NaN,NaN,0,0,0,0,ответная передача
2.0176905,-14.765031,-14.0921266159981,0,0,0,0,1183,1000,1000,1000,1000,0,0,0,0,ответная передача
2.0312955,-14.935725,-14.2586110897942,0,0,0,0,0,NaN,NaN,NaN,NaN,0,0,0,0,ответная передача
2.0442352,-15.1074,-14.4260733701367,0,0,0,0,0,NaN,NaN,NaN,NaN,0,0,0,0,ответная передача
2.0525655,-15.280056,-14.5945132446298,0,0,0,0,1184,1000,1000,1000,1000,0,0,0,0,ответная передача
2.0654298,-15.453693,-14.7639305147834,0,0,0,0,0,NaN,NaN,NaN,NaN,0,0,0,0,ответная передача
2.0779929,-15.628311,-14.9343249958304,0,0,0,0,0,NaN,NaN,NaN,NaN,0,0,0,0,ответная передача
2.0856956,-15.80391,-15.1056965165282,0,0,0,0,1185,1000,1000,1000,1000,0,0,0,0,ответная передача
2.0987438,-15.98049,-15.278044918944,0,0,0,0,0,NaN,NaN,NaN,NaN,0,0,0,0,ответная передача
2.1116384,-16.158051,-15.4513700582246,0,0,0,0,0,NaN,NaN,NaN,NaN,0,0,0,0,ответная передача
2.1240556,-16.336593,-15.6256718023534,0,0,0,0,0,NaN,NaN,NaN,NaN,0,0,0,0,ответная передача
2.1367522,-16.516116,-15.8009500318934,0,0,0,0,0,NaN,NaN,NaN,NaN,0,0,0,0,ответная передача
2.1490595,-16.69662,-15.9772046397188,0,0,0,0,0,NaN,NaN,NaN,NaN,0,0,0,0,ответная передача
2.1608361,-16.878105,-16.1544355307353,0,0,0,0,1186,1000,1000,1000,1000,0,0,0,0,ответная передача
2.1752078,-17.060571,-16.33264262159,0,0,0,0,0,NaN,NaN,NaN,NaN,0,0,0,0,ответная передача
2.1888328,-17.244018,-16.5118258403718,0,0,0,0,0,NaN,NaN,NaN,NaN,0,0,0,0,ответная передача
2.1943167,-17.428446,-16.6919851263043,0,0,0,0,1187,1000,1000,1000,1000,0,0,0,0,ответная передача
2.2072895,-17.613855,-16.8731204294297,0,0,0,0,0,NaN,NaN,NaN,NaN,0,0,0,0,ответная передача
2.2197003,-17.800245,-17.0552317102871,0,0,0,0,0,NaN,NaN,NaN,NaN,0,0,0,0,ответная передача
2.2324007,-17.987616,-17.2383189395839,0,0,0,0,0,NaN,NaN,NaN,NaN,0,0,0,0,ответная передача
2.2459039,-18.175968,-17.4223820978628,0,0,0,0,0,NaN,NaN,NaN,NaN,0,0,0,0,ответная передача
2.2583798,-18.365301,-17.6074211751641,0,0,0,0,0,NaN,NaN,NaN,NaN,0,0,0,0,ответная передача
2.2692271,-18.555615,-17.7934361706837,0,0,0,0,1188,1000,1000,1000,1000,0,0,0,0,ответная передача
2.2824749,-18.74691,-17.9804270924296,0,0,0,0,0,NaN,NaN,NaN,NaN,0,0,0,0,ответная передача
2.2949752,-18.939186,-18.1683939568747,0,0,0,0,0,NaN,NaN,NaN,NaN,0,0,0,0,ответная передача
2.3023165,-19.132443,-18.3573367886088,0,0,0,0,1189,1000,1000,1000,1000,0,0,0,0,ответная передача
2.3160631,-19.326681,-18.5472556199899,0,0,0,0,0,NaN,NaN,NaN,NaN,0,0,0,0,ответная передача
2.3287141,-19.5219,-18.7381504907948,0,0,0,0,0,NaN,NaN,NaN,NaN,0,0,0,0,ответная передача
2.3415029,-19.7181,-18.9300214478699,0,0,0,0,0,NaN,NaN,NaN,NaN,0,0,0,0,ответная передача
2.3459563,-19.915281,-19.122868544784,0,0,0,0,1190,1000,1000,1000,1000,0,0,0,0,ответная передача
2.3588839,-20.113443,-19.3166918414812,0,0,0,0,0,NaN,NaN,NaN,NaN,0,0,0,0,ответная передача
2.3722737,-20.312586,-19.511491403937,0,0,0,0,0,NaN,NaN,NaN,NaN,0,0,0,0,ответная передача
2.3809296,-20.51271,-19.7072673038166,0,0,0,0,1191,1000,1000,1000,1000,0,0,0,0,ответная передача
2.3941693,-20.713815,-19.9040196181356,0,0,0,0,0,NaN,NaN,NaN,NaN,0,0,0,0,ответная передача
2.4070689,-20.915901,-20.1017484289259,0,0,0,0,0,NaN,NaN,NaN,NaN,0,0,0,0,ответная передача
2.4159952,-21.118968,-20.3004538229035,0,0,0,0,1192,1000,1000,1000,1000,0,0,0,0,ответная передача
2.4309188,-21.323016,-20.5001358911425,0,0,0,0,0,NaN,NaN,NaN,NaN,0,0,0,0,ответная передача
2.4434152,-21.528045,-20.700794728753,0,0,0,0,0,NaN,NaN,NaN,NaN,0,0,0,0,ответная передача
2.4559291,-21.734055,-20.902430434564,0,0,0,0,1193,1000,1000,1000,1000,0,0,0,0,ответная передача
2.4690984,-21.941046,-21.1050431108126,0,0,0,0,0,NaN,NaN,NaN,NaN,0,0,0,0,ответная передача
2.4817722,-22.149018,-21.3086328628386,0,0,0,0,0,NaN,NaN,NaN,NaN,0,0,0,0,ответная передача
2.4896347,-22.357971,-21.5131997987851,0,0,0,0,1194,1000,1000,1000,1000,0,0,0,0,ответная передача
2.5032115,-22.567905,-21.718744029306,0,0,0,0,0,NaN,NaN,NaN,NaN,0,0,0,0,ответная передача
2.5156475,-22.77882,-21.9252656672798,0,0,0,0,0,NaN,NaN,NaN,NaN,0,0,0,0,ответная передача
2.5229575,-22.990716,-22.1327648275306,0,0,0,0,1195,1000,1000,1000,1000,0,0,0,0,ответная передача
2.5359112,-23.203593,-22.3412416265564,0,0,0,0,0,NaN,NaN,NaN,NaN,0,0,0,0,ответная передача
2.5483267,-23.417451,-22.5506961822642,0,0,0,0,0,NaN,NaN,NaN,NaN,0,0,0,0,ответная передача
2.5607618,-23.63229,-22.7611286137136,0,0,0,0,0,NaN,NaN,NaN,NaN,0,0,0,0,ответная передача
2.5638272,-23.84811,-22.972539040867,0,0,0,0,1196,1000,1000,1000,1000,0,0,0,0,ответная передача
2.5768635,-24.064911,-23.1849275843484,0,0,0,0,0,NaN,NaN,NaN,NaN,0,0,0,0,ответная передача
2.5897811,-24.282693,-23.3982943652102,0,0,0,0,0,NaN,NaN,NaN,NaN,0,0,0,0,ответная передача
2.601945,-24.501456,-23.6126395047076,0,0,0,0,1197,1000,1000,1000,1000,0,0,0,0,ответная передача
2.6149954,-24.7212,-23.8279631240815,0,0,0,0,0,NaN,NaN,NaN,NaN,0,0,0,0,ответная передача
2.6274597,-24.941925,-24.0442653443493,0,0,0,0,0,NaN,NaN,NaN,NaN,0,0,0,0,ответная передача
2.6392731,-25.163631,-24.2615462861049,0,0,0,0,1198,1000,1000,1000,1000,0,0,0,0,ответная передача
2.6526181,-25.386318,-24.4798060693253,0,0,0,0,0,NaN,NaN,NaN,NaN,0,0,0,0,ответная передача
2.6650455,-25.609986,-24.6990448131875,0,0,0,0,0,NaN,NaN,NaN,NaN,0,0,0,0,ответная передача
2.6735101,-25.834635,-24.9192626358924,0,0,0,0,1199,1000,1000,1000,1000,0,0,0,0,ответная передача
2.6869342,-26.060265,-25.140459654497,0,0,0,0,0,NaN,NaN,NaN,NaN,0,0,0,0,ответная передача
2.6998198,-26.286876,-25.3626359847562,0,0,0,0,0,NaN,NaN,NaN,NaN,0,0,0,0,ответная передача
2.7110899,-26.514468,-25.5857917409711,0,0,0,0,1200,1000,1000,1000,1000,0,0,0,0,ответная передача
2.7242277,-26.743041,-25.809927035847,0,0,0,0,0,NaN,NaN,NaN,NaN,0,0,0,0,ответная передача
2.7370265,-26.972595,-26.0350419803584,0,0,0,0,0,NaN,NaN,NaN,NaN,0,0,0,0,ответная передача
2.7440558,-27.20313,-26.261136683623,0,0,0,0,1201,1000,1000,1000,1000,0,0,0,0,ответная передача
2.7570214,-27.434646,-26.488211252783,0,0,0,0,0,NaN,NaN,NaN,NaN,0,0,0,0,ответная передача
2.7693944,-27.667143,-26.7162657928947,0,0,0,0,0,NaN,NaN,NaN,NaN,0,0,0,0,ответная передача
2.7818747,-27.900621,-26.9453004068257,0,0,0,0,0,NaN,NaN,NaN,NaN,0,0,0,0,ответная передача
2.7946201,-28.13508,-27.1753151951597,0,0,0,0,0,NaN,NaN,NaN,NaN,0,0,0,0,ответная передача
2.8073359,-28.37052,-27.4063102561089,0,0,0,0,0,NaN,NaN,NaN,NaN,0,0,0,0,ответная передача
2.8153095,-28.606941,-27.6382856854342,0,0,0,0,1202,1000,1000,1000,1000,0,0,0,0,ответная передача
2.8286083,-28.844343,-27.8712415763717,0,0,0,0,0,NaN,NaN,NaN,NaN,0,0,0,0,ответная передача
2.8410815,-29.082726,-28.1051780195674,0,0,0,0,0,NaN,NaN,NaN,NaN,0,0,0,0,ответная передача
2.8539386,-29.32209,-28.3400951030182,0,0,0,0,0,NaN,NaN,NaN,NaN,0,0,0,0,ответная передача
2.8596647,-29.562435,-28.5759929120199,0,0,0,0,1203,1000,1000,1000,1000,0,0,0,0,ответная передача
2.8731265,-29.803761,-28.8128715291217,0,0,0,0,0,NaN,NaN,NaN,NaN,0,0,0,0,ответная передача
2.8866511,-30.046068,-29.0507310340875,0,0,0,0,0,NaN,NaN,NaN,NaN,0,0,0,0,ответная передача
2.8927709,-30.289356,-29.2895715038628,0,0,0,0,1204,1000,1000,1000,1000,0,0,0,0,ответная передача
2.9061547,-30.533625,-29.5293930125488,0,0,0,0,0,NaN,NaN,NaN,NaN,0,0,0,0,ответная передача
2.9192857,-30.778875,-29.7701956313811,0,0,0,0,0,NaN,NaN,NaN,NaN,0,0,0,0,ответная передача
2.9267602,-31.025106,-30.0119794287152,0,0,0,0,1205,1000,1000,1000,1000,0,0,0,0,ответная передача
2.9399092,-31.272318,-30.2547444700172,0,0,0,0,0,NaN,NaN,NaN,NaN,0,0,0,0,ответная передача
2.9524494,-31.520511,-30.4984908178594,0,0,0,0,0,NaN,NaN,NaN,NaN,0,0,0,0,ответная передача
2.9597837,-31.769685,-30.7432185319219,0,0,0,0,1206,1000,1000,1000,1000,0,0,0,0,ответная передача
2.9728318,-32.01984,-30.9889276689982,0,0,0,0,0,NaN,NaN,NaN,NaN,0,0,0,0,ответная передача
2.9852492,-32.270976,-31.2356182830065,0,0,0,0,0,NaN,NaN,NaN,NaN,0,0,0,0,ответная передача
2.9979358,-32.523093,-31.4832904250047,0,0,0,0,0,NaN,NaN,NaN,NaN,0,0,0,0,ответная передача
3.0006057,-32.776191,-31.7319441432107,0,0,0,0,1207,1000,1000,1000,1000,0,0,0,0,ответная передача
3.0148518,-33.03027,-31.9815794830258,0,0,0,0,0,NaN,NaN,NaN,NaN,0,0,0,0,ответная передача
3.0277504,-33.28533,-32.2321964870628,0,0,0,0,0,NaN,NaN,NaN,NaN,0,0,0,0,ответная передача
3.0351145,-33.541371,-32.4837951951777,0,0,0,0,1208,1000,1000,1000,1000,0,0,0,0,ответная передача
3.0483355,-33.798393,-32.736375644505,0,0,0,0,0,NaN,NaN,NaN,NaN,0,0,0,0,ответная передача
3.060821,-34.056396,-32.9899378694959,0,0,0,0,0,NaN,NaN,NaN,NaN,0,0,0,0,ответная передача
3.0689336,-34.31538,-33.2444819019607,0,0,0,0,1209,1000,1000,1000,1000,0,0,0,0,ответная передача
3.0819308,-34.575345,-33.500007771113,0,0,0,0,0,NaN,NaN,NaN,NaN,0,0,0,0,ответная передача
3.0945509,-34.836291,-33.7565155036177,0,0,0,0,0,NaN,NaN,NaN,NaN,0,0,0,0,ответная передача
3.1074563,-35.098218,-34.0140051236407,0,0,0,0,0,NaN,NaN,NaN,NaN,0,0,0,0,ответная передача
3.1204141,-35.361126,-34.272476652902,0,0,0,0,0,NaN,NaN,NaN,NaN,0,0,0,0,ответная передача
3.1331685,-35.625015,-34.5319301107302,0,0,0,0,0,NaN,NaN,NaN,NaN,0,0,0,0,ответная передача
3.1432985,-35.889885,-34.7923655141194,0,0,0,0,1210,1000,1000,1000,1000,0,0,0,0,ответная передача
3.1562278,-36.155736,-35.0537828777883,0,0,0,0,0,NaN,NaN,NaN,NaN,0,0,0,0,ответная передача
3.1692454,-36.422568,-35.3161822142402,0,0,0,0,0,NaN,NaN,NaN,NaN,0,0,0,0,ответная передача
3.1765277,-36.690381,-35.5795635338255,0,0,0,0,1211,1000,1000,1000,1000,0,0,0,0,ответная передача
3.1914962,-36.959175,-35.8439268448048,0,0,0,0,0,NaN,NaN,NaN,NaN,0,0,0,0,ответная передача
3.2041525,-37.22895,-36.1092721534137,0,0,0,0,0,NaN,NaN,NaN,NaN,0,0,0,0,ответная передача
3.2166759,-37.499706,-36.3755994639284,0,0,0,0,0,NaN,NaN,NaN,NaN,0,0,0,0,ответная передача
3.2224276,-37.771443,-36.6429087787324,0,0,0,0,1212,1000,1000,1000,1000,0,0,0,0,ответная передача
3.2356353,-38.044161,-36.9112000983838,0,0,0,0,0,NaN,NaN,NaN,NaN,0,0,0,0,ответная передача
3.248159,-38.31786,-37.1804734216831,0,0,0,0,0,NaN,NaN,NaN,NaN,0,0,0,0,ответная передача
3.2555975,-38.59254,-37.450728745742,0,0,0,0,1213,1000,1000,1000,1000,0,0,0,0,ответная передача
3.2687419,-38.868201,-37.7219660660518,0,0,0,0,0,NaN,NaN,NaN,NaN,0,0,0,0,ответная передача
3.2810988,-39.144843,-37.9941853765525,0,0,0,0,0,NaN,NaN,NaN,NaN,0,0,0,0,ответная передача
3.2899916,-39.422466,-38.267386669702,0,0,0,0,1214,1000,1000,1000,1000,0,0,0,0,ответная передача
3.3031196,-39.70107,-38.541569936545,0,0,0,0,0,NaN,NaN,NaN,NaN,0,0,0,0,ответная передача
3.3154022,-39.9806549999999,-38.8167351667816,0,0,0,0,0,NaN,NaN,NaN,NaN,0,0,0,0,ответная передача
3.3277501,-40.2612209999999,-39.0928823488363,0,0,0,0,0,NaN,NaN,NaN,NaN,0,0,0,0,ответная передача
3.3307105,-40.5427679999999,-39.3700114699259,0,0,0,0,1215,1000,1000,1000,1000,0,0,0,0,ответная передача
3.3437389,-40.8252959999999,-39.648122516127,0,0,0,0,0,NaN,NaN,NaN,NaN,0,0,0,0,ответная передача
3.3568948,-41.1088049999999,-39.9272154724437,0,0,0,0,0,NaN,NaN,NaN,NaN,0,0,0,0,ответная передача
3.3650038,-41.3932949999999,-40.2072903228736,0,0,0,0,1216,1000,1000,1000,1000,0,0,0,0,ответная передача
3.3782872,-41.6787659999999,-40.4883470504732,0,0,0,0,0,NaN,NaN,NaN,NaN,0,0,0,0,ответная передача
3.3906557,-41.9652179999999,-40.7703856374235,0,0,0,0,0,NaN,NaN,NaN,NaN,0,0,0,0,ответная передача
3.3990862,-42.2526509999999,-41.0534060650931,0,0,0,0,1217,1000,1000,1000,1000,0,0,0,0,ответная передача
3.4128172,-42.5410649999999,-41.3374083141014,0,0,0,0,0,NaN,NaN,NaN,NaN,0,0,0,0,ответная передача
3.4273802,-42.8304599999999,-41.6223923643804,0,0,0,0,0,NaN,NaN,NaN,NaN,0,0,0,0,ответная передача
3.4390007,-43.1208359999999,-41.9083581952352,0,0,0,0,1218,1000,1000,1000,1000,0,0,0,0,ответная передача
3.4522574,-43.4121929999999,-42.1953057854035,0,0,0,0,0,NaN,NaN,NaN,NaN,0,0,0,0,ответная передача
3.4650032,-43.7045309999999,-42.4832351131139,0,0,0,0,0,NaN,NaN,NaN,NaN,0,0,0,0,ответная передача
3.4724297,-43.9978499999999,-42.7721461561425,0,0,0,0,1219,1000,1000,1000,1000,0,0,0,0,ответная передача
3.4857943,-44.2921499999999,-43.0620388918685,0,0,0,0,0,NaN,NaN,NaN,NaN,0,0,0,0,ответная передача
3.4983357,-44.5874309999999,-43.3529132973284,0,0,0,0,0,NaN,NaN,NaN,NaN,0,0,0,0,ответная передача
3.5057801,-44.8836929999999,-43.6447693492683,0,0,0,0,1220,1000,1000,1000,1000,0,0,0,0,ответная передача
3.5190862,-45.1809359999999,-43.9376070241955,0,0,0,0,0,NaN,NaN,NaN,NaN,0,0,0,0,ответная передача
3.5315655,-45.4791599999999,-44.2314262984275,0,0,0,0,0,NaN,NaN,NaN,NaN,0,0,0,0,ответная передача
3.5440661,-45.7783649999999,-44.5262271481409,0,0,0,0,0,NaN,NaN,NaN,NaN,0,0,0,0,ответная передача
3.5474702,-46.0785509999999,-44.8220095494171,0,0,0,0,1221,1000,1000,1000,1000,0,0,0,0,ответная передача
3.5604334,-46.3797179999999,-45.1187734782878,0,0,0,0,0,NaN,NaN,NaN,NaN,0,0,0,0,ответная передача
3.5725756,-46.6818659999999,-45.4165189107778,0,0,0,0,0,NaN,NaN,NaN,NaN,0,0,0,0,ответная передача
3.5809687,-46.9849949999999,-45.7152458229471,0,0,0,0,1222,1000,1000,1000,1000,0,0,0,0,ответная передача
3.5950486,-47.2891049999999,-46.0149541909309,0,0,0,0,0,NaN,NaN,NaN,NaN,0,0,0,0,ответная передача
3.6077986,-47.5941959999999,-46.3156439909777,0,0,0,0,0,NaN,NaN,NaN,NaN,0,0,0,0,ответная передача
3.6146817,-47.9002679999999,-46.6173151994863,0,0,0,0,1223,1000,1000,1000,1000,0,0,0,0,ответная передача
3.6288792,-48.2073209999999,-46.919967793041,0,0,0,0,0,NaN,NaN,NaN,NaN,0,0,0,0,ответная передача
3.6417361,-48.5153549999999,-47.2236017484446,0,0,0,0,0,NaN,NaN,NaN,NaN,0,0,0,0,ответная передача
3.654253,-48.8243699999999,-47.5282170427508,0,0,0,0,0,NaN,NaN,NaN,NaN,0,0,0,0,ответная передача
3.6569164,-49.1343659999999,-47.8338136532942,0,0,0,0,1224,1000,1000,1000,1000,0,0,0,0,ответная передача
3.6700065,-49.4453429999999,-48.1403915577186,0,0,0,0,0,NaN,NaN,NaN,NaN,0,0,0,0,ответная передача
3.6824566,-49.7573009999999,-48.4479507340042,0,0,0,0,0,NaN,NaN,NaN,NaN,0,0,0,0,ответная передача
3.6934455,-50.0702399999999,-48.7564911604928,0,0,0,0,1225,1000,1000,1000,1000,0,0,0,0,ответная передача
3.707131,-50.3841599999999,-49.066012815912,0,0,0,0,0,NaN,NaN,NaN,NaN,0,0,0,0,ответная передача
3.7195556,-50.6990609999999,-49.3765156793966,0,0,0,0,0,NaN,NaN,NaN,NaN,0,0,0,0,ответная передача
3.7309653,-51.0149429999999,-49.68799973051,0,0,0,0,1226,1000,1000,1000,1000,0,0,0,0,ответная передача
3.7443002,-51.3318059999999,-50.0004649492631,0,0,0,0,0,NaN,NaN,NaN,NaN,0,0,0,0,ответная передача
3.7568733,-51.6496499999999,-50.3139113161317,0,0,0,0,0,NaN,NaN,NaN,NaN,0,0,0,0,ответная передача
3.767518,-51.9684749999999,-50.6283388120731,0,0,0,0,1227,1000,1000,1000,1000,0,0,0,0,ответная передача
3.7816248,-52.2882809999999,-50.9437474185405,0,0,0,0,0,NaN,NaN,NaN,NaN,0,0,0,0,ответная передача
3.7940463,-52.6090679999999,-51.2601371174964,0,0,0,0,0,NaN,NaN,NaN,NaN,0,0,0,0,ответная передача
3.8015944,-52.9308359999999,-51.5775078914247,0,0,0,0,1228,1000,1000,1000,1000,0,0,0,0,ответная передача
3.8145917,-53.2535849999999,-51.8958597233411,0,0,0,0,0,NaN,NaN,NaN,NaN,0,0,0,0,ответная передача
3.8268465,-53.5773149999999,-52.2151925968024,0,0,0,0,0,NaN,NaN,NaN,NaN,0,0,0,0,ответная передача
3.8349487,-53.9020259999999,-52.5355064959145,0,0,0,0,1229,1000,1000,1000,1000,0,0,0,0,ответная передача
3.8490151,-54.2277179999999,-52.8568014053393,0,0,0,0,0,NaN,NaN,NaN,NaN,0,0,0,0,ответная передача
3.8617752,-54.5543909999999,-53.1790773102997,0,0,0,0,0,NaN,NaN,NaN,NaN,0,0,0,0,ответная передача
3.873865,-54.8820449999999,-53.5023341965846,0,0,0,0,0,NaN,NaN,NaN,NaN,0,0,0,0,ответная передача
3.8863943,-55.2106799999999,-53.8265720505517,0,0,0,0,0,NaN,NaN,NaN,NaN,0,0,0,0,ответная передача
3.8990967,-55.5402959999999,-54.1517908591296,0,0,0,0,0,NaN,NaN,NaN,NaN,0,0,0,0,ответная передача
3.9098471,-55.8708929999999,-54.4779906098191,0,0,0,0,1230,1000,1000,1000,1000,0,0,0,0,ответная передача
3.9232986,-56.2024709999999,-54.8051712906928,0,0,0,0,0,NaN,NaN,NaN,NaN,0,0,0,0,ответная передача
3.9360429,-56.5350299999999,-55.1333328903943,0,0,0,0,0,NaN,NaN,NaN,NaN,0,0,0,0,ответная передача
3.9430958,-56.8685699999999,-55.4624753981365,0,0,0,0,1231,1000,1000,1000,1000,0,0,0,0,ответная передача
3.9560901,-57.2030909999999,-55.7925988036984,0,0,0,0,0,NaN,NaN,NaN,NaN,0,0,0,0,ответная передача
3.9684125,-57.5385929999999,-56.1237030974215,0,0,0,0,0,NaN,NaN,NaN,NaN,0,0,0,0,ответная передача
3.9812482,-57.8750759999999,-56.4557882702053,0,0,0,0,0,NaN,NaN,NaN,NaN,0,0,0,0,ответная передача
3.9855442,-58.2125399999999,-56.7888543135018,0,0,0,0,1232,1000,1000,1000,1000,0,0,0,0,ответная передача
3.9988935,-58.5509849999999,-57.1229012193097,0,0,0,0,0,NaN,NaN,NaN,NaN,0,0,0,0,ответная передача
4.0111413,-58.8904109999999,-57.4579289801674,0,0,0,0,0,NaN,NaN,NaN,NaN,0,0,0,0,ответная передача
4.0230754,-59.2308179999999,-57.7939375891453,0,0,0,0,1233,1000,1000,1000,1000,0,0,0,0,ответная передача
4.0361402,-59.5722059999999,-58.1309270398382,0,0,0,0,0,NaN,NaN,NaN,NaN,0,0,0,0,ответная передача
4.0489995,-59.9145749999999,-58.4688973263561,0,0,0,0,0,NaN,NaN,NaN,NaN,0,0,0,0,ответная передача
4.055509,-60.2579249999999,-58.8078484433151,0,0,0,0,1234,1000,1000,1000,1000,0,0,0,0,ответная передача
4.0688376,-60.6022559999999,-59.1477803858277,0,0,0,0,0,NaN,NaN,NaN,NaN,0,0,0,0,ответная передача
4.0813651,-60.9475679999999,-59.4886931494923,0,0,0,0,0,NaN,NaN,NaN,NaN,0,0,0,0,ответная передача
4.0939281,-61.2938609999999,-59.8305867303826,0,0,0,0,0,NaN,NaN,NaN,NaN,0,0,0,0,ответная передача
4.0973862,-61.6411349999998,-60.1734611250364,0,0,0,0,1235,1000,1000,1000,1000,0,0,0,0,ответная передача
4.1106168,-61.9893899999999,-60.517316330444,0,0,0,0,0,NaN,NaN,NaN,NaN,0,0,0,0,ответная передача
4.1232956,-62.3386259999998,-60.8621523440364,0,0,0,0,0,NaN,NaN,NaN,NaN,0,0,0,0,ответная передача
4.1312296,-62.6888429999998,-61.2079691636731,0,0,0,0,1236,1000,1000,1000,1000,0,0,0,0,ответная передача
4.1443731,-63.0400409999998,-61.5547667876295,0,0,0,0,0,NaN,NaN,NaN,NaN,0,0,0,0,ответная передача
4.1570882,-63.3922199999998,-61.9025452145842,0,0,0,0,0,NaN,NaN,NaN,NaN,0,0,0,0,ответная передача
4.1647148,-63.7453799999998,-62.2513044436063,0,0,0,0,1237,1000,1000,1000,1000,0,0,0,0,ответная передача
4.1776915,-64.0995209999998,-62.601044474142,0,0,0,0,0,NaN,NaN,NaN,NaN,0,0,0,0,ответная передача
4.1902442,-64.4546429999998,-62.9517653060014,0,0,0,0,0,NaN,NaN,NaN,NaN,0,0,0,0,ответная передача
4.2033025,-64.8107459999998,-63.3034669393449,0,0,0,0,0,NaN,NaN,NaN,NaN,0,0,0,0,ответная передача
4.216091,-65.1678299999998,-63.6561493746703,0,0,0,0,0,NaN,NaN,NaN,NaN,0,0,0,0,ответная передача
4.2284859,-65.5258949999998,-64.0098126127983,0,0,0,0,0,NaN,NaN,NaN,NaN,0,0,0,0,ответная передача
4.2391026,-65.8849409999998,-64.3644566548597,0,0,0,0,1238,1000,1000,1000,1000,0,0,0,0,ответная передача
4.2528488,-66.2449679999998,-64.7200815022812,0,0,0,0,0,NaN,NaN,NaN,NaN,0,0,0,0,ответная передача
4.2662318,-66.6059759999998,-65.0766871567722,0,0,0,0,0,NaN,NaN,NaN,NaN,0,0,0,0,ответная передача
4.2733155,-66.9679649999998,-65.4342736203107,0,0,0,0,1239,1000,1000,1000,1000,0,0,0,0,ответная передача
4.2864929,-67.3309349999998,-65.7928408951301,0,0,0,0,0,NaN,NaN,NaN,NaN,0,0,0,0,ответная передача
4.2989294,-67.6948859999998,-66.1523889837055,0,0,0,0,0,NaN,NaN,NaN,NaN,0,0,0,0,ответная передача
4.3115752,-68.0598179999998,-66.5129178887404,0,0,0,0,0,NaN,NaN,NaN,NaN,0,0,0,0,ответная передача
4.3140278,-68.4257309999998,-66.8744276131535,0,0,0,0,1240,1000,1000,1000,1000,0,0,0,0,ответная передача
4.3270912,-68.7926249999998,-67.2369181600653,0,0,0,0,0,NaN,NaN,NaN,NaN,0,0,0,0,ответная передача
4.3402632,-69.1604999999998,-67.600389532785,0,0,0,0,0,NaN,NaN,NaN,NaN,0,0,0,0,ответная передача
4.3475006,-69.5293559999998,-67.9648417347982,0,0,0,0,1241,1000,1000,1000,1000,0,0,0,0,ответная передача
4.3609141,-69.8991929999998,-68.3302747697537,0,0,0,0,0,NaN,NaN,NaN,NaN,0,0,0,0,ответная передача
4.3732331,-70.2700109999998,-68.696688641451,0,0,0,0,0,NaN,NaN,NaN,NaN,0,0,0,0,ответная передача
4.3806518,-70.6418099999998,-69.0640833538287,0,0,0,0,1242,1000,1000,1000,1000,0,0,0,0,ответная передача
4.3937938,-71.0145899999998,-69.4324589109516,0,0,0,0,0,NaN,NaN,NaN,NaN,0,0,0,0,ответная передача
4.4062639,-71.3883509999998,-69.8018153169994,0,0,0,0,0,NaN,NaN,NaN,NaN,0,0,0,0,ответная передача
4.4189357,-71.7630929999998,-70.172152576255,0,0,0,0,0,NaN,NaN,NaN,NaN,0,0,0,0,ответная передача
4.4238011,-72.1388159999998,-70.5434706930934,0,0,0,0,1243,1000,1000,1000,1000,0,0,0,0,ответная передача
4.4371055,-72.5155199999998,-70.9157696719703,0,0,0,0,0,NaN,NaN,NaN,NaN,0,0,0,0,ответная передача
4.4502902,-72.8932049999998,-71.2890495174117,0,0,0,0,0,NaN,NaN,NaN,NaN,0,0,0,0,ответная передача
4.4579211,-73.2718709999998,-71.6633102340031,0,0,0,0,1244,1000,1000,1000,1000,0,0,0,0,ответная передача
4.4716029,-73.6515179999998,-72.0385518263796,0,0,0,0,0,NaN,NaN,NaN,NaN,0,0,0,0,ответная передача
4.4856847,-74.0321459999998,-72.4147742992161,0,0,0,0,0,NaN,NaN,NaN,NaN,0,0,0,0,ответная передача
4.4975335,-74.4137549999998,-72.7919776572171,0,0,0,0,1245,1000,1000,1000,1000,0,0,0,0,ответная передача
4.5113624,-74.7963449999998,-73.1701619051084,0,0,0,0,0,NaN,NaN,NaN,NaN,0,0,0,0,ответная передача
4.5242414,-75.1799159999998,-73.5493270476273,0,0,0,0,0,NaN,NaN,NaN,NaN,0,0,0,0,ответная передача
4.5349076,-75.5644679999998,-73.9294730895144,0,0,0,0,1246,1000,1000,1000,1000,0,0,0,0,ответная передача
4.5493564,-75.9500009999998,-74.3106000355051,0,0,0,0,0,NaN,NaN,NaN,NaN,0,0,0,0,ответная передача
4.5623096,-76.3365149999998,-74.6927078903219,0,0,0,0,0,NaN,NaN,NaN,NaN,0,0,0,0,ответная передача
4.5689209,-76.7240099999998,-75.0757966586663,0,0,0,0,1247,1000,1000,1000,1000,0,0,0,0,ответная передача
4.5819712,-77.1124859999998,-75.4598663452118,0,0,0,0,0,NaN,NaN,NaN,NaN,0,0,0,0,ответная передача
4.5944022,-77.5019429999998,-75.8449169545969,0,0,0,0,0,NaN,NaN,NaN,NaN,0,0,0,0,ответная передача
4.605975,-77.8923809999998,-76.230948491418,0,0,0,0,1248,1000,1000,1000,1000,0,0,0,0,ответная передача
4.6196827,-78.2837999999998,-76.6179609602236,0,0,0,0,0,NaN,NaN,NaN,NaN,0,0,0,0,ответная передача
4.6322138,-78.6761999999998,-77.0059543655079,0,0,0,0,0,NaN,NaN,NaN,NaN,0,0,0,0,ответная передача
4.6434193,-79.0695809999998,-77.394928711705,0,0,0,0,1249,1000,1000,1000,1000,0,0,0,0,ответная передача
4.6567385,-79.4639429999998,-77.7848840031838,0,0,0,0,0,NaN,NaN,NaN,NaN,0,0,0,0,ответная передача
4.6694446,-79.8592859999998,-78.175820244243,0,0,0,0,0,NaN,NaN,NaN,NaN,0,0,0,0,ответная передача
4.6778161,-80.2556099999998,-78.5677374391057,0,0,0,0,1250,1000,1000,1000,1000,0,0,0,0,ответная передача
4.691554,-80.6529149999998,-78.9606355919156,0,0,0,0,0,NaN,NaN,NaN,NaN,0,0,0,0,ответная передача
4.7040911,-81.0512009999998,-79.3545147067325,0,0,0,0,0,NaN,NaN,NaN,NaN,0,0,0,0,ответная передача
4.711195,-81.4504679999998,-79.7493747875288,0,0,0,0,1251,1000,1000,1000,1000,0,0,0,0,ответная передача
4.7245093,-81.8507159999998,-80.1452158381853,0,0,0,0,0,NaN,NaN,NaN,NaN,0,0,0,0,ответная передача
4.7369311,-82.2519449999998,-80.5420378624887,0,0,0,0,0,NaN,NaN,NaN,NaN,0,0,0,0,ответная передача
4.7498771,-82.6541549999998,-80.9398408641279,0,0,0,0,0,NaN,NaN,NaN,NaN,0,0,0,0,ответная передача
4.7622237,-83.0573459999998,-81.3386248466921,0,0,0,0,0,NaN,NaN,NaN,NaN,0,0,0,0,ответная передача
4.7747435,-83.4615179999998,-81.7383898136676,0,0,0,0,0,NaN,NaN,NaN,NaN,0,0,0,0,ответная передача
4.7850798,-83.8666709999998,-82.139135768436,0,0,0,0,1252,1000,1000,1000,1000,0,0,0,0,ответная передача
4.7990686,-84.2728049999998,-82.5408627142725,0,0,0,0,0,NaN,NaN,NaN,NaN,0,0,0,0,ответная передача
4.8114772,-84.6799199999998,-82.943570654344,0,0,0,0,0,NaN,NaN,NaN,NaN,0,0,0,0,ответная передача
4.8189825,-85.0880159999998,-83.3472595917077,0,0,0,0,1253,1000,1000,1000,1000,0,0,0,0,ответная передача
4.8322835,-85.4970929999998,-83.75192952931,0,0,0,0,0,NaN,NaN,NaN,NaN,0,0,0,0,ответная передача
4.844585,-85.9071509999998,-84.1575804699859,0,0,0,0,0,NaN,NaN,NaN,NaN,0,0,0,0,ответная передача
4.8569646,-86.3181899999998,-84.5642124164576,0,0,0,0,0,NaN,NaN,NaN,NaN,0,0,0,0,ответная передача
4.8593408,-86.7302099999998,-84.971825371335,0,0,0,0,1254,1000,1000,1000,1000,0,0,0,0,ответная передача
4.8722306,-87.1432109999998,-85.3804193371145,0,0,0,0,0,NaN,NaN,NaN,NaN,0,0,0,0,ответная передача
4.8852029,-87.5571929999998,-85.7899943161797,0,0,0,0,0,NaN,NaN,NaN,NaN,0,0,0,0,ответная передача
4.8985586,-87.9721559999998,-86.200550310801,0,0,0,0,0,NaN,NaN,NaN,NaN,0,0,0,0,ответная передача
4.9060012,-88.3880999999998,-86.6120873231364,0,0,0,0,1255,1000,1000,1000,1000,0,0,0,0,ответная передача
4.9189445,-88.8050249999998,-87.0246053552315,0,0,0,0,0,NaN,NaN,NaN,NaN,0,0,0,0,ответная передача
4.9314478,-89.2229309999998,-87.438104409021,0,0,0,0,0,NaN,NaN,NaN,NaN,0,0,0,0,ответная передача
4.9390015,-89.6418179999998,-87.8525844863285,0,0,0,0,1256,1000,1000,1000,1000,0,0,0,0,ответная передача
4.9609395,-90.0616859999998,-88.2680455888685,0,0,0,0,0,NaN,NaN,NaN,NaN,0,0,0,0,ответная передача
4.9728861,-90.4825349999998,-88.6844877182471,0,0,0,0,1257,1000,1000,1000,1000,0,0,0,0,ответная передача
4.9885223,-90.9043649999998,-89.1019108759632,0,0,0,0,0,NaN,NaN,NaN,NaN,0,0,0,0,ответная передача
5.0011982,-91.3271759999998,-89.5203150634103,0,0,0,0,0,NaN,NaN,NaN,NaN,0,0,0,0,ответная передача
5.0074196,-91.7509679999998,-89.9397002818777,0,0,0,0,1258,1000,1000,1000,1000,0,0,0,0,ответная передача
5.0207865,-92.1757409999998,-90.3600665325528,0,0,0,0,0,NaN,NaN,NaN,NaN,0,0,0,0,ответная передача
5.032856,-92.6014949999998,-90.7814138165222,0,0,0,0,0,NaN,NaN,NaN,NaN,0,0,0,0,ответная передача
5.0433708,-93.0282299999998,-91.2037421347739,0,0,0,0,1259,1000,1000,1000,1000,0,0,0,0,ответная передача
5.0565639,-93.4559459999998,-91.6270514881995,0,0,0,0,0,NaN,NaN,NaN,NaN,0,0,0,0,ответная передача
5.0691983,-93.8846429999998,-92.0513418775962,0,0,0,0,0,NaN,NaN,NaN,NaN,0,0,0,0,ответная передача
5.0807322,-94.3143209999998,-92.4766133036687,0,0,0,0,1260,1000,1000,1000,1000,0,0,0,0,ответная передача
5.0936634,-94.7449799999998,-92.9028657670321,0,0,0,0,0,NaN,NaN,NaN,NaN,0,0,0,0,ответная передача
5.1062858,-95.1766199999998,-93.3300992682134,0,0,0,0,0,NaN,NaN,NaN,NaN,0,0,0,0,ответная передача
5.1139819,-95.6092409999998,-93.7583138076546,0,0,0,0,1261,1000,1000,1000,1000,0,0,0,0,ответная передача
5.1283093,-96.0428429999998,-94.1875093857149,0,0,0,0,0,NaN,NaN,NaN,NaN,0,0,0,0,ответная передача
5.1406713,-96.4774259999999,-94.6176860026731,0,0,0,0,0,NaN,NaN,NaN,NaN,0,0,0,0,ответная передача
5.1475009,-96.9129899999999,-95.0488436587303,0,0,0,0,1262,1000,1000,1000,1000,0,0,0,0,ответная передача
5.1612918,-97.3495349999998,-95.4809823540126,0,0,0,0,0,NaN,NaN,NaN,NaN,0,0,0,0,ответная передача
5.1737355,-97.7870609999999,-95.9141020885732,0,0,0,0,0,NaN,NaN,NaN,NaN,0,0,0,0,ответная передача
5.186182,-98.2255679999999,-96.3482028623958,0,0,0,0,0,NaN,NaN,NaN,NaN,0,0,0,0,ответная передача
5.1892548,-98.6650559999999,-96.7832846753967,0,0,0,0,1263,1000,1000,1000,1000,0,0,0,0,ответная передача
5.202468,-99.1055249999999,-97.2193475274275,0,0,0,0,0,NaN,NaN,NaN,NaN,0,0,0,0,ответная передача
5.2149355,-99.5469749999999,-97.6563914182783,0,0,0,0,0,NaN,NaN,NaN,NaN,0,0,0,0,ответная передача
5.2268739,-99.9894059999999,-98.0944163476797,0,0,0,0,1264,1000,1000,1000,1000,0,0,0,0,ответная передача
5.241707,-100.432818,-98.5334223153062,0,0,0,0,0,NaN,NaN,NaN,NaN,0,0,0,0,ответная передача
5.2544007,-100.877211,-98.9734093207782,0,0,0,0,0,NaN,NaN,NaN,NaN,0,0,0,0,ответная передача
5.261127,-101.322585,-99.4143773636653,0,0,0,0,1265,1000,1000,1000,1000,0,0,0,0,ответная передача
5.2742414,-101.76894,-99.8563264434886,0,0,0,0,0,NaN,NaN,NaN,NaN,0,0,0,0,ответная передача
5.2866483,-102.216276,-100.299256559723,0,0,0,0,0,NaN,NaN,NaN,NaN,0,0,0,0,ответная передача
5.2984198,-102.664593,-100.743167711802,0,0,0,0,1266,1000,1000,1000,1000,0,0,0,0,ответная передача
5.3115704,-103.113891,-101.188059899116,0,0,0,0,0,NaN,NaN,NaN,NaN,0,0,0,0,ответная передача
5.3240598,-103.56417,-101.633933121019,0,0,0,0,0,NaN,NaN,NaN,NaN,0,0,0,0,ответная передача
5.3323543,-104.01543,-102.080787376831,0,0,0,0,1267,1000,1000,1000,1000,0,0,0,0,ответная передача
5.3457143,-104.467671,-102.528622665835,0,0,0,0,0,NaN,NaN,NaN,NaN,0,0,0,0,ответная передача
5.3583388,-104.920893,-102.977438987289,0,0,0,0,0,NaN,NaN,NaN,NaN,0,0,0,0,ответная передача
5.3686258,-105.375096,-103.427236340418,0,0,0,0,1268,1000,1000,1000,1000,0,0,0,0,ответная передача
5.3822683,-105.83028,-103.878014724425,0,0,0,0,0,NaN,NaN,NaN,NaN,0,0,0,0,ответная передача
5.394934,-106.286445,-104.329774138487,0,0,0,0,0,NaN,NaN,NaN,NaN,0,0,0,0,ответная передача
5.4078764,-106.743591,-104.782514581764,0,0,0,0,0,NaN,NaN,NaN,NaN,0,0,0,0,ответная передача
5.4203857,-107.201718,-105.236236053393,0,0,0,0,0,NaN,NaN,NaN,NaN,0,0,0,0,ответная передача
5.4339705,-107.660826,-105.690938552497,0,0,0,0,0,NaN,NaN,NaN,NaN,0,0,0,0,ответная передача
5.4442019,-108.120915,-106.146622078184,0,0,0,0,1269,1000,1000,1000,1000,0,0,0,0,ответная передача
5.4574671,-108.581985,-106.603286629551,0,0,0,0,0,NaN,NaN,NaN,NaN,0,0,0,0,ответная передача
5.4700858,-109.044036,-107.060932205681,0,0,0,0,0,NaN,NaN,NaN,NaN,0,0,0,0,ответная передача
5.4782862,-109.507068,-107.519558805654,0,0,0,0,1270,1000,1000,1000,1000,0,0,0,0,ответная передача
5.4922918,-109.971081,-107.979166428539,0,0,0,0,0,NaN,NaN,NaN,NaN,0,0,0,0,ответная передача
5.505504,-110.436075,-108.439755073404,0,0,0,0,0,NaN,NaN,NaN,NaN,0,0,0,0,ответная передача
5.5176106,-110.90205,-108.901324739312,0,0,0,0,1271,1000,1000,1000,1000,0,0,0,0,ответная передача
5.5307451,-111.369006,-109.363875425326,0,0,0,0,0,NaN,NaN,NaN,NaN,0,0,0,0,ответная передача
5.5429335,-111.836943,-109.827407130509,0,0,0,0,0,NaN,NaN,NaN,NaN,0,0,0,0,ответная передача
5.5515287,-112.305861,-110.291919853926,0,0,0,0,1272,1000,1000,1000,1000,0,0,0,0,ответная передача
5.5647268,-112.77576,-110.757413594648,0,0,0,0,0,NaN,NaN,NaN,NaN,0,0,0,0,ответная передача
5.5769358,-113.24664,-111.223888351749,0,0,0,0,0,NaN,NaN,NaN,NaN,0,0,0,0,ответная передача
5.585563,-113.718501,-111.691344124309,0,0,0,0,1273,1000,1000,1000,1000,0,0,0,0,ответная передача
5.5985688,-114.191343,-112.159780911419,0,0,0,0,0,NaN,NaN,NaN,NaN,0,0,0,0,ответная передача
5.6116811,-114.665166,-112.629198712177,0,0,0,0,0,NaN,NaN,NaN,NaN,0,0,0,0,ответная передача
5.6240418,-115.13997,-113.099597525691,0,0,0,0,0,NaN,NaN,NaN,NaN,0,0,0,0,ответная передача
5.6261968,-115.615755,-113.570977351083,0,0,0,0,1274,1000,1000,1000,1000,0,0,0,0,ответная передача
5.6394613,-116.092521,-114.043338187486,0,0,0,0,0,NaN,NaN,NaN,NaN,0,0,0,0,ответная передача
5.6527123,-116.570268,-114.516680034045,0,0,0,0,0,NaN,NaN,NaN,NaN,0,0,0,0,ответная передача
5.6599505,-117.048996,-114.991002889924,0,0,0,0,1275,1000,1000,1000,1000,0,0,0,0,ответная передача
5.6739852,-117.528705,-115.466306754299,0,0,0,0,0,NaN,NaN,NaN,NaN,0,0,0,0,ответная передача
5.6863381,-118.009395,-115.942591626364,0,0,0,0,0,NaN,NaN,NaN,NaN,0,0,0,0,ответная передача
5.6934783,-118.491066,-116.419857505329,0,0,0,0,1276,1000,1000,1000,1000,0,0,0,0,ответная передача
5.7076427,-118.973718,-116.898104390424,0,0,0,0,0,NaN,NaN,NaN,NaN,0,0,0,0,ответная передача
5.7204904,-119.457351,-117.377332280894,0,0,0,0,0,NaN,NaN,NaN,NaN,0,0,0,0,ответная передача
5.7339367,-119.941965,-117.857541176007,0,0,0,0,0,NaN,NaN,NaN,NaN,0,0,0,0,ответная передача
5.7376692,-120.42756,-118.338731075049,0,0,0,0,1277,1000,1000,1000,1000,0,0,0,0,ответная передача
5.7509061,-120.914136,-118.820901977325,0,0,0,0,0,NaN,NaN,NaN,NaN,0,0,0,0,ответная передача
5.7630875,-121.401693,-119.304053882162,0,0,0,0,0,NaN,NaN,NaN,NaN,0,0,0,0,ответная передача
5.7727198,-121.890231,-119.788186788908,0,0,0,0,1278,1000,1000,1000,1000,0,0,0,0,ответная передача
5.7860773,-122.37975,-120.273300696932,0,0,0,0,0,NaN,NaN,NaN,NaN,0,0,0,0,ответная передача
5.7987064,-122.87025,-120.759395605625,0,0,0,0,0,NaN,NaN,NaN,NaN,0,0,0,0,ответная передача
5.8060022,-123.361731,-121.246471514399,0,0,0,0,1279,1000,1000,1000,1000,0,0,0,0,ответная передача
5.8194385,-123.854193,-121.734528422689,0,0,0,0,0,NaN,NaN,NaN,NaN,0,0,0,0,ответная передача
5.8321009,-124.347636,-122.223566329952,0,0,0,0,0,NaN,NaN,NaN,NaN,0,0,0,0,ответная передача
5.8440719,-124.84206,-122.713585235666,0,0,0,0,1280,1000,1000,1000,1000,0,0,0,0,ответная передача
5.8571811,-125.337465,-123.204585139333,0,0,0,0,0,NaN,NaN,NaN,NaN,0,0,0,0,ответная передача
5.8698401,-125.833851,-123.696566040477,0,0,0,0,0,NaN,NaN,NaN,NaN,0,0,0,0,ответная передача
5.8774365,-126.331218,-124.189527938643,0,0,0,0,1281,1000,1000,1000,1000,0,0,0,0,ответная передача
5.8904505,-126.829566,-124.683470833401,0,0,0,0,0,NaN,NaN,NaN,NaN,0,0,0,0,ответная передача
5.9029671,-127.328895,-125.178394724341,0,0,0,0,0,NaN,NaN,NaN,NaN,0,0,0,0,ответная передача
5.9141659,-127.829205,-125.674299611075,0,0,0,0,1282,1000,1000,1000,1000,0,0,0,0,ответная передача
5.9275534,-128.330496,-126.171185493239,0,0,0,0,0,NaN,NaN,NaN,NaN,0,0,0,0,ответная передача
5.9404585,-128.832768,-126.669052370487,0,0,0,0,0,NaN,NaN,NaN,NaN,0,0,0,0,ответная передача
5.9530395,-129.336021,-127.167900242498,0,0,0,0,0,NaN,NaN,NaN,NaN,0,0,0,0,ответная передача
5.955581,-129.840255,-127.667729108972,0,0,0,0,1283,1000,1000,1000,1000,0,0,0,0,ответная передача
5.9686492,-130.34547,-128.168538969626,0,0,0,0,0,NaN,NaN,NaN,NaN,0,0,0,0,ответная передача
5.9816967,-130.851666,-128.670329824203,0,0,0,0,0,NaN,NaN,NaN,NaN,0,0,0,0,ответная передача
5.9893113,-131.358843,-129.173101672463,0,0,0,0,1284,1000,1000,1000,1000,0,0,0,0,ответная передача
6.0026306,-131.867001,-129.676854514187,0,0,0,0,0,NaN,NaN,NaN,NaN,0,0,0,0,ответная передача
6.0154609,-132.37614,-130.181588349174,0,0,0,0,0,NaN,NaN,NaN,NaN,0,0,0,0,ответная передача
6.0224603,-132.88626,-130.687303177246,0,0,0,0,1285,1000,1000,1000,1000,0,0,0,0,ответная передача
6.0362634,-133.397361,-131.193998998238,0,0,0,0,0,NaN,NaN,NaN,NaN,0,0,0,0,ответная передача
6.0496215,-133.909443,-131.70167581201,0,0,0,0,0,NaN,NaN,NaN,NaN,0,0,0,0,ответная передача
6.0625055,-134.422506,-132.210333618434,0,0,0,0,0,NaN,NaN,NaN,NaN,0,0,0,0,ответная передача
6.0752988,-134.93655,-132.719972417403,0,0,0,0,0,NaN,NaN,NaN,NaN,0,0,0,0,ответная передача
6.0887258,-135.451575,-133.230592208825,0,0,0,0,0,NaN,NaN,NaN,NaN,0,0,0,0,ответная передача
6.097278,-135.967581,-133.742192992627,0,0,0,0,1286,1000,1000,1000,1000,0,0,0,0,ответная передача
6.1103581,-136.484568,-134.254774768749,0,0,0,0,0,NaN,NaN,NaN,NaN,0,0,0,0,ответная передача
6.12292,-137.002536,-134.768337537148,0,0,0,0,0,NaN,NaN,NaN,NaN,0,0,0,0,ответная передача
6.1314371,-137.521485,-135.282881297796,0,0,0,0,1287,1000,1000,1000,1000,0,0,0,0,ответная передача
6.1443818,-138.041415,-135.79840605068,0,0,0,0,0,NaN,NaN,NaN,NaN,0,0,0,0,ответная передача
6.1568981,-138.562326,-136.314911795799,0,0,0,0,0,NaN,NaN,NaN,NaN,0,0,0,0,ответная передача
6.1693774,-139.084218,-136.832398533167,0,0,0,0,0,NaN,NaN,NaN,NaN,0,0,0,0,ответная передача
6.1724586,-139.607091,-137.350866262811,0,0,0,0,1288,1000,1000,1000,1000,0,0,0,0,ответная передача
6.186065,-140.130945,-137.870314984769,0,0,0,0,0,NaN,NaN,NaN,NaN,0,0,0,0,ответная передача
6.1989499,-140.65578,-138.390744699093,0,0,0,0,0,NaN,NaN,NaN,NaN,0,0,0,0,ответная передача
6.2067657,-141.181596,-138.912155405844,0,0,0,0,1289,1000,1000,1000,1000,0,0,0,0,ответная передача
6.2202371,-141.708393,-139.434547105094,0,0,0,0,0,NaN,NaN,NaN,NaN,0,0,0,0,ответная передача
6.2331776,-142.236171,-139.957919796927,0,0,0,0,0,NaN,NaN,NaN,NaN,0,0,0,0,ответная передача
6.2398852,-142.76493,-140.482273481436,0,0,0,0,1290,1000,1000,1000,1000,0,0,0,0,ответная передача
6.253205,-143.29467,-141.007608158721,0,0,0,0,0,NaN,NaN,NaN,NaN,0,0,0,0,ответная передача
6.2658245,-143.825391,-141.533923828894,0,0,0,0,0,NaN,NaN,NaN,NaN,0,0,0,0,ответная передача
6.2791211,-144.357093,-142.061220492073,0,0,0,0,0,NaN,NaN,NaN,NaN,0,0,0,0,ответная передача
6.2848703,-144.889776,-142.589498148384,0,0,0,0,1291,1000,1000,1000,1000,0,0,0,0,ответная передача
6.2984311,-145.42344,-143.11875679796,0,0,0,0,0,NaN,NaN,NaN,NaN,0,0,0,0,ответная передача
6.3111864,-145.958085,-143.648996440942,0,0,0,0,0,NaN,NaN,NaN,NaN,0,0,0,0,ответная передача
6.3191736,-146.493711,-144.180217077474,0,0,0,0,1292,1000,1000,1000,1000,0,0,0,0,ответная передача
6.3321194,-147.030318,-144.712418707709,0,0,0,0,0,NaN,NaN,NaN,NaN,0,0,0,0,ответная передача
6.344461,-147.567906,-145.245601331804,0,0,0,0,0,NaN,NaN,NaN,NaN,0,0,0,0,ответная передача
6.3558209,-148.106475,-145.779764949919,0,0,0,0,1293,1000,1000,1000,1000,0,0,0,0,ответная передача
6.3690514,-148.646025,-146.314909562221,0,0,0,0,0,NaN,NaN,NaN,NaN,0,0,0,0,ответная передача
6.3816863,-149.186556,-146.851035168879,0,0,0,0,0,NaN,NaN,NaN,NaN,0,0,0,0,ответная передача
6.3937899,-149.728068,-147.388141770065,0,0,0,0,1294,1000,1000,1000,1000,0,0,0,0,ответная передача
6.4068083,-150.270561,-147.926229365957,0,0,0,0,0,NaN,NaN,NaN,NaN,0,0,0,0,ответная передача
6.4195312,-150.814035,-148.46529795673,0,0,0,0,0,NaN,NaN,NaN,NaN,0,0,0,0,ответная передача
6.4327761,-151.35849,-149.005347542568,0,0,0,0,0,NaN,NaN,NaN,NaN,0,0,0,0,ответная передача
6.4390613,-151.903926,-149.54637812365,0,0,0,0,1295,1000,1000,1000,1000,0,0,0,0,ответная передача
6.4523343,-152.450343,-150.088389700161,0,0,0,0,0,NaN,NaN,NaN,NaN,0,0,0,0,ответная передача
6.4646427,-152.997741,-150.631382272285,0,0,0,0,0,NaN,NaN,NaN,NaN,0,0,0,0,ответная передача
6.4767876,-153.54612,-151.175355840207,0,0,0,0,1296,1000,1000,1000,1000,0,0,0,0,ответная передача
6.4902611,-154.09548,-151.720310404112,0,0,0,0,0,NaN,NaN,NaN,NaN,0,0,0,0,ответная передача
6.5027401,-154.645821,-152.266245964186,0,0,0,0,0,NaN,NaN,NaN,NaN,0,0,0,0,ответная передача
6.5098776,-155.197143,-152.813162520614,0,0,0,0,1297,1000,1000,1000,1000,0,0,0,0,ответная передача
6.5229155,-155.749446,-153.361060073579,0,0,0,0,0,NaN,NaN,NaN,NaN,0,0,0,0,ответная передача
6.5356038,-156.30273,-153.909938623265,0,0,0,0,0,NaN,NaN,NaN,NaN,0,0,0,0,ответная передача
6.5430782,-156.856995,-154.459798169854,0,0,0,0,1298,1000,1000,1000,1000,0,0,0,0,ответная передача
6.5561578,-157.412241,-155.010638713527,0,0,0,0,0,NaN,NaN,NaN,NaN,0,0,0,0,ответная передача
6.5684003,-157.968468,-155.562460254461,0,0,0,0,0,NaN,NaN,NaN,NaN,0,0,0,0,ответная передача
6.5765399,-158.525676,-156.115262792834,0,0,0,0,1299,1000,1000,1000,1000,0,0,0,0,ответная передача
6.589904,-159.083865,-156.66904632882,0,0,0,0,0,NaN,NaN,NaN,NaN,0,0,0,0,ответная передача
6.6026779,-159.643035,-157.223810862591,0,0,0,0,0,NaN,NaN,NaN,NaN,0,0,0,0,ответная передача
6.6097818,-160.203186,-157.779556394316,0,0,0,0,1300,1000,1000,1000,1000,0,0,0,0,ответная передача
6.6237986,-160.764318,-158.336282924162,0,0,0,0,0,NaN,NaN,NaN,NaN,0,0,0,0,ответная передача
6.6361097,-161.326431,-158.893990452291,0,0,0,0,0,NaN,NaN,NaN,NaN,0,0,0,0,ответная передача
6.6432443,-161.889525,-159.452678978866,0,0,0,0,1301,1000,1000,1000,1000,0,0,0,0,ответная передача
6.6563197,-162.4536,-160.012348504041,0,0,0,0,0,NaN,NaN,NaN,NaN,0,0,0,0,ответная передача
6.6689764,-163.018656,-160.57299902797,0,0,0,0,0,NaN,NaN,NaN,NaN,0,0,0,0,ответная передача
6.6766767,-163.584693,-161.134630550804,0,0,0,0,1302,1000,1000,1000,1000,0,0,0,0,ответная передача
6.6906938,-164.151711,-161.697243072688,0,0,0,0,0,NaN,NaN,NaN,NaN,0,0,0,0,ответная передача
6.7041701,-164.71971,-162.260836593764,0,0,0,0,0,NaN,NaN,NaN,NaN,0,0,0,0,ответная передача
6.7172872,-165.28869,-162.82541111417,0,0,0,0,0,NaN,NaN,NaN,NaN,0,0,0,0,ответная передача
6.7225417,-165.858651,-163.39096663404,0,0,0,0,1303,1000,1000,1000,1000,0,0,0,0,ответная передача
6.7356675,-166.429593,-163.957503153504,0,0,0,0,0,NaN,NaN,NaN,NaN,0,0,0,0,ответная передача
6.7497313,-167.001516,-164.525020672688,0,0,0,0,0,NaN,NaN,NaN,NaN,0,0,0,0,ответная передача
6.7560031,-167.57442,-165.093519191713,0,0,0,0,1304,1000,1000,1000,1000,0,0,0,0,ответная передача
6.7690713,-168.148305,-165.662998710697,0,0,0,0,0,NaN,NaN,NaN,NaN,0,0,0,0,ответная передача
6.7816061,-168.723171,-166.233459229751,0,0,0,0,0,NaN,NaN,NaN,NaN,0,0,0,0,ответная передача
6.7941257,-169.299018,-166.804900748985,0,0,0,0,0,NaN,NaN,NaN,NaN,0,0,0,0,ответная передача
6.806596,-169.875846,-167.377323268503,0,0,0,0,0,NaN,NaN,NaN,NaN,0,0,0,0,ответная передача
6.8195139,-170.453655,-167.950726788404,0,0,0,0,0,NaN,NaN,NaN,NaN,0,0,0,0,ответная передача
6.8307776,-171.032445,-168.525111308782,0,0,0,0,1305,1000,1000,1000,1000,0,0,0,0,ответная передача
6.8440142,-171.612216,-169.10047682973,0,0,0,0,0,NaN,NaN,NaN,NaN,0,0,0,0,ответная передача
6.8566211,-172.192968,-169.676823351333,0,0,0,0,0,NaN,NaN,NaN,NaN,0,0,0,0,ответная передача
6.864188,-172.774701,-170.254150873673,0,0,0,0,1306,1000,1000,1000,1000,0,0,0,0,ответная передача
6.877737,-173.357415,-170.832459396828,0,0,0,0,0,NaN,NaN,NaN,NaN,0,0,0,0,ответная передача
6.8908536,-173.94111,-171.411748920871,0,0,0,0,0,NaN,NaN,NaN,NaN,0,0,0,0,ответная передача
6.898883,-174.525786,-171.992019445871,0,0,0,0,1307,1000,1000,1000,1000,0,0,0,0,ответная передача
6.9128324,-175.111443,-172.573270971892,0,0,0,0,0,NaN,NaN,NaN,NaN,0,0,0,0,ответная передача
6.9253105,-175.698081,-173.155503498995,0,0,0,0,0,NaN,NaN,NaN,NaN,0,0,0,0,ответная передача
6.9393281,-176.2857,-173.738717027237,0,0,0,0,1308,1000,1000,1000,1000,0,0,0,0,ответная передача
6.9532982,-176.8743,-174.322911556669,0,0,0,0,0,NaN,NaN,NaN,NaN,0,0,0,0,ответная передача
6.9659655,-177.463881,-174.90808708734,0,0,0,0,0,NaN,NaN,NaN,NaN,0,0,0,0,ответная передача
6.9781569,-178.054443,-175.494243619293,0,0,0,0,0,NaN,NaN,NaN,NaN,0,0,0,0,ответная передача
6.9810864,-178.645986,-176.081381152571,0,0,0,0,1309,1000,1000,1000,1000,0,0,0,0,ответная передача
6.9949659,-179.23851,-176.669499687207,0,0,0,0,0,NaN,NaN,NaN,NaN,0,0,0,0,ответная передача
7.0073496,-179.832015,-177.258599223237,0,0,0,0,0,NaN,NaN,NaN,NaN,0,0,0,0,ответная передача
7.0144638,-180.426501,-177.848679760688,0,0,0,0,1310,1000,1000,1000,1000,0,0,0,0,ответная передача
7.028982,-181.021968,-178.439741299587,0,0,0,0,0,NaN,NaN,NaN,NaN,0,0,0,0,ответная передача
7.0414921,-181.618416,-179.031783839955,0,0,0,0,0,NaN,NaN,NaN,NaN,0,0,0,0,ответная передача
7.0483043,-182.215845,-179.624807381811,0,0,0,0,1311,1000,1000,1000,1000,0,0,0,0,ответная передача
7.061486,-182.814255,-180.218811925172,0,0,0,0,0,NaN,NaN,NaN,NaN,0,0,0,0,ответная передача
7.0737356,-183.413646,-180.813797470048,0,0,0,0,0,NaN,NaN,NaN,NaN,0,0,0,0,ответная передача
7.0848606,-184.014018,-181.409764016449,0,0,0,0,1312,1000,1000,1000,1000,0,0,0,0,ответная передача
7.0979351,-184.615371,-182.006711564382,0,0,0,0,0,NaN,NaN,NaN,NaN,0,0,0,0,ответная передача
7.1110055,-185.217705,-182.60464011385,0,0,0,0,0,NaN,NaN,NaN,NaN,0,0,0,0,ответная передача
7.1182178,-185.82102,-183.203549664853,0,0,0,0,1313,1000,1000,1000,1000,0,0,0,0,ответная передача
7.1310485,-186.425316,-183.803440217389,0,0,0,0,0,NaN,NaN,NaN,NaN,0,0,0,0,ответная передача
7.1434648,-187.030593,-184.404311771454,0,0,0,0,0,NaN,NaN,NaN,NaN,0,0,0,0,ответная передача
7.1560862,-187.636851,-185.00616432704,0,0,0,0,0,NaN,NaN,NaN,NaN,0,0,0,0,ответная передача
7.1601464,-188.24409,-185.608997884138,0,0,0,0,1314,1000,1000,1000,1000,0,0,0,0,ответная передача
7.1740493,-188.85231,-186.212812442737,0,0,0,0,0,NaN,NaN,NaN,NaN,0,0,0,0,ответная передача
7.1867346,-189.461511,-186.817608002822,0,0,0,0,0,NaN,NaN,NaN,NaN,0,0,0,0,ответная передача
7.1940816,-190.071693,-187.423384564377,0,0,0,0,1315,1000,1000,1000,1000,0,0,0,0,ответная передача
7.2075052,-190.682856,-188.030142127384,0,0,0,0,0,NaN,NaN,NaN,NaN,0,0,0,0,ответная передача
7.2198151,-191.295,-188.637880691824,0,0,0,0,0,NaN,NaN,NaN,NaN,0,0,0,0,ответная передача
7.2311503,-191.908125,-189.246600257676,0,0,0,0,1316,1000,1000,1000,1000,0,0,0,0,ответная передача
7.2442088,-192.522231,-189.856300824915,0,0,0,0,0,NaN,NaN,NaN,NaN,0,0,0,0,ответная передача
7.2567682,-193.137318,-190.466982393519,0,0,0,0,0,NaN,NaN,NaN,NaN,0,0,0,0,ответная передача
7.2673077,-193.753386,-191.078644963459,0,0,0,0,1317,1000,1000,1000,1000,0,0,0,0,ответная передача
7.2801698,-194.370435,-191.69128853471,0,0,0,0,0,NaN,NaN,NaN,NaN,0,0,0,0,ответная передача
7.2924916,-194.988465,-192.304913107243,0,0,0,0,0,NaN,NaN,NaN,NaN,0,0,0,0,ответная передача
