time_s,frame_rate_hz,frame_count,pwm_1_us,pwm_2_us,pwm_3_us,pwm_4_us,motor_1_radps,motor_2_radps,motor_3_radps,motor_4_radps,altitude_m,roll_rad,pitch_rad,yaw_rad,accel_body_x,accel_body_y,accel_body_z,received_datagram_count,valid_rx_count,json_response_tx_count,duplicate_frame_count,missed_frame_count
0.000833333333333333,1200,0,0,0,0,0,0,0,0,0,-0,0,0,0,0,0,-9.81,1,1,1,0,0
0.00166666666666667,1200,1,0,0,0,0,0,0,0,0,-0,0,0,0,0,0,-9.81,2,2,2,0,0
0.0025,1200,2,0,0,0,0,0,0,0,0,-0,0,0,0,0,0,-9.81,3,3,3,0,0
0.00333333333333333,1200,3,0,0,0,0,0,0,0,0,-0,0,0,0,0,0,-9.81,4,4,4,0,0
0.00416666666666667,1200,4,0,0,0,0,0,0,0,0,-0,0,0,0,0,0,-9.81,5,5,5,0,0
0.005,1200,5,0,0,0,0,0,0,0,0,-0,0,0,0,0,0,-9.81,6,6,6,0,0
0.00583333333333333,1200,6,0,0,0,0,0,0,0,0,-0,0,0,0,0,0,-9.81,7,7,7,0,0
0.00666666666666667,1200,7,0,0,0,0,0,0,0,0,-0,0,0,0,0,0,-9.81,8,8,8,0,0
0.0075,1200,8,0,0,0,0,0,0,0,0,-0,0,0,0,0,0,-9.81,9,9,9,0,0
0.00833333333333333,1200,9,0,0,0,0,0,0,0,0,-0,0,0,0,0,0,-9.81,10,10,10,0,0
0.00916666666666667,1200,10,0,0,0,0,0,0,0,0,-0,0,0,0,0,0,-9.81,11,11,11,0,0
0.01,1200,11,0,0,0,0,0,0,0,0,-0,0,0,0,0,0,-9.81,12,12,12,0,0
0.0108333333333333,1200,12,0,0,0,0,0,0,0,0,-0,0,0,0,0,0,-9.81,13,13,13,0,0
0.0116666666666667,1200,13,0,0,0,0,0,0,0,0,-0,0,0,0,0,0,-9.81,14,14,14,0,0
0.0125,1200,14,0,0,0,0,0,0,0,0,-0,0,0,0,0,0,-9.81,15,15,15,0,0
0.0133333333333333,1200,15,0,0,0,0,0,0,0,0,-0,0,0,0,0,0,-9.81,16,16,16,0,0
0.0141666666666667,1200,16,0,0,0,0,0,0,0,0,-0,0,0,0,0,0,-9.81,17,17,17,0,0
0.015,1200,17,0,0,0,0,0,0,0,0,-0,0,0,0,0,0,-9.81,18,18,18,0,0
0.0158333333333333,1200,18,0,0,0,0,0,0,0,0,-0,0,0,0,0,0,-9.81,19,19,19,0,0
0.0166666666666667,1200,19,0,0,0,0,0,0,0,0,-0,0,0,0,0,0,-9.81,20,20,20,0,0
0.0175,1200,20,0,0,0,0,0,0,0,0,-0,0,0,0,0,0,-9.81,21,21,21,0,0
0.0183333333333333,1200,21,0,0,0,0,0,0,0,0,-0,0,0,0,0,0,-9.81,22,22,22,0,0
0.0191666666666667,1200,22,0,0,0,0,0,0,0,0,-0,0,0,0,0,0,-9.81,23,23,23,0,0
0.02,1200,23,0,0,0,0,0,0,0,0,-0,0,0,0,0,0,-9.81,24,24,24,0,0
0.0208333333333333,1200,24,0,0,0,0,0,0,0,0,-0,0,0,0,0,0,-9.81,25,25,25,0,0
0.0216666666666667,1200,25,0,0,0,0,0,0,0,0,-0,0,0,0,0,0,-9.81,26,26,26,0,0
0.0225,1200,26,0,0,0,0,0,0,0,0,-0,0,0,0,0,0,-9.81,27,27,27,0,0
0.0233333333333333,1200,27,0,0,0,0,0,0,0,0,-0,0,0,0,0,0,-9.81,28,28,28,0,0
0.0241666666666667,1200,28,0,0,0,0,0,0,0,0,-0,0,0,0,0,0,-9.81,29,29,29,0,0
0.025,1200,29,0,0,0,0,0,0,0,0,-0,0,0,0,0,0,-9.81,30,30,30,0,0
0.0258333333333333,1200,30,0,0,0,0,0,0,0,0,-0,0,0,0,0,0,-9.81,31,31,31,0,0
0.0266666666666666,1200,31,0,0,0,0,0,0,0,0,-0,0,0,0,0,0,-9.81,32,32,32,0,0
0.0275,1200,32,0,0,0,0,0,0,0,0,-0,0,0,0,0,0,-9.81,33,33,33,0,0
0.0283333333333333,1200,33,0,0,0,0,0,0,0,0,-0,0,0,0,0,0,-9.81,34,34,34,0,0
0.0291666666666666,1200,34,0,0,0,0,0,0,0,0,-0,0,0,0,0,0,-9.81,35,35,35,0,0
0.03,1200,35,0,0,0,0,0,0,0,0,-0,0,0,0,0,0,-9.81,36,36,36,0,0
0.0308333333333333,1200,36,0,0,0,0,0,0,0,0,-0,0,0,0,0,0,-9.81,37,37,37,0,0
0.0316666666666666,1200,37,0,0,0,0,0,0,0,0,-0,0,0,0,0,0,-9.81,38,38,38,0,0
0.0325,1200,38,0,0,0,0,0,0,0,0,-0,0,0,0,0,0,-9.81,39,39,39,0,0
0.0333333333333333,1200,39,0,0,0,0,0,0,0,0,-0,0,0,0,0,0,-9.81,40,40,40,0,0
0.0341666666666666,1200,40,0,0,0,0,0,0,0,0,-0,0,0,0,0,0,-9.81,41,41,41,0,0
0.035,1200,41,0,0,0,0,0,0,0,0,-0,0,0,0,0,0,-9.81,42,42,42,0,0
0.0358333333333333,1200,42,0,0,0,0,0,0,0,0,-0,0,0,0,0,0,-9.81,43,43,43,0,0
0.0366666666666666,1200,43,0,0,0,0,0,0,0,0,-0,0,0,0,0,0,-9.81,44,44,44,0,0
0.0375,1200,44,0,0,0,0,0,0,0,0,-0,0,0,0,0,0,-9.81,45,45,45,0,0
0.0383333333333333,1200,45,0,0,0,0,0,0,0,0,-0,0,0,0,0,0,-9.81,46,46,46,0,0
0.0391666666666666,1200,46,0,0,0,0,0,0,0,0,-0,0,0,0,0,0,-9.81,47,47,47,0,0
0.04,1200,47,0,0,0,0,0,0,0,0,-0,0,0,0,0,0,-9.81,48,48,48,0,0
0.0408333333333333,1200,48,0,0,0,0,0,0,0,0,-0,0,0,0,0,0,-9.81,49,49,49,0,0
0.0416666666666666,1200,49,0,0,0,0,0,0,0,0,-0,0,0,0,0,0,-9.81,50,50,50,0,0
0.0425,1200,50,0,0,0,0,0,0,0,0,-0,0,0,0,0,0,-9.81,51,51,51,0,0
0.0433333333333333,1200,51,0,0,0,0,0,0,0,0,-0,0,0,0,0,0,-9.81,52,52,52,0,0
0.0441666666666666,1200,52,0,0,0,0,0,0,0,0,-0,0,0,0,0,0,-9.81,53,53,53,0,0
0.0449999999999999,1200,53,0,0,0,0,0,0,0,0,-0,0,0,0,0,0,-9.81,54,54,54,0,0
0.0458333333333333,1200,54,0,0,0,0,0,0,0,0,-0,0,0,0,0,0,-9.81,55,55,55,0,0
0.0466666666666666,1200,55,0,0,0,0,0,0,0,0,-0,0,0,0,0,0,-9.81,56,56,56,0,0
0.0474999999999999,1200,56,0,0,0,0,0,0,0,0,-0,0,0,0,0,0,-9.81,57,57,57,0,0
0.0483333333333333,1200,57,0,0,0,0,0,0,0,0,-0,0,0,0,0,0,-9.81,58,58,58,0,0
0.0491666666666666,1200,58,0,0,0,0,0,0,0,0,-0,0,0,0,0,0,-9.81,59,59,59,0,0
0.0499999999999999,1200,59,0,0,0,0,0,0,0,0,-0,0,0,0,0,0,-9.81,60,60,60,0,0
0.0508333333333333,1200,60,0,0,0,0,0,0,0,0,-0,0,0,0,0,0,-9.81,61,61,61,0,0
0.0516666666666666,1200,61,0,0,0,0,0,0,0,0,-0,0,0,0,0,0,-9.81,62,62,62,0,0
0.0524999999999999,1200,62,0,0,0,0,0,0,0,0,-0,0,0,0,0,0,-9.81,63,63,63,0,0
0.0533333333333333,1200,63,0,0,0,0,0,0,0,0,-0,0,0,0,0,0,-9.81,64,64,64,0,0
0.0541666666666666,1200,64,0,0,0,0,0,0,0,0,-0,0,0,0,0,0,-9.81,65,65,65,0,0
0.0549999999999999,1200,65,0,0,0,0,0,0,0,0,-0,0,0,0,0,0,-9.81,66,66,66,0,0
0.0558333333333333,1200,66,0,0,0,0,0,0,0,0,-0,0,0,0,0,0,-9.81,67,67,67,0,0
0.0566666666666666,1200,67,0,0,0,0,0,0,0,0,-0,0,0,0,0,0,-9.81,68,68,68,0,0
0.0574999999999999,1200,68,0,0,0,0,0,0,0,0,-0,0,0,0,0,0,-9.81,69,69,69,0,0
0.0583333333333333,1200,69,0,0,0,0,0,0,0,0,-0,0,0,0,0,0,-9.81,70,70,70,0,0
0.0591666666666666,1200,70,0,0,0,0,0,0,0,0,-0,0,0,0,0,0,-9.81,71,71,71,0,0
0.0599999999999999,1200,71,0,0,0,0,0,0,0,0,-0,0,0,0,0,0,-9.81,72,72,72,0,0
0.0608333333333333,1200,72,0,0,0,0,0,0,0,0,-0,0,0,0,0,0,-9.81,73,73,73,0,0
0.0616666666666666,1200,73,0,0,0,0,0,0,0,0,-0,0,0,0,0,0,-9.81,74,74,74,0,0
0.0624999999999999,1200,74,0,0,0,0,0,0,0,0,-0,0,0,0,0,0,-9.81,75,75,75,0,0
0.0633333333333333,1200,75,0,0,0,0,0,0,0,0,-0,0,0,0,0,0,-9.81,76,76,76,0,0
0.0641666666666666,1200,76,0,0,0,0,0,0,0,0,-0,0,0,0,0,0,-9.81,77,77,77,0,0
0.0649999999999999,1200,77,0,0,0,0,0,0,0,0,-0,0,0,0,0,0,-9.81,78,78,78,0,0
0.0658333333333333,1200,78,0,0,0,0,0,0,0,0,-0,0,0,0,0,0,-9.81,79,79,79,0,0
0.0666666666666666,1200,79,0,0,0,0,0,0,0,0,-0,0,0,0,0,0,-9.81,80,80,80,0,0
0.0674999999999999,1200,80,0,0,0,0,0,0,0,0,-0,0,0,0,0,0,-9.81,81,81,81,0,0
0.0683333333333333,1200,81,0,0,0,0,0,0,0,0,-0,0,0,0,0,0,-9.81,82,82,82,0,0
0.0691666666666666,1200,82,0,0,0,0,0,0,0,0,-0,0,0,0,0,0,-9.81,83,83,83,0,0
0.07,1200,83,0,0,0,0,0,0,0,0,-0,0,0,0,0,0,-9.81,84,84,84,0,0
0.0708333333333333,1200,84,0,0,0,0,0,0,0,0,-0,0,0,0,0,0,-9.81,85,85,85,0,0
0.0716666666666666,1200,85,0,0,0,0,0,0,0,0,-0,0,0,0,0,0,-9.81,86,86,86,0,0
0.0725,1200,86,0,0,0,0,0,0,0,0,-0,0,0,0,0,0,-9.81,87,87,87,0,0
0.0733333333333333,1200,87,0,0,0,0,0,0,0,0,-0,0,0,0,0,0,-9.81,88,88,88,0,0
0.0741666666666667,1200,88,0,0,0,0,0,0,0,0,-0,0,0,0,0,0,-9.81,89,89,89,0,0
0.075,1200,89,0,0,0,0,0,0,0,0,-0,0,0,0,0,0,-9.81,90,90,90,0,0
0.0758333333333333,1200,90,0,0,0,0,0,0,0,0,-0,0,0,0,0,0,-9.81,91,91,91,0,0
0.0766666666666667,1200,91,0,0,0,0,0,0,0,0,-0,0,0,0,0,0,-9.81,92,92,92,0,0
0.0775,1200,92,0,0,0,0,0,0,0,0,-0,0,0,0,0,0,-9.81,93,93,93,0,0
0.0783333333333334,1200,93,0,0,0,0,0,0,0,0,-0,0,0,0,0,0,-9.81,94,94,94,0,0
0.0791666666666667,1200,94,0,0,0,0,0,0,0,0,-0,0,0,0,0,0,-9.81,95,95,95,0,0
0.08,1200,95,0,0,0,0,0,0,0,0,-0,0,0,0,0,0,-9.81,96,96,96,0,0
0.0808333333333334,1200,96,0,0,0,0,0,0,0,0,-0,0,0,0,0,0,-9.81,97,97,97,0,0
0.0816666666666667,1200,97,0,0,0,0,0,0,0,0,-0,0,0,0,0,0,-9.81,98,98,98,0,0
0.0825,1200,98,0,0,0,0,0,0,0,0,-0,0,0,0,0,0,-9.81,99,99,99,0,0
0.0833333333333334,1200,99,0,0,0,0,0,0,0,0,-0,0,0,0,0,0,-9.81,100,100,100,0,0
0.0841666666666667,1200,100,0,0,0,0,0,0,0,0,-0,0,0,0,0,0,-9.81,101,101,101,0,0
0.0850000000000001,1200,101,0,0,0,0,0,0,0,0,-0,0,0,0,0,0,-9.81,102,102,102,0,0
0.0858333333333334,1200,102,0,0,0,0,0,0,0,0,-0,0,0,0,0,0,-9.81,103,103,103,0,0
0.0866666666666667,1200,103,0,0,0,0,0,0,0,0,-0,0,0,0,0,0,-9.81,104,104,104,0,0
0.0875000000000001,1200,104,0,0,0,0,0,0,0,0,-0,0,0,0,0,0,-9.81,105,105,105,0,0
0.0883333333333334,1200,105,0,0,0,0,0,0,0,0,-0,0,0,0,0,0,-9.81,106,106,106,0,0
0.0891666666666668,1200,106,0,0,0,0,0,0,0,0,-0,0,0,0,0,0,-9.81,107,107,107,0,0
0.0900000000000001,1200,107,0,0,0,0,0,0,0,0,-0,0,0,0,0,0,-9.81,108,108,108,0,0
0.0908333333333334,1200,108,0,0,0,0,0,0,0,0,-0,0,0,0,0,0,-9.81,109,109,109,0,0
0.0916666666666668,1200,109,0,0,0,0,0,0,0,0,-0,0,0,0,0,0,-9.81,110,110,110,0,0
0.0925000000000001,1200,110,0,0,0,0,0,0,0,0,-0,0,0,0,0,0,-9.81,111,111,111,0,0
0.0933333333333334,1200,111,0,0,0,0,0,0,0,0,-0,0,0,0,0,0,-9.81,112,112,112,0,0
0.0941666666666668,1200,112,0,0,0,0,0,0,0,0,-0,0,0,0,0,0,-9.81,113,113,113,0,0
0.0950000000000001,1200,113,0,0,0,0,0,0,0,0,-0,0,0,0,0,0,-9.81,114,114,114,0,0
0.0958333333333335,1200,114,0,0,0,0,0,0,0,0,-0,0,0,0,0,0,-9.81,115,115,115,0,0
0.0966666666666668,1200,115,0,0,0,0,0,0,0,0,-0,0,0,0,0,0,-9.81,116,116,116,0,0
0.0975000000000001,1200,116,0,0,0,0,0,0,0,0,-0,0,0,0,0,0,-9.81,117,117,117,0,0
0.0983333333333335,1200,117,0,0,0,0,0,0,0,0,-0,0,0,0,0,0,-9.81,118,118,118,0,0
0.0991666666666668,1200,118,0,0,0,0,0,0,0,0,-0,0,0,0,0,0,-9.81,119,119,119,0,0
0.1,1200,119,0,0,0,0,0,0,0,0,-0,0,0,0,0,0,-9.81,120,120,120,0,0
0.100833333333333,1200,120,0,0,0,0,0,0,0,0,-0,0,0,0,0,0,-9.81,121,121,121,0,0
0.101666666666667,1200,121,0,0,0,0,0,0,0,0,-0,0,0,0,0,0,-9.81,122,122,122,0,0
0.1025,1200,122,0,0,0,0,0,0,0,0,-0,0,0,0,0,0,-9.81,123,123,123,0,0
0.103333333333334,1200,123,0,0,0,0,0,0,0,0,-0,0,0,0,0,0,-9.81,124,124,124,0,0
0.104166666666667,1200,124,0,0,0,0,0,0,0,0,-0,0,0,0,0,0,-9.81,125,125,125,0,0
0.105,1200,125,0,0,0,0,0,0,0,0,-0,0,0,0,0,0,-9.81,126,126,126,0,0
0.105833333333334,1200,126,0,0,0,0,0,0,0,0,-0,0,0,0,0,0,-9.81,127,127,127,0,0
0.106666666666667,1200,127,0,0,0,0,0,0,0,0,-0,0,0,0,0,0,-9.81,128,128,128,0,0
0.1075,1200,128,0,0,0,0,0,0,0,0,-0,0,0,0,0,0,-9.81,129,129,129,0,0
0.108333333333334,1200,129,0,0,0,0,0,0,0,0,-0,0,0,0,0,0,-9.81,130,130,130,0,0
0.109166666666667,1200,130,0,0,0,0,0,0,0,0,-0,0,0,0,0,0,-9.81,131,131,131,0,0
0.11,1200,131,0,0,0,0,0,0,0,0,-0,0,0,0,0,0,-9.81,132,132,132,0,0
0.110833333333334,1200,132,0,0,0,0,0,0,0,0,-0,0,0,0,0,0,-9.81,133,133,133,0,0
0.111666666666667,1200,133,0,0,0,0,0,0,0,0,-0,0,0,0,0,0,-9.81,134,134,134,0,0
0.1125,1200,134,0,0,0,0,0,0,0,0,-0,0,0,0,0,0,-9.81,135,135,135,0,0
0.113333333333334,1200,135,0,0,0,0,0,0,0,0,-0,0,0,0,0,0,-9.81,136,136,136,0,0
0.114166666666667,1200,136,0,0,0,0,0,0,0,0,-0,0,0,0,0,0,-9.81,137,137,137,0,0
0.115,1200,137,0,0,0,0,0,0,0,0,-0,0,0,0,0,0,-9.81,138,138,138,0,0
0.115833333333334,1200,138,0,0,0,0,0,0,0,0,-0,0,0,0,0,0,-9.81,139,139,139,0,0
0.116666666666667,1200,139,0,0,0,0,0,0,0,0,-0,0,0,0,0,0,-9.81,140,140,140,0,0
0.1175,1200,140,0,0,0,0,0,0,0,0,-0,0,0,0,0,0,-9.81,141,141,141,0,0
0.118333333333334,1200,141,0,0,0,0,0,0,0,0,-0,0,0,0,0,0,-9.81,142,142,142,0,0
0.119166666666667,1200,142,0,0,0,0,0,0,0,0,-0,0,0,0,0,0,-9.81,143,143,143,0,0
0.12,1200,143,0,0,0,0,0,0,0,0,-0,0,0,0,0,0,-9.81,144,144,144,0,0
0.120833333333334,1200,144,0,0,0,0,0,0,0,0,-0,0,0,0,0,0,-9.81,145,145,145,0,0
0.121666666666667,1200,145,0,0,0,0,0,0,0,0,-0,0,0,0,0,0,-9.81,146,146,146,0,0
0.1225,1200,146,0,0,0,0,0,0,0,0,-0,0,0,0,0,0,-9.81,147,147,147,0,0
0.123333333333334,1200,147,0,0,0,0,0,0,0,0,-0,0,0,0,0,0,-9.81,148,148,148,0,0
0.124166666666667,1200,148,0,0,0,0,0,0,0,0,-0,0,0,0,0,0,-9.81,149,149,149,0,0
0.125,1200,149,0,0,0,0,0,0,0,0,-0,0,0,0,0,0,-9.81,150,150,150,0,0
0.125833333333334,1200,150,0,0,0,0,0,0,0,0,-0,0,0,0,0,0,-9.81,151,151,151,0,0
0.126666666666667,1200,151,0,0,0,0,0,0,0,0,-0,0,0,0,0,0,-9.81,152,152,152,0,0
0.1275,1200,152,0,0,0,0,0,0,0,0,-0,0,0,0,0,0,-9.81,153,153,153,0,0
0.128333333333334,1200,153,0,0,0,0,0,0,0,0,-0,0,0,0,0,0,-9.81,154,154,154,0,0
0.129166666666667,1200,154,0,0,0,0,0,0,0,0,-0,0,0,0,0,0,-9.81,155,155,155,0,0
0.13,1200,155,0,0,0,0,0,0,0,0,-0,0,0,0,0,0,-9.81,156,156,156,0,0
0.130833333333334,1200,156,0,0,0,0,0,0,0,0,-0,0,0,0,0,0,-9.81,157,157,157,0,0
0.131666666666667,1200,157,0,0,0,0,0,0,0,0,-0,0,0,0,0,0,-9.81,158,158,158,0,0
0.1325,1200,158,0,0,0,0,0,0,0,0,-0,0,0,0,0,0,-9.81,159,159,159,0,0
0.133333333333334,1200,159,0,0,0,0,0,0,0,0,-0,0,0,0,0,0,-9.81,160,160,160,0,0
0.134166666666667,1200,160,0,0,0,0,0,0,0,0,-0,0,0,0,0,0,-9.81,161,161,161,0,0
0.135,1200,161,0,0,0,0,0,0,0,0,-0,0,0,0,0,0,-9.81,162,162,162,0,0
0.135833333333334,1200,162,0,0,0,0,0,0,0,0,-0,0,0,0,0,0,-9.81,163,163,163,0,0
0.136666666666667,1200,163,0,0,0,0,0,0,0,0,-0,0,0,0,0,0,-9.81,164,164,164,0,0
0.1375,1200,164,0,0,0,0,0,0,0,0,-0,0,0,0,0,0,-9.81,165,165,165,0,0
0.138333333333334,1200,165,0,0,0,0,0,0,0,0,-0,0,0,0,0,0,-9.81,166,166,166,0,0
0.139166666666667,1200,166,0,0,0,0,0,0,0,0,-0,0,0,0,0,0,-9.81,167,167,167,0,0
0.14,1200,167,0,0,0,0,0,0,0,0,-0,0,0,0,0,0,-9.81,168,168,168,0,0
0.140833333333333,1200,168,0,0,0,0,0,0,0,0,-0,0,0,0,0,0,-9.81,169,169,169,0,0
0.141666666666667,1200,169,0,0,0,0,0,0,0,0,-0,0,0,0,0,0,-9.81,170,170,170,0,0
0.1425,1200,170,0,0,0,0,0,0,0,0,-0,0,0,0,0,0,-9.81,171,171,171,0,0
0.143333333333333,1200,171,0,0,0,0,0,0,0,0,-0,0,0,0,0,0,-9.81,172,172,172,0,0
0.144166666666667,1200,172,0,0,0,0,0,0,0,0,-0,0,0,0,0,0,-9.81,173,173,173,0,0
0.145,1200,173,0,0,0,0,0,0,0,0,-0,0,0,0,0,0,-9.81,174,174,174,0,0
0.145833333333333,1200,174,0,0,0,0,0,0,0,0,-0,0,0,0,0,0,-9.81,175,175,175,0,0
0.146666666666667,1200,175,0,0,0,0,0,0,0,0,-0,0,0,0,0,0,-9.81,176,176,176,0,0
0.1475,1200,176,0,0,0,0,0,0,0,0,-0,0,0,0,0,0,-9.81,177,177,177,0,0
0.148333333333333,1200,177,0,0,0,0,0,0,0,0,-0,0,0,0,0,0,-9.81,178,178,178,0,0
0.149166666666667,1200,178,0,0,0,0,0,0,0,0,-0,0,0,0,0,0,-9.81,179,179,179,0,0
0.15,1200,179,0,0,0,0,0,0,0,0,-0,0,0,0,0,0,-9.81,180,180,180,0,0
0.150833333333333,1200,180,0,0,0,0,0,0,0,0,-0,0,0,0,0,0,-9.81,181,181,181,0,0
0.151666666666667,1200,181,0,0,0,0,0,0,0,0,-0,0,0,0,0,0,-9.81,182,182,182,0,0
0.1525,1200,182,0,0,0,0,0,0,0,0,-0,0,0,0,0,0,-9.81,183,183,183,0,0
0.153333333333333,1200,183,0,0,0,0,0,0,0,0,-0,0,0,0,0,0,-9.81,184,184,184,0,0
0.154166666666667,1200,184,0,0,0,0,0,0,0,0,-0,0,0,0,0,0,-9.81,185,185,185,0,0
0.155,1200,185,0,0,0,0,0,0,0,0,-0,0,0,0,0,0,-9.81,186,186,186,0,0
0.155833333333333,1200,186,0,0,0,0,0,0,0,0,-0,0,0,0,0,0,-9.81,187,187,187,0,0
0.156666666666667,1200,187,0,0,0,0,0,0,0,0,-0,0,0,0,0,0,-9.81,188,188,188,0,0
0.1575,1200,188,0,0,0,0,0,0,0,0,-0,0,0,0,0,0,-9.81,189,189,189,0,0
0.158333333333333,1200,189,0,0,0,0,0,0,0,0,-0,0,0,0,0,0,-9.81,190,190,190,0,0
0.159166666666667,1200,190,0,0,0,0,0,0,0,0,-0,0,0,0,0,0,-9.81,191,191,191,0,0
0.16,1200,191,0,0,0,0,0,0,0,0,-0,0,0,0,0,0,-9.81,192,192,192,0,0
0.160833333333333,1200,192,0,0,0,0,0,0,0,0,-0,0,0,0,0,0,-9.81,193,193,193,0,0
0.161666666666667,1200,193,0,0,0,0,0,0,0,0,-0,0,0,0,0,0,-9.81,194,194,194,0,0
0.1625,1200,194,0,0,0,0,0,0,0,0,-0,0,0,0,0,0,-9.81,195,195,195,0,0
0.163333333333333,1200,195,0,0,0,0,0,0,0,0,-0,0,0,0,0,0,-9.81,196,196,196,0,0
0.164166666666667,1200,196,0,0,0,0,0,0,0,0,-0,0,0,0,0,0,-9.81,197,197,197,0,0
0.165,1200,197,0,0,0,0,0,0,0,0,-0,0,0,0,0,0,-9.81,198,198,198,0,0
0.165833333333333,1200,198,0,0,0,0,0,0,0,0,-0,0,0,0,0,0,-9.81,199,199,199,0,0
0.166666666666667,1200,199,0,0,0,0,0,0,0,0,-0,0,0,0,0,0,-9.81,200,200,200,0,0
0.1675,1200,200,0,0,0,0,0,0,0,0,-0,0,0,0,0,0,-9.81,201,201,201,0,0
0.168333333333333,1200,201,0,0,0,0,0,0,0,0,-0,0,0,0,0,0,-9.81,202,202,202,0,0
0.169166666666667,1200,202,0,0,0,0,0,0,0,0,-0,0,0,0,0,0,-9.81,203,203,203,0,0
0.17,1200,203,0,0,0,0,0,0,0,0,-0,0,0,0,0,0,-9.81,204,204,204,0,0
0.170833333333333,1200,204,0,0,0,0,0,0,0,0,-0,0,0,0,0,0,-9.81,205,205,205,0,0
0.171666666666666,1200,205,0,0,0,0,0,0,0,0,-0,0,0,0,0,0,-9.81,206,206,206,0,0
0.1725,1200,206,0,0,0,0,0,0,0,0,-0,0,0,0,0,0,-9.81,207,207,207,0,0
0.173333333333333,1200,207,0,0,0,0,0,0,0,0,-0,0,0,0,0,0,-9.81,208,208,208,0,0
0.174166666666666,1200,208,0,0,0,0,0,0,0,0,-0,0,0,0,0,0,-9.81,209,209,209,0,0
0.175,1200,209,0,0,0,0,0,0,0,0,-0,0,0,0,0,0,-9.81,210,210,210,0,0
0.175833333333333,1200,210,0,0,0,0,0,0,0,0,-0,0,0,0,0,0,-9.81,211,211,211,0,0
0.176666666666666,1200,211,0,0,0,0,0,0,0,0,-0,0,0,0,0,0,-9.81,212,212,212,0,0
0.1775,1200,212,0,0,0,0,0,0,0,0,-0,0,0,0,0,0,-9.81,213,213,213,0,0
0.178333333333333,1200,213,0,0,0,0,0,0,0,0,-0,0,0,0,0,0,-9.81,214,214,214,0,0
0.179166666666666,1200,214,0,0,0,0,0,0,0,0,-0,0,0,0,0,0,-9.81,215,215,215,0,0
0.18,1200,215,0,0,0,0,0,0,0,0,-0,0,0,0,0,0,-9.81,216,216,216,0,0
0.180833333333333,1200,216,0,0,0,0,0,0,0,0,-0,0,0,0,0,0,-9.81,217,217,217,0,0
0.181666666666666,1200,217,0,0,0,0,0,0,0,0,-0,0,0,0,0,0,-9.81,218,218,218,0,0
0.1825,1200,218,0,0,0,0,0,0,0,0,-0,0,0,0,0,0,-9.81,219,219,219,0,0
0.183333333333333,1200,219,0,0,0,0,0,0,0,0,-0,0,0,0,0,0,-9.81,220,220,220,0,0
0.184166666666666,1200,220,0,0,0,0,0,0,0,0,-0,0,0,0,0,0,-9.81,221,221,221,0,0
0.185,1200,221,0,0,0,0,0,0,0,0,-0,0,0,0,0,0,-9.81,222,222,222,0,0
0.185833333333333,1200,222,0,0,0,0,0,0,0,0,-0,0,0,0,0,0,-9.81,223,223,223,0,0
0.186666666666666,1200,223,0,0,0,0,0,0,0,0,-0,0,0,0,0,0,-9.81,224,224,224,0,0
0.1875,1200,224,0,0,0,0,0,0,0,0,-0,0,0,0,0,0,-9.81,225,225,225,0,0
0.188333333333333,1200,225,0,0,0,0,0,0,0,0,-0,0,0,0,0,0,-9.81,226,226,226,0,0
0.189166666666666,1200,226,0,0,0,0,0,0,0,0,-0,0,0,0,0,0,-9.81,227,227,227,0,0
0.19,1200,227,0,0,0,0,0,0,0,0,-0,0,0,0,0,0,-9.81,228,228,228,0,0
0.190833333333333,1200,228,0,0,0,0,0,0,0,0,-0,0,0,0,0,0,-9.81,229,229,229,0,0
0.191666666666666,1200,229,0,0,0,0,0,0,0,0,-0,0,0,0,0,0,-9.81,230,230,230,0,0
0.1925,1200,230,0,0,0,0,0,0,0,0,-0,0,0,0,0,0,-9.81,231,231,231,0,0
0.193333333333333,1200,231,0,0,0,0,0,0,0,0,-0,0,0,0,0,0,-9.81,232,232,232,0,0
0.194166666666666,1200,232,0,0,0,0,0,0,0,0,-0,0,0,0,0,0,-9.81,233,233,233,0,0
0.195,1200,233,0,0,0,0,0,0,0,0,-0,0,0,0,0,0,-9.81,234,234,234,0,0
0.195833333333333,1200,234,0,0,0,0,0,0,0,0,-0,0,0,0,0,0,-9.81,235,235,235,0,0
0.196666666666666,1200,235,0,0,0,0,0,0,0,0,-0,0,0,0,0,0,-9.81,236,236,236,0,0
0.1975,1200,236,0,0,0,0,0,0,0,0,-0,0,0,0,0,0,-9.81,237,237,237,0,0
0.198333333333333,1200,237,0,0,0,0,0,0,0,0,-0,0,0,0,0,0,-9.81,238,238,238,0,0
0.199166666666666,1200,238,0,0,0,0,0,0,0,0,-0,0,0,0,0,0,-9.81,239,239,239,0,0
0.2,1200,239,0,0,0,0,0,0,0,0,-0,0,0,0,0,0,-9.81,240,240,240,0,0
0.200833333333333,1200,240,0,0,0,0,0,0,0,0,-0,0,0,0,0,0,-9.81,241,241,241,0,0
0.201666666666666,1200,241,0,0,0,0,0,0,0,0,-0,0,0,0,0,0,-9.81,242,242,242,0,0
0.2025,1200,242,0,0,0,0,0,0,0,0,-0,0,0,0,0,0,-9.81,243,243,243,0,0
0.203333333333333,1200,243,0,0,0,0,0,0,0,0,-0,0,0,0,0,0,-9.81,244,244,244,0,0
0.204166666666666,1200,244,0,0,0,0,0,0,0,0,-0,0,0,0,0,0,-9.81,245,245,245,0,0
0.204999999999999,1200,245,0,0,0,0,0,0,0,0,-0,0,0,0,0,0,-9.81,246,246,246,0,0
0.205833333333333,1200,246,0,0,0,0,0,0,0,0,-0,0,0,0,0,0,-9.81,247,247,247,0,0
0.206666666666666,1200,247,0,0,0,0,0,0,0,0,-0,0,0,0,0,0,-9.81,248,248,248,0,0
0.207499999999999,1200,248,0,0,0,0,0,0,0,0,-0,0,0,0,0,0,-9.81,249,249,249,0,0
0.208333333333333,1200,249,0,0,0,0,0,0,0,0,-0,0,0,0,0,0,-9.81,250,250,250,0,0
0.209166666666666,1200,250,0,0,0,0,0,0,0,0,-0,0,0,0,0,0,-9.81,251,251,251,0,0
0.209999999999999,1200,251,0,0,0,0,0,0,0,0,-0,0,0,0,0,0,-9.81,252,252,252,0,0
0.210833333333333,1200,252,0,0,0,0,0,0,0,0,-0,0,0,0,0,0,-9.81,253,253,253,0,0
0.211666666666666,1200,253,0,0,0,0,0,0,0,0,-0,0,0,0,0,0,-9.81,254,254,254,0,0
0.212499999999999,1200,254,0,0,0,0,0,0,0,0,-0,0,0,0,0,0,-9.81,255,255,255,0,0
0.213333333333333,1200,255,0,0,0,0,0,0,0,0,-0,0,0,0,0,0,-9.81,256,256,256,0,0
0.214166666666666,1200,256,0,0,0,0,0,0,0,0,-0,0,0,0,0,0,-9.81,257,257,257,0,0
0.214999999999999,1200,257,0,0,0,0,0,0,0,0,-0,0,0,0,0,0,-9.81,258,258,258,0,0
0.215833333333333,1200,258,0,0,0,0,0,0,0,0,-0,0,0,0,0,0,-9.81,259,259,259,0,0
0.216666666666666,1200,259,0,0,0,0,0,0,0,0,-0,0,0,0,0,0,-9.81,260,260,260,0,0
0.217499999999999,1200,260,0,0,0,0,0,0,0,0,-0,0,0,0,0,0,-9.81,261,261,261,0,0
0.218333333333333,1200,261,0,0,0,0,0,0,0,0,-0,0,0,0,0,0,-9.81,262,262,262,0,0
0.219166666666666,1200,262,0,0,0,0,0,0,0,0,-0,0,0,0,0,0,-9.81,263,263,263,0,0
0.219999999999999,1200,263,0,0,0,0,0,0,0,0,-0,0,0,0,0,0,-9.81,264,264,264,0,0
0.220833333333333,1200,264,0,0,0,0,0,0,0,0,-0,0,0,0,0,0,-9.81,265,265,265,0,0
0.221666666666666,1200,265,0,0,0,0,0,0,0,0,-0,0,0,0,0,0,-9.81,266,266,266,0,0
0.222499999999999,1200,266,0,0,0,0,0,0,0,0,-0,0,0,0,0,0,-9.81,267,267,267,0,0
0.223333333333333,1200,267,0,0,0,0,0,0,0,0,-0,0,0,0,0,0,-9.81,268,268,268,0,0
0.224166666666666,1200,268,0,0,0,0,0,0,0,0,-0,0,0,0,0,0,-9.81,269,269,269,0,0
0.224999999999999,1200,269,0,0,0,0,0,0,0,0,-0,0,0,0,0,0,-9.81,270,270,270,0,0
0.225833333333333,1200,270,0,0,0,0,0,0,0,0,-0,0,0,0,0,0,-9.81,271,271,271,0,0
0.226666666666666,1200,271,0,0,0,0,0,0,0,0,-0,0,0,0,0,0,-9.81,272,272,272,0,0
0.227499999999999,1200,272,0,0,0,0,0,0,0,0,-0,0,0,0,0,0,-9.81,273,273,273,0,0
0.228333333333333,1200,273,0,0,0,0,0,0,0,0,-0,0,0,0,0,0,-9.81,274,274,274,0,0
0.229166666666666,1200,274,0,0,0,0,0,0,0,0,-0,0,0,0,0,0,-9.81,275,275,275,0,0
0.229999999999999,1200,275,0,0,0,0,0,0,0,0,-0,0,0,0,0,0,-9.81,276,276,276,0,0
0.230833333333333,1200,276,0,0,0,0,0,0,0,0,-0,0,0,0,0,0,-9.81,277,277,277,0,0
0.231666666666666,1200,277,0,0,0,0,0,0,0,0,-0,0,0,0,0,0,-9.81,278,278,278,0,0
0.232499999999999,1200,278,0,0,0,0,0,0,0,0,-0,0,0,0,0,0,-9.81,279,279,279,0,0
0.233333333333333,1200,279,0,0,0,0,0,0,0,0,-0,0,0,0,0,0,-9.81,280,280,280,0,0
0.234166666666666,1200,280,0,0,0,0,0,0,0,0,-0,0,0,0,0,0,-9.81,281,281,281,0,0
0.234999999999999,1200,281,0,0,0,0,0,0,0,0,-0,0,0,0,0,0,-9.81,282,282,282,0,0
0.235833333333333,1200,282,0,0,0,0,0,0,0,0,-0,0,0,0,0,0,-9.81,283,283,283,0,0
0.236666666666666,1200,283,0,0,0,0,0,0,0,0,-0,0,0,0,0,0,-9.81,284,284,284,0,0
0.237499999999999,1200,284,0,0,0,0,0,0,0,0,-0,0,0,0,0,0,-9.81,285,285,285,0,0
0.238333333333332,1200,285,0,0,0,0,0,0,0,0,-0,0,0,0,0,0,-9.81,286,286,286,0,0
0.239166666666666,1200,286,0,0,0,0,0,0,0,0,-0,0,0,0,0,0,-9.81,287,287,287,0,0
0.239999999999999,1200,287,0,0,0,0,0,0,0,0,-0,0,0,0,0,0,-9.81,288,288,288,0,0
0.240833333333332,1200,288,0,0,0,0,0,0,0,0,-0,0,0,0,0,0,-9.81,289,289,289,0,0
0.241666666666666,1200,289,0,0,0,0,0,0,0,0,-0,0,0,0,0,0,-9.81,290,290,290,0,0
0.242499999999999,1200,290,0,0,0,0,0,0,0,0,-0,0,0,0,0,0,-9.81,291,291,291,0,0
0.243333333333332,1200,291,0,0,0,0,0,0,0,0,-0,0,0,0,0,0,-9.81,292,292,292,0,0
0.244166666666666,1200,292,0,0,0,0,0,0,0,0,-0,0,0,0,0,0,-9.81,293,293,293,0,0
0.244999999999999,1200,293,0,0,0,0,0,0,0,0,-0,0,0,0,0,0,-9.81,294,294,294,0,0
0.245833333333332,1200,294,0,0,0,0,0,0,0,0,-0,0,0,0,0,0,-9.81,295,295,295,0,0
0.246666666666666,1200,295,0,0,0,0,0,0,0,0,-0,0,0,0,0,0,-9.81,296,296,296,0,0
0.247499999999999,1200,296,0,0,0,0,0,0,0,0,-0,0,0,0,0,0,-9.81,297,297,297,0,0
0.248333333333332,1200,297,0,0,0,0,0,0,0,0,-0,0,0,0,0,0,-9.81,298,298,298,0,0
0.249166666666666,1200,298,0,0,0,0,0,0,0,0,-0,0,0,0,0,0,-9.81,299,299,299,0,0
0.249999999999999,1200,299,0,0,0,0,0,0,0,0,-0,0,0,0,0,0,-9.81,300,300,300,0,0
0.250833333333332,1200,300,0,0,0,0,0,0,0,0,-0,0,0,0,0,0,-9.81,301,301,301,0,0
0.251666666666666,1200,301,0,0,0,0,0,0,0,0,-0,0,0,0,0,0,-9.81,302,302,302,0,0
0.252499999999999,1200,302,0,0,0,0,0,0,0,0,-0,0,0,0,0,0,-9.81,303,303,303,0,0
0.253333333333332,1200,303,0,0,0,0,0,0,0,0,-0,0,0,0,0,0,-9.81,304,304,304,0,0
0.254166666666666,1200,304,0,0,0,0,0,0,0,0,-0,0,0,0,0,0,-9.81,305,305,305,0,0
0.254999999999999,1200,305,0,0,0,0,0,0,0,0,-0,0,0,0,0,0,-9.81,306,306,306,0,0
0.255833333333332,1200,306,0,0,0,0,0,0,0,0,-0,0,0,0,0,0,-9.81,307,307,307,0,0
0.256666666666666,1200,307,0,0,0,0,0,0,0,0,-0,0,0,0,0,0,-9.81,308,308,308,0,0
0.257499999999999,1200,308,0,0,0,0,0,0,0,0,-0,0,0,0,0,0,-9.81,309,309,309,0,0
0.258333333333333,1200,309,0,0,0,0,0,0,0,0,-0,0,0,0,0,0,-9.81,310,310,310,0,0
0.259166666666666,1200,310,0,0,0,0,0,0,0,0,-0,0,0,0,0,0,-9.81,311,311,311,0,0
0.259999999999999,1200,311,0,0,0,0,0,0,0,0,-0,0,0,0,0,0,-9.81,312,312,312,0,0
0.260833333333333,1200,312,0,0,0,0,0,0,0,0,-0,0,0,0,0,0,-9.81,313,313,313,0,0
0.261666666666666,1200,313,0,0,0,0,0,0,0,0,-0,0,0,0,0,0,-9.81,314,314,314,0,0
0.262499999999999,1200,314,0,0,0,0,0,0,0,0,-0,0,0,0,0,0,-9.81,315,315,315,0,0
0.263333333333333,1200,315,0,0,0,0,0,0,0,0,-0,0,0,0,0,0,-9.81,316,316,316,0,0
0.264166666666666,1200,316,0,0,0,0,0,0,0,0,-0,0,0,0,0,0,-9.81,317,317,317,0,0
0.264999999999999,1200,317,0,0,0,0,0,0,0,0,-0,0,0,0,0,0,-9.81,318,318,318,0,0
0.265833333333333,1200,318,0,0,0,0,0,0,0,0,-0,0,0,0,0,0,-9.81,319,319,319,0,0
0.266666666666666,1200,319,0,0,0,0,0,0,0,0,-0,0,0,0,0,0,-9.81,320,320,320,0,0
0.267499999999999,1200,320,0,0,0,0,0,0,0,0,-0,0,0,0,0,0,-9.81,321,321,321,0,0
0.268333333333333,1200,321,0,0,0,0,0,0,0,0,-0,0,0,0,0,0,-9.81,322,322,322,0,0
0.269166666666666,1200,322,0,0,0,0,0,0,0,0,-0,0,0,0,0,0,-9.81,323,323,323,0,0
0.269999999999999,1200,323,0,0,0,0,0,0,0,0,-0,0,0,0,0,0,-9.81,324,324,324,0,0
0.270833333333333,1200,324,0,0,0,0,0,0,0,0,-0,0,0,0,0,0,-9.81,325,325,325,0,0
0.271666666666666,1200,325,0,0,0,0,0,0,0,0,-0,0,0,0,0,0,-9.81,326,326,326,0,0
0.2725,1200,326,0,0,0,0,0,0,0,0,-0,0,0,0,0,0,-9.81,327,327,327,0,0
0.273333333333333,1200,327,0,0,0,0,0,0,0,0,-0,0,0,0,0,0,-9.81,328,328,328,0,0
0.274166666666666,1200,328,0,0,0,0,0,0,0,0,-0,0,0,0,0,0,-9.81,329,329,329,0,0
0.275,1200,329,0,0,0,0,0,0,0,0,-0,0,0,0,0,0,-9.81,330,330,330,0,0
0.275833333333333,1200,330,0,0,0,0,0,0,0,0,-0,0,0,0,0,0,-9.81,331,331,331,0,0
0.276666666666666,1200,331,0,0,0,0,0,0,0,0,-0,0,0,0,0,0,-9.81,332,332,332,0,0
0.2775,1200,332,0,0,0,0,0,0,0,0,-0,0,0,0,0,0,-9.81,333,333,333,0,0
0.278333333333333,1200,333,0,0,0,0,0,0,0,0,-0,0,0,0,0,0,-9.81,334,334,334,0,0
0.279166666666666,1200,334,0,0,0,0,0,0,0,0,-0,0,0,0,0,0,-9.81,335,335,335,0,0
0.28,1200,335,0,0,0,0,0,0,0,0,-0,0,0,0,0,0,-9.81,336,336,336,0,0
0.280833333333333,1200,336,0,0,0,0,0,0,0,0,-0,0,0,0,0,0,-9.81,337,337,337,0,0
0.281666666666666,1200,337,0,0,0,0,0,0,0,0,-0,0,0,0,0,0,-9.81,338,338,338,0,0
0.2825,1200,338,0,0,0,0,0,0,0,0,-0,0,0,0,0,0,-9.81,339,339,339,0,0
0.283333333333333,1200,339,0,0,0,0,0,0,0,0,-0,0,0,0,0,0,-9.81,340,340,340,0,0
0.284166666666666,1200,340,0,0,0,0,0,0,0,0,-0,0,0,0,0,0,-9.81,341,341,341,0,0
0.285,1200,341,0,0,0,0,0,0,0,0,-0,0,0,0,0,0,-9.81,342,342,342,0,0
0.285833333333333,1200,342,0,0,0,0,0,0,0,0,-0,0,0,0,0,0,-9.81,343,343,343,0,0
0.286666666666667,1200,343,0,0,0,0,0,0,0,0,-0,0,0,0,0,0,-9.81,344,344,344,0,0
0.2875,1200,344,0,0,0,0,0,0,0,0,-0,0,0,0,0,0,-9.81,345,345,345,0,0
0.288333333333333,1200,345,0,0,0,0,0,0,0,0,-0,0,0,0,0,0,-9.81,346,346,346,0,0
0.289166666666667,1200,346,0,0,0,0,0,0,0,0,-0,0,0,0,0,0,-9.81,347,347,347,0,0
0.29,1200,347,0,0,0,0,0,0,0,0,-0,0,0,0,0,0,-9.81,348,348,348,0,0
0.290833333333333,1200,348,0,0,0,0,0,0,0,0,-0,0,0,0,0,0,-9.81,349,349,349,0,0
0.291666666666667,1200,349,0,0,0,0,0,0,0,0,-0,0,0,0,0,0,-9.81,350,350,350,0,0
0.2925,1200,350,0,0,0,0,0,0,0,0,-0,0,0,0,0,0,-9.81,351,351,351,0,0
0.293333333333333,1200,351,0,0,0,0,0,0,0,0,-0,0,0,0,0,0,-9.81,352,352,352,0,0
0.294166666666667,1200,352,0,0,0,0,0,0,0,0,-0,0,0,0,0,0,-9.81,353,353,353,0,0
0.295,1200,353,0,0,0,0,0,0,0,0,-0,0,0,0,0,0,-9.81,354,354,354,0,0
0.295833333333333,1200,354,0,0,0,0,0,0,0,0,-0,0,0,0,0,0,-9.81,355,355,355,0,0
0.296666666666667,1200,355,0,0,0,0,0,0,0,0,-0,0,0,0,0,0,-9.81,356,356,356,0,0
0.2975,1200,356,0,0,0,0,0,0,0,0,-0,0,0,0,0,0,-9.81,357,357,357,0,0
0.298333333333333,1200,357,0,0,0,0,0,0,0,0,-0,0,0,0,0,0,-9.81,358,358,358,0,0
0.299166666666667,1200,358,0,0,0,0,0,0,0,0,-0,0,0,0,0,0,-9.81,359,359,359,0,0
0.3,1200,359,0,0,0,0,0,0,0,0,-0,0,0,0,0,0,-9.81,360,360,360,0,0
0.300833333333334,1200,360,0,0,0,0,0,0,0,0,-0,0,0,0,0,0,-9.81,361,361,361,0,0
0.301666666666667,1200,361,0,0,0,0,0,0,0,0,-0,0,0,0,0,0,-9.81,362,362,362,0,0
0.3025,1200,362,0,0,0,0,0,0,0,0,-0,0,0,0,0,0,-9.81,363,363,363,0,0
0.303333333333334,1200,363,0,0,0,0,0,0,0,0,-0,0,0,0,0,0,-9.81,364,364,364,0,0
0.304166666666667,1200,364,0,0,0,0,0,0,0,0,-0,0,0,0,0,0,-9.81,365,365,365,0,0
0.305,1200,365,0,0,0,0,0,0,0,0,-0,0,0,0,0,0,-9.81,366,366,366,0,0
0.305833333333334,1200,366,0,0,0,0,0,0,0,0,-0,0,0,0,0,0,-9.81,367,367,367,0,0
0.306666666666667,1200,367,0,0,0,0,0,0,0,0,-0,0,0,0,0,0,-9.81,368,368,368,0,0
0.3075,1200,368,0,0,0,0,0,0,0,0,-0,0,0,0,0,0,-9.81,369,369,369,0,0
0.308333333333334,1200,369,0,0,0,0,0,0,0,0,-0,0,0,0,0,0,-9.81,370,370,370,0,0
0.309166666666667,1200,370,0,0,0,0,0,0,0,0,-0,0,0,0,0,0,-9.81,371,371,371,0,0
0.31,1200,371,0,0,0,0,0,0,0,0,-0,0,0,0,0,0,-9.81,372,372,372,0,0
0.310833333333334,1200,372,0,0,0,0,0,0,0,0,-0,0,0,0,0,0,-9.81,373,373,373,0,0
0.311666666666667,1200,373,0,0,0,0,0,0,0,0,-0,0,0,0,0,0,-9.81,374,374,374,0,0
0.3125,1200,374,0,0,0,0,0,0,0,0,-0,0,0,0,0,0,-9.81,375,375,375,0,0
0.313333333333334,1200,375,0,0,0,0,0,0,0,0,-0,0,0,0,0,0,-9.81,376,376,376,0,0
0.314166666666667,1200,376,0,0,0,0,0,0,0,0,-0,0,0,0,0,0,-9.81,377,377,377,0,0
0.315000000000001,1200,377,0,0,0,0,0,0,0,0,-0,0,0,0,0,0,-9.81,378,378,378,0,0
0.315833333333334,1200,378,0,0,0,0,0,0,0,0,-0,0,0,0,0,0,-9.81,379,379,379,0,0
0.316666666666667,1200,379,0,0,0,0,0,0,0,0,-0,0,0,0,0,0,-9.81,380,380,380,0,0
0.317500000000001,1200,380,0,0,0,0,0,0,0,0,-0,0,0,0,0,0,-9.81,381,381,381,0,0
0.318333333333334,1200,381,0,0,0,0,0,0,0,0,-0,0,0,0,0,0,-9.81,382,382,382,0,0
0.319166666666667,1200,382,0,0,0,0,0,0,0,0,-0,0,0,0,0,0,-9.81,383,383,383,0,0
0.320000000000001,1200,383,0,0,0,0,0,0,0,0,-0,0,0,0,0,0,-9.81,384,384,384,0,0
0.320833333333334,1200,384,0,0,0,0,0,0,0,0,-0,0,0,0,0,0,-9.81,385,385,385,0,0
0.321666666666667,1200,385,0,0,0,0,0,0,0,0,-0,0,0,0,0,0,-9.81,386,386,386,0,0
0.322500000000001,1200,386,0,0,0,0,0,0,0,0,-0,0,0,0,0,0,-9.81,387,387,387,0,0
0.323333333333334,1200,387,0,0,0,0,0,0,0,0,-0,0,0,0,0,0,-9.81,388,388,388,0,0
0.324166666666667,1200,388,0,0,0,0,0,0,0,0,-0,0,0,0,0,0,-9.81,389,389,389,0,0
0.325000000000001,1200,389,0,0,0,0,0,0,0,0,-0,0,0,0,0,0,-9.81,390,390,390,0,0
0.325833333333334,1200,390,0,0,0,0,0,0,0,0,-0,0,0,0,0,0,-9.81,391,391,391,0,0
0.326666666666667,1200,391,0,0,0,0,0,0,0,0,-0,0,0,0,0,0,-9.81,392,392,392,0,0
0.327500000000001,1200,392,0,0,0,0,0,0,0,0,-0,0,0,0,0,0,-9.81,393,393,393,0,0
0.328333333333334,1200,393,0,0,0,0,0,0,0,0,-0,0,0,0,0,0,-9.81,394,394,394,0,0
0.329166666666667,1200,394,0,0,0,0,0,0,0,0,-0,0,0,0,0,0,-9.81,395,395,395,0,0
0.330000000000001,1200,395,0,0,0,0,0,0,0,0,-0,0,0,0,0,0,-9.81,396,396,396,0,0
0.330833333333334,1200,396,0,0,0,0,0,0,0,0,-0,0,0,0,0,0,-9.81,397,397,397,0,0
0.331666666666668,1200,397,0,0,0,0,0,0,0,0,-0,0,0,0,0,0,-9.81,398,398,398,0,0
0.332500000000001,1200,398,0,0,0,0,0,0,0,0,-0,0,0,0,0,0,-9.81,399,399,399,0,0
0.333333333333334,1200,399,0,0,0,0,0,0,0,0,-0,0,0,0,0,0,-9.81,400,400,400,0,0
0.334166666666668,1200,400,0,0,0,0,0,0,0,0,-0,0,0,0,0,0,-9.81,401,401,401,0,0
0.335000000000001,1200,401,0,0,0,0,0,0,0,0,-0,0,0,0,0,0,-9.81,402,402,402,0,0
0.335833333333334,1200,402,0,0,0,0,0,0,0,0,-0,0,0,0,0,0,-9.81,403,403,403,0,0
0.336666666666668,1200,403,0,0,0,0,0,0,0,0,-0,0,0,0,0,0,-9.81,404,404,404,0,0
0.337500000000001,1200,404,0,0,0,0,0,0,0,0,-0,0,0,0,0,0,-9.81,405,405,405,0,0
0.338333333333334,1200,405,0,0,0,0,0,0,0,0,-0,0,0,0,0,0,-9.81,406,406,406,0,0
0.339166666666668,1200,406,0,0,0,0,0,0,0,0,-0,0,0,0,0,0,-9.81,407,407,407,0,0
0.340000000000001,1200,407,0,0,0,0,0,0,0,0,-0,0,0,0,0,0,-9.81,408,408,408,0,0
0.340833333333334,1200,408,0,0,0,0,0,0,0,0,-0,0,0,0,0,0,-9.81,409,409,409,0,0
0.341666666666668,1200,409,0,0,0,0,0,0,0,0,-0,0,0,0,0,0,-9.81,410,410,410,0,0
0.342500000000001,1200,410,0,0,0,0,0,0,0,0,-0,0,0,0,0,0,-9.81,411,411,411,0,0
0.343333333333334,1200,411,0,0,0,0,0,0,0,0,-0,0,0,0,0,0,-9.81,412,412,412,0,0
0.344166666666668,1200,412,0,0,0,0,0,0,0,0,-0,0,0,0,0,0,-9.81,413,413,413,0,0
0.345000000000001,1200,413,0,0,0,0,0,0,0,0,-0,0,0,0,0,0,-9.81,414,414,414,0,0
0.345833333333335,1200,414,0,0,0,0,0,0,0,0,-0,0,0,0,0,0,-9.81,415,415,415,0,0
0.346666666666668,1200,415,0,0,0,0,0,0,0,0,-0,0,0,0,0,0,-9.81,416,416,416,0,0
0.347500000000001,1200,416,0,0,0,0,0,0,0,0,-0,0,0,0,0,0,-9.81,417,417,417,0,0
0.348333333333335,1200,417,0,0,0,0,0,0,0,0,-0,0,0,0,0,0,-9.81,418,418,418,0,0
0.349166666666668,1200,418,0,0,0,0,0,0,0,0,-0,0,0,0,0,0,-9.81,419,419,419,0,0
0.350000000000001,1200,419,0,0,0,0,0,0,0,0,-0,0,0,0,0,0,-9.81,420,420,420,0,0
0.350833333333335,1200,420,0,0,0,0,0,0,0,0,-0,0,0,0,0,0,-9.81,421,421,421,0,0
0.351666666666668,1200,421,0,0,0,0,0,0,0,0,-0,0,0,0,0,0,-9.81,422,422,422,0,0
0.352500000000001,1200,422,0,0,0,0,0,0,0,0,-0,0,0,0,0,0,-9.81,423,423,423,0,0
0.353333333333335,1200,423,0,0,0,0,0,0,0,0,-0,0,0,0,0,0,-9.81,424,424,424,0,0
0.354166666666668,1200,424,0,0,0,0,0,0,0,0,-0,0,0,0,0,0,-9.81,425,425,425,0,0
0.355000000000001,1200,425,0,0,0,0,0,0,0,0,-0,0,0,0,0,0,-9.81,426,426,426,0,0
0.355833333333335,1200,426,0,0,0,0,0,0,0,0,-0,0,0,0,0,0,-9.81,427,427,427,0,0
0.356666666666668,1200,427,0,0,0,0,0,0,0,0,-0,0,0,0,0,0,-9.81,428,428,428,0,0
0.357500000000001,1200,428,0,0,0,0,0,0,0,0,-0,0,0,0,0,0,-9.81,429,429,429,0,0
0.358333333333335,1200,429,0,0,0,0,0,0,0,0,-0,0,0,0,0,0,-9.81,430,430,430,0,0
0.359166666666668,1200,430,0,0,0,0,0,0,0,0,-0,0,0,0,0,0,-9.81,431,431,431,0,0
0.360000000000002,1200,431,0,0,0,0,0,0,0,0,-0,0,0,0,0,0,-9.81,432,432,432,0,0
0.360833333333335,1200,432,0,0,0,0,0,0,0,0,-0,0,0,0,0,0,-9.81,433,433,433,0,0
0.361666666666668,1200,433,0,0,0,0,0,0,0,0,-0,0,0,0,0,0,-9.81,434,434,434,0,0
0.362500000000002,1200,434,0,0,0,0,0,0,0,0,-0,0,0,0,0,0,-9.81,435,435,435,0,0
0.363333333333335,1200,435,0,0,0,0,0,0,0,0,-0,0,0,0,0,0,-9.81,436,436,436,0,0
0.364166666666668,1200,436,0,0,0,0,0,0,0,0,-0,0,0,0,0,0,-9.81,437,437,437,0,0
0.365000000000002,1200,437,0,0,0,0,0,0,0,0,-0,0,0,0,0,0,-9.81,438,438,438,0,0
0.365833333333335,1200,438,0,0,0,0,0,0,0,0,-0,0,0,0,0,0,-9.81,439,439,439,0,0
0.366666666666668,1200,439,0,0,0,0,0,0,0,0,-0,0,0,0,0,0,-9.81,440,440,440,0,0
0.367500000000002,1200,440,0,0,0,0,0,0,0,0,-0,0,0,0,0,0,-9.81,441,441,441,0,0
0.368333333333335,1200,441,0,0,0,0,0,0,0,0,-0,0,0,0,0,0,-9.81,442,442,442,0,0
0.369166666666668,1200,442,0,0,0,0,0,0,0,0,-0,0,0,0,0,0,-9.81,443,443,443,0,0
0.370000000000002,1200,443,0,0,0,0,0,0,0,0,-0,0,0,0,0,0,-9.81,444,444,444,0,0
0.370833333333335,1200,444,0,0,0,0,0,0,0,0,-0,0,0,0,0,0,-9.81,445,445,445,0,0
0.371666666666668,1200,445,0,0,0,0,0,0,0,0,-0,0,0,0,0,0,-9.81,446,446,446,0,0
0.372500000000002,1200,446,0,0,0,0,0,0,0,0,-0,0,0,0,0,0,-9.81,447,447,447,0,0
0.373333333333335,1200,447,0,0,0,0,0,0,0,0,-0,0,0,0,0,0,-9.81,448,448,448,0,0
0.374166666666669,1200,448,0,0,0,0,0,0,0,0,-0,0,0,0,0,0,-9.81,449,449,449,0,0
0.375000000000002,1200,449,0,0,0,0,0,0,0,0,-0,0,0,0,0,0,-9.81,450,450,450,0,0
0.375833333333335,1200,450,0,0,0,0,0,0,0,0,-0,0,0,0,0,0,-9.81,451,451,451,0,0
0.376666666666669,1200,451,0,0,0,0,0,0,0,0,-0,0,0,0,0,0,-9.81,452,452,452,0,0
0.377500000000002,1200,452,0,0,0,0,0,0,0,0,-0,0,0,0,0,0,-9.81,453,453,453,0,0
0.378333333333335,1200,453,0,0,0,0,0,0,0,0,-0,0,0,0,0,0,-9.81,454,454,454,0,0
0.379166666666669,1200,454,0,0,0,0,0,0,0,0,-0,0,0,0,0,0,-9.81,455,455,455,0,0
0.380000000000002,1200,455,0,0,0,0,0,0,0,0,-0,0,0,0,0,0,-9.81,456,456,456,0,0
0.380833333333335,1200,456,0,0,0,0,0,0,0,0,-0,0,0,0,0,0,-9.81,457,457,457,0,0
0.381666666666669,1200,457,0,0,0,0,0,0,0,0,-0,0,0,0,0,0,-9.81,458,458,458,0,0
0.382500000000002,1200,458,0,0,0,0,0,0,0,0,-0,0,0,0,0,0,-9.81,459,459,459,0,0
0.383333333333335,1200,459,0,0,0,0,0,0,0,0,-0,0,0,0,0,0,-9.81,460,460,460,0,0
0.384166666666669,1200,460,0,0,0,0,0,0,0,0,-0,0,0,0,0,0,-9.81,461,461,461,0,0
0.385000000000002,1200,461,0,0,0,0,0,0,0,0,-0,0,0,0,0,0,-9.81,462,462,462,0,0
0.385833333333335,1200,462,0,0,0,0,0,0,0,0,-0,0,0,0,0,0,-9.81,463,463,463,0,0
0.386666666666669,1200,463,0,0,0,0,0,0,0,0,-0,0,0,0,0,0,-9.81,464,464,464,0,0
0.387500000000002,1200,464,0,0,0,0,0,0,0,0,-0,0,0,0,0,0,-9.81,465,465,465,0,0
0.388333333333336,1200,465,0,0,0,0,0,0,0,0,-0,0,0,0,0,0,-9.81,466,466,466,0,0
0.389166666666669,1200,466,0,0,0,0,0,0,0,0,-0,0,0,0,0,0,-9.81,467,467,467,0,0
0.390000000000002,1200,467,0,0,0,0,0,0,0,0,-0,0,0,0,0,0,-9.81,468,468,468,0,0
0.390833333333336,1200,468,0,0,0,0,0,0,0,0,-0,0,0,0,0,0,-9.81,469,469,469,0,0
0.391666666666669,1200,469,0,0,0,0,0,0,0,0,-0,0,0,0,0,0,-9.81,470,470,470,0,0
0.392500000000002,1200,470,0,0,0,0,0,0,0,0,-0,0,0,0,0,0,-9.81,471,471,471,0,0
0.393333333333336,1200,471,0,0,0,0,0,0,0,0,-0,0,0,0,0,0,-9.81,472,472,472,0,0
0.394166666666669,1200,472,0,0,0,0,0,0,0,0,-0,0,0,0,0,0,-9.81,473,473,473,0,0
0.395000000000002,1200,473,0,0,0,0,0,0,0,0,-0,0,0,0,0,0,-9.81,474,474,474,0,0
0.395833333333336,1200,474,0,0,0,0,0,0,0,0,-0,0,0,0,0,0,-9.81,475,475,475,0,0
0.396666666666669,1200,475,0,0,0,0,0,0,0,0,-0,0,0,0,0,0,-9.81,476,476,476,0,0
0.397500000000002,1200,476,0,0,0,0,0,0,0,0,-0,0,0,0,0,0,-9.81,477,477,477,0,0
0.398333333333336,1200,477,0,0,0,0,0,0,0,0,-0,0,0,0,0,0,-9.81,478,478,478,0,0
0.399166666666669,1200,478,0,0,0,0,0,0,0,0,-0,0,0,0,0,0,-9.81,479,479,479,0,0
0.400000000000002,1200,479,0,0,0,0,0,0,0,0,-0,0,0,0,0,0,-9.81,480,480,480,0,0
0.400833333333336,1200,480,0,0,0,0,0,0,0,0,-0,0,0,0,0,0,-9.81,481,481,481,0,0
0.401666666666669,1200,481,0,0,0,0,0,0,0,0,-0,0,0,0,0,0,-9.81,482,482,482,0,0
0.402500000000003,1200,482,0,0,0,0,0,0,0,0,-0,0,0,0,0,0,-9.81,483,483,483,0,0
0.403333333333336,1200,483,0,0,0,0,0,0,0,0,-0,0,0,0,0,0,-9.81,484,484,484,0,0
0.404166666666669,1200,484,0,0,0,0,0,0,0,0,-0,0,0,0,0,0,-9.81,485,485,485,0,0
0.405000000000003,1200,485,0,0,0,0,0,0,0,0,-0,0,0,0,0,0,-9.81,486,486,486,0,0
0.405833333333336,1200,486,0,0,0,0,0,0,0,0,-0,0,0,0,0,0,-9.81,487,487,487,0,0
0.406666666666669,1200,487,0,0,0,0,0,0,0,0,-0,0,0,0,0,0,-9.81,488,488,488,0,0
0.407500000000003,1200,488,0,0,0,0,0,0,0,0,-0,0,0,0,0,0,-9.81,489,489,489,0,0
0.408333333333336,1200,489,0,0,0,0,0,0,0,0,-0,0,0,0,0,0,-9.81,490,490,490,0,0
0.409166666666669,1200,490,0,0,0,0,0,0,0,0,-0,0,0,0,0,0,-9.81,491,491,491,0,0
0.410000000000003,1200,491,0,0,0,0,0,0,0,0,-0,0,0,0,0,0,-9.81,492,492,492,0,0
0.410833333333336,1200,492,0,0,0,0,0,0,0,0,-0,0,0,0,0,0,-9.81,493,493,493,0,0
0.411666666666669,1200,493,0,0,0,0,0,0,0,0,-0,0,0,0,0,0,-9.81,494,494,494,0,0
0.412500000000003,1200,494,0,0,0,0,0,0,0,0,-0,0,0,0,0,0,-9.81,495,495,495,0,0
0.413333333333336,1200,495,0,0,0,0,0,0,0,0,-0,0,0,0,0,0,-9.81,496,496,496,0,0
0.414166666666669,1200,496,0,0,0,0,0,0,0,0,-0,0,0,0,0,0,-9.81,497,497,497,0,0
0.415000000000003,1200,497,0,0,0,0,0,0,0,0,-0,0,0,0,0,0,-9.81,498,498,498,0,0
0.415833333333336,1200,498,0,0,0,0,0,0,0,0,-0,0,0,0,0,0,-9.81,499,499,499,0,0
0.41666666666667,1200,499,0,0,0,0,0,0,0,0,-0,0,0,0,0,0,-9.81,500,500,500,0,0
0.417500000000003,1200,500,0,0,0,0,0,0,0,0,-0,0,0,0,0,0,-9.81,501,501,501,0,0
0.418333333333336,1200,501,0,0,0,0,0,0,0,0,-0,0,0,0,0,0,-9.81,502,502,502,0,0
0.41916666666667,1200,502,0,0,0,0,0,0,0,0,-0,0,0,0,0,0,-9.81,503,503,503,0,0
0.420000000000003,1200,503,0,0,0,0,0,0,0,0,-0,0,0,0,0,0,-9.81,504,504,504,0,0
0.420833333333336,1200,504,0,0,0,0,0,0,0,0,-0,0,0,0,0,0,-9.81,505,505,505,0,0
0.42166666666667,1200,505,0,0,0,0,0,0,0,0,-0,0,0,0,0,0,-9.81,506,506,506,0,0
0.422500000000003,1200,506,0,0,0,0,0,0,0,0,-0,0,0,0,0,0,-9.81,507,507,507,0,0
0.423333333333336,1200,507,0,0,0,0,0,0,0,0,-0,0,0,0,0,0,-9.81,508,508,508,0,0
0.42416666666667,1200,508,0,0,0,0,0,0,0,0,-0,0,0,0,0,0,-9.81,509,509,509,0,0
0.425000000000003,1200,509,0,0,0,0,0,0,0,0,-0,0,0,0,0,0,-9.81,510,510,510,0,0
0.425833333333336,1200,510,0,0,0,0,0,0,0,0,-0,0,0,0,0,0,-9.81,511,511,511,0,0
0.42666666666667,1200,511,0,0,0,0,0,0,0,0,-0,0,0,0,0,0,-9.81,512,512,512,0,0
0.427500000000003,1200,512,0,0,0,0,0,0,0,0,-0,0,0,0,0,0,-9.81,513,513,513,0,0
0.428333333333336,1200,513,0,0,0,0,0,0,0,0,-0,0,0,0,0,0,-9.81,514,514,514,0,0
0.42916666666667,1200,514,0,0,0,0,0,0,0,0,-0,0,0,0,0,0,-9.81,515,515,515,0,0
0.430000000000003,1200,515,0,0,0,0,0,0,0,0,-0,0,0,0,0,0,-9.81,516,516,516,0,0
0.430833333333337,1200,516,0,0,0,0,0,0,0,0,-0,0,0,0,0,0,-9.81,517,517,517,0,0
0.43166666666667,1200,517,0,0,0,0,0,0,0,0,-0,0,0,0,0,0,-9.81,518,518,518,0,0
0.432500000000003,1200,518,0,0,0,0,0,0,0,0,-0,0,0,0,0,0,-9.81,519,519,519,0,0
0.433333333333337,1200,519,0,0,0,0,0,0,0,0,-0,0,0,0,0,0,-9.81,520,520,520,0,0
0.43416666666667,1200,520,0,0,0,0,0,0,0,0,-0,0,0,0,0,0,-9.81,521,521,521,0,0
0.435000000000003,1200,521,0,0,0,0,0,0,0,0,-0,0,0,0,0,0,-9.81,522,522,522,0,0
0.435833333333337,1200,522,0,0,0,0,0,0,0,0,-0,0,0,0,0,0,-9.81,523,523,523,0,0
0.43666666666667,1200,523,0,0,0,0,0,0,0,0,-0,0,0,0,0,0,-9.81,524,524,524,0,0
0.437500000000003,1200,524,0,0,0,0,0,0,0,0,-0,0,0,0,0,0,-9.81,525,525,525,0,0
0.438333333333337,1200,525,0,0,0,0,0,0,0,0,-0,0,0,0,0,0,-9.81,526,526,526,0,0
0.43916666666667,1200,526,0,0,0,0,0,0,0,0,-0,0,0,0,0,0,-9.81,527,527,527,0,0
0.440000000000003,1200,527,0,0,0,0,0,0,0,0,-0,0,0,0,0,0,-9.81,528,528,528,0,0
0.440833333333337,1200,528,0,0,0,0,0,0,0,0,-0,0,0,0,0,0,-9.81,529,529,529,0,0
0.44166666666667,1200,529,0,0,0,0,0,0,0,0,-0,0,0,0,0,0,-9.81,530,530,530,0,0
0.442500000000003,1200,530,0,0,0,0,0,0,0,0,-0,0,0,0,0,0,-9.81,531,531,531,0,0
0.443333333333337,1200,531,0,0,0,0,0,0,0,0,-0,0,0,0,0,0,-9.81,532,532,532,0,0
0.44416666666667,1200,532,0,0,0,0,0,0,0,0,-0,0,0,0,0,0,-9.81,533,533,533,0,0
0.445000000000004,1200,533,0,0,0,0,0,0,0,0,-0,0,0,0,0,0,-9.81,534,534,534,0,0
0.445833333333337,1200,534,0,0,0,0,0,0,0,0,-0,0,0,0,0,0,-9.81,535,535,535,0,0
0.44666666666667,1200,535,0,0,0,0,0,0,0,0,-0,0,0,0,0,0,-9.81,536,536,536,0,0
0.447500000000004,1200,536,0,0,0,0,0,0,0,0,-0,0,0,0,0,0,-9.81,537,537,537,0,0
0.448333333333337,1200,537,0,0,0,0,0,0,0,0,-0,0,0,0,0,0,-9.81,538,538,538,0,0
0.44916666666667,1200,538,0,0,0,0,0,0,0,0,-0,0,0,0,0,0,-9.81,539,539,539,0,0
0.450000000000004,1200,539,0,0,0,0,0,0,0,0,-0,0,0,0,0,0,-9.81,540,540,540,0,0
0.450833333333337,1200,540,0,0,0,0,0,0,0,0,-0,0,0,0,0,0,-9.81,541,541,541,0,0
0.45166666666667,1200,541,0,0,0,0,0,0,0,0,-0,0,0,0,0,0,-9.81,542,542,542,0,0
0.452500000000004,1200,542,0,0,0,0,0,0,0,0,-0,0,0,0,0,0,-9.81,543,543,543,0,0
0.453333333333337,1200,543,0,0,0,0,0,0,0,0,-0,0,0,0,0,0,-9.81,544,544,544,0,0
0.45416666666667,1200,544,0,0,0,0,0,0,0,0,-0,0,0,0,0,0,-9.81,545,545,545,0,0
0.455000000000004,1200,545,0,0,0,0,0,0,0,0,-0,0,0,0,0,0,-9.81,546,546,546,0,0
0.455833333333337,1200,546,0,0,0,0,0,0,0,0,-0,0,0,0,0,0,-9.81,547,547,547,0,0
0.45666666666667,1200,547,0,0,0,0,0,0,0,0,-0,0,0,0,0,0,-9.81,548,548,548,0,0
0.457500000000004,1200,548,0,0,0,0,0,0,0,0,-0,0,0,0,0,0,-9.81,549,549,549,0,0
0.458333333333337,1200,549,0,0,0,0,0,0,0,0,-0,0,0,0,0,0,-9.81,550,550,550,0,0
0.45916666666667,1200,550,0,0,0,0,0,0,0,0,-0,0,0,0,0,0,-9.81,551,551,551,0,0
0.460000000000004,1200,551,0,0,0,0,0,0,0,0,-0,0,0,0,0,0,-9.81,552,552,552,0,0
0.460833333333337,1200,552,0,0,0,0,0,0,0,0,-0,0,0,0,0,0,-9.81,553,553,553,0,0
0.461666666666671,1200,553,0,0,0,0,0,0,0,0,-0,0,0,0,0,0,-9.81,554,554,554,0,0
0.462500000000004,1200,554,0,0,0,0,0,0,0,0,-0,0,0,0,0,0,-9.81,555,555,555,0,0
0.463333333333337,1200,555,0,0,0,0,0,0,0,0,-0,0,0,0,0,0,-9.81,556,556,556,0,0
0.464166666666671,1200,556,0,0,0,0,0,0,0,0,-0,0,0,0,0,0,-9.81,557,557,557,0,0
0.465000000000004,1200,557,0,0,0,0,0,0,0,0,-0,0,0,0,0,0,-9.81,558,558,558,0,0
0.465833333333337,1200,558,0,0,0,0,0,0,0,0,-0,0,0,0,0,0,-9.81,559,559,559,0,0
0.466666666666671,1200,559,0,0,0,0,0,0,0,0,-0,0,0,0,0,0,-9.81,560,560,560,0,0
0.467500000000004,1200,560,0,0,0,0,0,0,0,0,-0,0,0,0,0,0,-9.81,561,561,561,0,0
0.468333333333337,1200,561,0,0,0,0,0,0,0,0,-0,0,0,0,0,0,-9.81,562,562,562,0,0
0.469166666666671,1200,562,0,0,0,0,0,0,0,0,-0,0,0,0,0,0,-9.81,563,563,563,0,0
0.470000000000004,1200,563,0,0,0,0,0,0,0,0,-0,0,0,0,0,0,-9.81,564,564,564,0,0
0.470833333333337,1200,564,0,0,0,0,0,0,0,0,-0,0,0,0,0,0,-9.81,565,565,565,0,0
0.471666666666671,1200,565,0,0,0,0,0,0,0,0,-0,0,0,0,0,0,-9.81,566,566,566,0,0
0.472500000000004,1200,566,0,0,0,0,0,0,0,0,-0,0,0,0,0,0,-9.81,567,567,567,0,0
0.473333333333337,1200,567,0,0,0,0,0,0,0,0,-0,0,0,0,0,0,-9.81,568,568,568,0,0
0.474166666666671,1200,568,0,0,0,0,0,0,0,0,-0,0,0,0,0,0,-9.81,569,569,569,0,0
0.475000000000004,1200,569,0,0,0,0,0,0,0,0,-0,0,0,0,0,0,-9.81,570,570,570,0,0
0.475833333333338,1200,570,0,0,0,0,0,0,0,0,-0,0,0,0,0,0,-9.81,571,571,571,0,0
0.476666666666671,1200,571,0,0,0,0,0,0,0,0,-0,0,0,0,0,0,-9.81,572,572,572,0,0
0.477500000000004,1200,572,0,0,0,0,0,0,0,0,-0,0,0,0,0,0,-9.81,573,573,573,0,0
0.478333333333338,1200,573,0,0,0,0,0,0,0,0,-0,0,0,0,0,0,-9.81,574,574,574,0,0
0.479166666666671,1200,574,0,0,0,0,0,0,0,0,-0,0,0,0,0,0,-9.81,575,575,575,0,0
0.480000000000004,1200,575,0,0,0,0,0,0,0,0,-0,0,0,0,0,0,-9.81,576,576,576,0,0
0.480833333333338,1200,576,0,0,0,0,0,0,0,0,-0,0,0,0,0,0,-9.81,577,577,577,0,0
0.481666666666671,1200,577,0,0,0,0,0,0,0,0,-0,0,0,0,0,0,-9.81,578,578,578,0,0
0.482500000000004,1200,578,0,0,0,0,0,0,0,0,-0,0,0,0,0,0,-9.81,579,579,579,0,0
0.483333333333338,1200,579,0,0,0,0,0,0,0,0,-0,0,0,0,0,0,-9.81,580,580,580,0,0
0.484166666666671,1200,580,0,0,0,0,0,0,0,0,-0,0,0,0,0,0,-9.81,581,581,581,0,0
0.485000000000004,1200,581,0,0,0,0,0,0,0,0,-0,0,0,0,0,0,-9.81,582,582,582,0,0
0.485833333333338,1200,582,0,0,0,0,0,0,0,0,-0,0,0,0,0,0,-9.81,583,583,583,0,0
0.486666666666671,1200,583,0,0,0,0,0,0,0,0,-0,0,0,0,0,0,-9.81,584,584,584,0,0
0.487500000000004,1200,584,0,0,0,0,0,0,0,0,-0,0,0,0,0,0,-9.81,585,585,585,0,0
0.488333333333338,1200,585,0,0,0,0,0,0,0,0,-0,0,0,0,0,0,-9.81,586,586,586,0,0
0.489166666666671,1200,586,0,0,0,0,0,0,0,0,-0,0,0,0,0,0,-9.81,587,587,587,0,0
0.490000000000005,1200,587,0,0,0,0,0,0,0,0,-0,0,0,0,0,0,-9.81,588,588,588,0,0
0.490833333333338,1200,588,0,0,0,0,0,0,0,0,-0,0,0,0,0,0,-9.81,589,589,589,0,0
0.491666666666671,1200,589,0,0,0,0,0,0,0,0,-0,0,0,0,0,0,-9.81,590,590,590,0,0
0.492500000000005,1200,590,0,0,0,0,0,0,0,0,-0,0,0,0,0,0,-9.81,591,591,591,0,0
0.493333333333338,1200,591,0,0,0,0,0,0,0,0,-0,0,0,0,0,0,-9.81,592,592,592,0,0
0.494166666666671,1200,592,0,0,0,0,0,0,0,0,-0,0,0,0,0,0,-9.81,593,593,593,0,0
0.495000000000005,1200,593,0,0,0,0,0,0,0,0,-0,0,0,0,0,0,-9.81,594,594,594,0,0
0.495833333333338,1200,594,0,0,0,0,0,0,0,0,-0,0,0,0,0,0,-9.81,595,595,595,0,0
0.496666666666671,1200,595,0,0,0,0,0,0,0,0,-0,0,0,0,0,0,-9.81,596,596,596,0,0
0.497500000000005,1200,596,0,0,0,0,0,0,0,0,-0,0,0,0,0,0,-9.81,597,597,597,0,0
0.498333333333338,1200,597,0,0,0,0,0,0,0,0,-0,0,0,0,0,0,-9.81,598,598,598,0,0
0.499166666666671,1200,598,0,0,0,0,0,0,0,0,-0,0,0,0,0,0,-9.81,599,599,599,0,0
0.500000000000005,1200,599,0,0,0,0,0,0,0,0,-0,0,0,0,0,0,-9.81,600,600,600,0,0
0.500833333333338,1200,600,0,0,0,0,0,0,0,0,-0,0,0,0,0,0,-9.81,601,601,601,0,0
0.501666666666671,1200,601,0,0,0,0,0,0,0,0,-0,0,0,0,0,0,-9.81,602,602,602,0,0
0.502500000000005,1200,602,0,0,0,0,0,0,0,0,-0,0,0,0,0,0,-9.81,603,603,603,0,0
0.503333333333338,1200,603,0,0,0,0,0,0,0,0,-0,0,0,0,0,0,-9.81,604,604,604,0,0
0.504166666666672,1200,604,0,0,0,0,0,0,0,0,-0,0,0,0,0,0,-9.81,605,605,605,0,0
0.505000000000005,1200,605,0,0,0,0,0,0,0,0,-0,0,0,0,0,0,-9.81,606,606,606,0,0
0.505833333333338,1200,606,0,0,0,0,0,0,0,0,-0,0,0,0,0,0,-9.81,607,607,607,0,0
0.506666666666672,1200,607,0,0,0,0,0,0,0,0,-0,0,0,0,0,0,-9.81,608,608,608,0,0
0.507500000000005,1200,608,0,0,0,0,0,0,0,0,-0,0,0,0,0,0,-9.81,609,609,609,0,0
0.508333333333338,1200,609,0,0,0,0,0,0,0,0,-0,0,0,0,0,0,-9.81,610,610,610,0,0
0.509166666666672,1200,610,0,0,0,0,0,0,0,0,-0,0,0,0,0,0,-9.81,611,611,611,0,0
0.510000000000005,1200,611,0,0,0,0,0,0,0,0,-0,0,0,0,0,0,-9.81,612,612,612,0,0
0.510833333333338,1200,612,0,0,0,0,0,0,0,0,-0,0,0,0,0,0,-9.81,613,613,613,0,0
0.511666666666672,1200,613,0,0,0,0,0,0,0,0,-0,0,0,0,0,0,-9.81,614,614,614,0,0
0.512500000000005,1200,614,0,0,0,0,0,0,0,0,-0,0,0,0,0,0,-9.81,615,615,615,0,0
0.513333333333338,1200,615,0,0,0,0,0,0,0,0,-0,0,0,0,0,0,-9.81,616,616,616,0,0
0.514166666666672,1200,616,0,0,0,0,0,0,0,0,-0,0,0,0,0,0,-9.81,617,617,617,0,0
0.515000000000005,1200,617,0,0,0,0,0,0,0,0,-0,0,0,0,0,0,-9.81,618,618,618,0,0
0.515833333333338,1200,618,0,0,0,0,0,0,0,0,-0,0,0,0,0,0,-9.81,619,619,619,0,0
0.516666666666672,1200,619,0,0,0,0,0,0,0,0,-0,0,0,0,0,0,-9.81,620,620,620,0,0
0.517500000000005,1200,620,0,0,0,0,0,0,0,0,-0,0,0,0,0,0,-9.81,621,621,621,0,0
0.518333333333339,1200,621,0,0,0,0,0,0,0,0,-0,0,0,0,0,0,-9.81,622,622,622,0,0
0.519166666666672,1200,622,0,0,0,0,0,0,0,0,-0,0,0,0,0,0,-9.81,623,623,623,0,0
0.520000000000005,1200,623,0,0,0,0,0,0,0,0,-0,0,0,0,0,0,-9.81,624,624,624,0,0
0.520833333333339,1200,624,0,0,0,0,0,0,0,0,-0,0,0,0,0,0,-9.81,625,625,625,0,0
0.521666666666672,1200,625,0,0,0,0,0,0,0,0,-0,0,0,0,0,0,-9.81,626,626,626,0,0
0.522500000000005,1200,626,0,0,0,0,0,0,0,0,-0,0,0,0,0,0,-9.81,627,627,627,0,0
0.523333333333339,1200,627,0,0,0,0,0,0,0,0,-0,0,0,0,0,0,-9.81,628,628,628,0,0
0.524166666666672,1200,628,0,0,0,0,0,0,0,0,-0,0,0,0,0,0,-9.81,629,629,629,0,0
0.525000000000005,1200,629,0,0,0,0,0,0,0,0,-0,0,0,0,0,0,-9.81,630,630,630,0,0
0.525833333333339,1200,630,0,0,0,0,0,0,0,0,-0,0,0,0,0,0,-9.81,631,631,631,0,0
0.526666666666672,1200,631,0,0,0,0,0,0,0,0,-0,0,0,0,0,0,-9.81,632,632,632,0,0
0.527500000000005,1200,632,0,0,0,0,0,0,0,0,-0,0,0,0,0,0,-9.81,633,633,633,0,0
0.528333333333339,1200,633,0,0,0,0,0,0,0,0,-0,0,0,0,0,0,-9.81,634,634,634,0,0
0.529166666666672,1200,634,0,0,0,0,0,0,0,0,-0,0,0,0,0,0,-9.81,635,635,635,0,0
0.530000000000005,1200,635,0,0,0,0,0,0,0,0,-0,0,0,0,0,0,-9.81,636,636,636,0,0
0.530833333333339,1200,636,0,0,0,0,0,0,0,0,-0,0,0,0,0,0,-9.81,637,637,637,0,0
0.531666666666672,1200,637,0,0,0,0,0,0,0,0,-0,0,0,0,0,0,-9.81,638,638,638,0,0
0.532500000000006,1200,638,0,0,0,0,0,0,0,0,-0,0,0,0,0,0,-9.81,639,639,639,0,0
0.533333333333339,1200,639,0,0,0,0,0,0,0,0,-0,0,0,0,0,0,-9.81,640,640,640,0,0
0.534166666666672,1200,640,0,0,0,0,0,0,0,0,-0,0,0,0,0,0,-9.81,641,641,641,0,0
0.535000000000006,1200,641,0,0,0,0,0,0,0,0,-0,0,0,0,0,0,-9.81,642,642,642,0,0
0.535833333333339,1200,642,0,0,0,0,0,0,0,0,-0,0,0,0,0,0,-9.81,643,643,643,0,0
0.536666666666672,1200,643,0,0,0,0,0,0,0,0,-0,0,0,0,0,0,-9.81,644,644,644,0,0
0.537500000000006,1200,644,0,0,0,0,0,0,0,0,-0,0,0,0,0,0,-9.81,645,645,645,0,0
0.538333333333339,1200,645,0,0,0,0,0,0,0,0,-0,0,0,0,0,0,-9.81,646,646,646,0,0
0.539166666666672,1200,646,0,0,0,0,0,0,0,0,-0,0,0,0,0,0,-9.81,647,647,647,0,0
0.540000000000006,1200,647,0,0,0,0,0,0,0,0,-0,0,0,0,0,0,-9.81,648,648,648,0,0
0.540833333333339,1200,648,0,0,0,0,0,0,0,0,-0,0,0,0,0,0,-9.81,649,649,649,0,0
0.541666666666672,1200,649,0,0,0,0,0,0,0,0,-0,0,0,0,0,0,-9.81,650,650,650,0,0
0.542500000000006,1200,650,0,0,0,0,0,0,0,0,-0,0,0,0,0,0,-9.81,651,651,651,0,0
0.543333333333339,1200,651,0,0,0,0,0,0,0,0,-0,0,0,0,0,0,-9.81,652,652,652,0,0
0.544166666666672,1200,652,0,0,0,0,0,0,0,0,-0,0,0,0,0,0,-9.81,653,653,653,0,0
0.545000000000006,1200,653,0,0,0,0,0,0,0,0,-0,0,0,0,0,0,-9.81,654,654,654,0,0
0.545833333333339,1200,654,0,0,0,0,0,0,0,0,-0,0,0,0,0,0,-9.81,655,655,655,0,0
0.546666666666673,1200,655,0,0,0,0,0,0,0,0,-0,0,0,0,0,0,-9.81,656,656,656,0,0
0.547500000000006,1200,656,0,0,0,0,0,0,0,0,-0,0,0,0,0,0,-9.81,657,657,657,0,0
0.548333333333339,1200,657,0,0,0,0,0,0,0,0,-0,0,0,0,0,0,-9.81,658,658,658,0,0
0.549166666666673,1200,658,0,0,0,0,0,0,0,0,-0,0,0,0,0,0,-9.81,659,659,659,0,0
0.550000000000006,1200,659,0,0,0,0,0,0,0,0,-0,0,0,0,0,0,-9.81,660,660,660,0,0
0.550833333333339,1200,660,0,0,0,0,0,0,0,0,-0,0,0,0,0,0,-9.81,661,661,661,0,0
0.551666666666673,1200,661,0,0,0,0,0,0,0,0,-0,0,0,0,0,0,-9.81,662,662,662,0,0
0.552500000000006,1200,662,0,0,0,0,0,0,0,0,-0,0,0,0,0,0,-9.81,663,663,663,0,0
0.553333333333339,1200,663,0,0,0,0,0,0,0,0,-0,0,0,0,0,0,-9.81,664,664,664,0,0
0.554166666666673,1200,664,0,0,0,0,0,0,0,0,-0,0,0,0,0,0,-9.81,665,665,665,0,0
0.555000000000006,1200,665,0,0,0,0,0,0,0,0,-0,0,0,0,0,0,-9.81,666,666,666,0,0
0.555833333333339,1200,666,0,0,0,0,0,0,0,0,-0,0,0,0,0,0,-9.81,667,667,667,0,0
0.556666666666673,1200,667,0,0,0,0,0,0,0,0,-0,0,0,0,0,0,-9.81,668,668,668,0,0
0.557500000000006,1200,668,0,0,0,0,0,0,0,0,-0,0,0,0,0,0,-9.81,669,669,669,0,0
0.558333333333339,1200,669,0,0,0,0,0,0,0,0,-0,0,0,0,0,0,-9.81,670,670,670,0,0
0.559166666666673,1200,670,0,0,0,0,0,0,0,0,-0,0,0,0,0,0,-9.81,671,671,671,0,0
0.560000000000006,1200,671,0,0,0,0,0,0,0,0,-0,0,0,0,0,0,-9.81,672,672,672,0,0
0.56083333333334,1200,672,0,0,0,0,0,0,0,0,-0,0,0,0,0,0,-9.81,673,673,673,0,0
0.561666666666673,1200,673,0,0,0,0,0,0,0,0,-0,0,0,0,0,0,-9.81,674,674,674,0,0
0.562500000000006,1200,674,0,0,0,0,0,0,0,0,-0,0,0,0,0,0,-9.81,675,675,675,0,0
0.56333333333334,1200,675,0,0,0,0,0,0,0,0,-0,0,0,0,0,0,-9.81,676,676,676,0,0
0.564166666666673,1200,676,0,0,0,0,0,0,0,0,-0,0,0,0,0,0,-9.81,677,677,677,0,0
0.565000000000006,1200,677,0,0,0,0,0,0,0,0,-0,0,0,0,0,0,-9.81,678,678,678,0,0
0.56583333333334,1200,678,0,0,0,0,0,0,0,0,-0,0,0,0,0,0,-9.81,679,679,679,0,0
0.566666666666673,1200,679,0,0,0,0,0,0,0,0,-0,0,0,0,0,0,-9.81,680,680,680,0,0
0.567500000000006,1200,680,0,0,0,0,0,0,0,0,-0,0,0,0,0,0,-9.81,681,681,681,0,0
0.56833333333334,1200,681,0,0,0,0,0,0,0,0,-0,0,0,0,0,0,-9.81,682,682,682,0,0
0.569166666666673,1200,682,0,0,0,0,0,0,0,0,-0,0,0,0,0,0,-9.81,683,683,683,0,0
0.570000000000006,1200,683,0,0,0,0,0,0,0,0,-0,0,0,0,0,0,-9.81,684,684,684,0,0
0.57083333333334,1200,684,0,0,0,0,0,0,0,0,-0,0,0,0,0,0,-9.81,685,685,685,0,0
0.571666666666673,1200,685,0,0,0,0,0,0,0,0,-0,0,0,0,0,0,-9.81,686,686,686,0,0
0.572500000000006,1200,686,0,0,0,0,0,0,0,0,-0,0,0,0,0,0,-9.81,687,687,687,0,0
0.57333333333334,1200,687,0,0,0,0,0,0,0,0,-0,0,0,0,0,0,-9.81,688,688,688,0,0
0.574166666666673,1200,688,0,0,0,0,0,0,0,0,-0,0,0,0,0,0,-9.81,689,689,689,0,0
0.575000000000007,1200,689,0,0,0,0,0,0,0,0,-0,0,0,0,0,0,-9.81,690,690,690,0,0
0.57583333333334,1200,690,0,0,0,0,0,0,0,0,-0,0,0,0,0,0,-9.81,691,691,691,0,0
0.576666666666673,1200,691,0,0,0,0,0,0,0,0,-0,0,0,0,0,0,-9.81,692,692,692,0,0
0.577500000000007,1200,692,0,0,0,0,0,0,0,0,-0,0,0,0,0,0,-9.81,693,693,693,0,0
0.57833333333334,1200,693,0,0,0,0,0,0,0,0,-0,0,0,0,0,0,-9.81,694,694,694,0,0
0.579166666666673,1200,694,0,0,0,0,0,0,0,0,-0,0,0,0,0,0,-9.81,695,695,695,0,0
0.580000000000007,1200,695,0,0,0,0,0,0,0,0,-0,0,0,0,0,0,-9.81,696,696,696,0,0
0.58083333333334,1200,696,0,0,0,0,0,0,0,0,-0,0,0,0,0,0,-9.81,697,697,697,0,0
0.581666666666673,1200,697,0,0,0,0,0,0,0,0,-0,0,0,0,0,0,-9.81,698,698,698,0,0
0.582500000000007,1200,698,0,0,0,0,0,0,0,0,-0,0,0,0,0,0,-9.81,699,699,699,0,0
0.58333333333334,1200,699,0,0,0,0,0,0,0,0,-0,0,0,0,0,0,-9.81,700,700,700,0,0
0.584166666666673,1200,700,0,0,0,0,0,0,0,0,-0,0,0,0,0,0,-9.81,701,701,701,0,0
0.585000000000007,1200,701,0,0,0,0,0,0,0,0,-0,0,0,0,0,0,-9.81,702,702,702,0,0
0.58583333333334,1200,702,0,0,0,0,0,0,0,0,-0,0,0,0,0,0,-9.81,703,703,703,0,0
0.586666666666673,1200,703,0,0,0,0,0,0,0,0,-0,0,0,0,0,0,-9.81,704,704,704,0,0
0.587500000000007,1200,704,0,0,0,0,0,0,0,0,-0,0,0,0,0,0,-9.81,705,705,705,0,0
0.58833333333334,1200,705,0,0,0,0,0,0,0,0,-0,0,0,0,0,0,-9.81,706,706,706,0,0
0.589166666666673,1200,706,0,0,0,0,0,0,0,0,-0,0,0,0,0,0,-9.81,707,707,707,0,0
0.590000000000007,1200,707,0,0,0,0,0,0,0,0,-0,0,0,0,0,0,-9.81,708,708,708,0,0
0.59083333333334,1200,708,0,0,0,0,0,0,0,0,-0,0,0,0,0,0,-9.81,709,709,709,0,0
0.591666666666674,1200,709,0,0,0,0,0,0,0,0,-0,0,0,0,0,0,-9.81,710,710,710,0,0
0.592500000000007,1200,710,0,0,0,0,0,0,0,0,-0,0,0,0,0,0,-9.81,711,711,711,0,0
0.59333333333334,1200,711,0,0,0,0,0,0,0,0,-0,0,0,0,0,0,-9.81,712,712,712,0,0
0.594166666666674,1200,712,0,0,0,0,0,0,0,0,-0,0,0,0,0,0,-9.81,713,713,713,0,0
0.595000000000007,1200,713,0,0,0,0,0,0,0,0,-0,0,0,0,0,0,-9.81,714,714,714,0,0
0.59583333333334,1200,714,0,0,0,0,0,0,0,0,-0,0,0,0,0,0,-9.81,715,715,715,0,0
0.596666666666674,1200,715,0,0,0,0,0,0,0,0,-0,0,0,0,0,0,-9.81,716,716,716,0,0
0.597500000000007,1200,716,0,0,0,0,0,0,0,0,-0,0,0,0,0,0,-9.81,717,717,717,0,0
0.59833333333334,1200,717,0,0,0,0,0,0,0,0,-0,0,0,0,0,0,-9.81,718,718,718,0,0
0.599166666666674,1200,718,0,0,0,0,0,0,0,0,-0,0,0,0,0,0,-9.81,719,719,719,0,0
0.600000000000007,1200,719,0,0,0,0,0,0,0,0,-0,0,0,0,0,0,-9.81,720,720,720,0,0
0.60083333333334,1200,720,0,0,0,0,0,0,0,0,-0,0,0,0,0,0,-9.81,721,721,721,0,0
0.601666666666674,1200,721,0,0,0,0,0,0,0,0,-0,0,0,0,0,0,-9.81,722,722,722,0,0
0.602500000000007,1200,722,0,0,0,0,0,0,0,0,-0,0,0,0,0,0,-9.81,723,723,723,0,0
0.60333333333334,1200,723,0,0,0,0,0,0,0,0,-0,0,0,0,0,0,-9.81,724,724,724,0,0
0.604166666666674,1200,724,0,0,0,0,0,0,0,0,-0,0,0,0,0,0,-9.81,725,725,725,0,0
0.605000000000007,1200,725,0,0,0,0,0,0,0,0,-0,0,0,0,0,0,-9.81,726,726,726,0,0
0.605833333333341,1200,726,0,0,0,0,0,0,0,0,-0,0,0,0,0,0,-9.81,727,727,727,0,0
0.606666666666674,1200,727,0,0,0,0,0,0,0,0,-0,0,0,0,0,0,-9.81,728,728,728,0,0
0.607500000000007,1200,728,0,0,0,0,0,0,0,0,-0,0,0,0,0,0,-9.81,729,729,729,0,0
0.608333333333341,1200,729,0,0,0,0,0,0,0,0,-0,0,0,0,0,0,-9.81,730,730,730,0,0
0.609166666666674,1200,730,0,0,0,0,0,0,0,0,-0,0,0,0,0,0,-9.81,731,731,731,0,0
0.610000000000007,1200,731,0,0,0,0,0,0,0,0,-0,0,0,0,0,0,-9.81,732,732,732,0,0
0.610833333333341,1200,732,0,0,0,0,0,0,0,0,-0,0,0,0,0,0,-9.81,733,733,733,0,0
0.611666666666674,1200,733,0,0,0,0,0,0,0,0,-0,0,0,0,0,0,-9.81,734,734,734,0,0
0.612500000000007,1200,734,0,0,0,0,0,0,0,0,-0,0,0,0,0,0,-9.81,735,735,735,0,0
0.613333333333341,1200,735,0,0,0,0,0,0,0,0,-0,0,0,0,0,0,-9.81,736,736,736,0,0
0.614166666666674,1200,736,0,0,0,0,0,0,0,0,-0,0,0,0,0,0,-9.81,737,737,737,0,0
0.615000000000007,1200,737,0,0,0,0,0,0,0,0,-0,0,0,0,0,0,-9.81,738,738,738,0,0
0.615833333333341,1200,738,0,0,0,0,0,0,0,0,-0,0,0,0,0,0,-9.81,739,739,739,0,0
0.616666666666674,1200,739,0,0,0,0,0,0,0,0,-0,0,0,0,0,0,-9.81,740,740,740,0,0
0.617500000000007,1200,740,0,0,0,0,0,0,0,0,-0,0,0,0,0,0,-9.81,741,741,741,0,0
0.618333333333341,1200,741,0,0,0,0,0,0,0,0,-0,0,0,0,0,0,-9.81,742,742,742,0,0
0.619166666666674,1200,742,0,0,0,0,0,0,0,0,-0,0,0,0,0,0,-9.81,743,743,743,0,0
0.620000000000008,1200,743,0,0,0,0,0,0,0,0,-0,0,0,0,0,0,-9.81,744,744,744,0,0
0.620833333333341,1200,744,0,0,0,0,0,0,0,0,-0,0,0,0,0,0,-9.81,745,745,745,0,0
0.621666666666674,1200,745,0,0,0,0,0,0,0,0,-0,0,0,0,0,0,-9.81,746,746,746,0,0
0.622500000000008,1200,746,0,0,0,0,0,0,0,0,-0,0,0,0,0,0,-9.81,747,747,747,0,0
0.623333333333341,1200,747,0,0,0,0,0,0,0,0,-0,0,0,0,0,0,-9.81,748,748,748,0,0
0.624166666666674,1200,748,0,0,0,0,0,0,0,0,-0,0,0,0,0,0,-9.81,749,749,749,0,0
0.625000000000008,1200,749,0,0,0,0,0,0,0,0,-0,0,0,0,0,0,-9.81,750,750,750,0,0
0.625833333333341,1200,750,0,0,0,0,0,0,0,0,-0,0,0,0,0,0,-9.81,751,751,751,0,0
0.626666666666674,1200,751,0,0,0,0,0,0,0,0,-0,0,0,0,0,0,-9.81,752,752,752,0,0
0.627500000000008,1200,752,0,0,0,0,0,0,0,0,-0,0,0,0,0,0,-9.81,753,753,753,0,0
0.628333333333341,1200,753,0,0,0,0,0,0,0,0,-0,0,0,0,0,0,-9.81,754,754,754,0,0
0.629166666666674,1200,754,0,0,0,0,0,0,0,0,-0,0,0,0,0,0,-9.81,755,755,755,0,0
0.630000000000008,1200,755,0,0,0,0,0,0,0,0,-0,0,0,0,0,0,-9.81,756,756,756,0,0
0.630833333333341,1200,756,0,0,0,0,0,0,0,0,-0,0,0,0,0,0,-9.81,757,757,757,0,0
0.631666666666674,1200,757,0,0,0,0,0,0,0,0,-0,0,0,0,0,0,-9.81,758,758,758,0,0
0.632500000000008,1200,758,0,0,0,0,0,0,0,0,-0,0,0,0,0,0,-9.81,759,759,759,0,0
0.633333333333341,1200,759,0,0,0,0,0,0,0,0,-0,0,0,0,0,0,-9.81,760,760,760,0,0
0.634166666666675,1200,760,0,0,0,0,0,0,0,0,-0,0,0,0,0,0,-9.81,761,761,761,0,0
0.635000000000008,1200,761,0,0,0,0,0,0,0,0,-0,0,0,0,0,0,-9.81,762,762,762,0,0
0.635833333333341,1200,762,0,0,0,0,0,0,0,0,-0,0,0,0,0,0,-9.81,763,763,763,0,0
0.636666666666675,1200,763,0,0,0,0,0,0,0,0,-0,0,0,0,0,0,-9.81,764,764,764,0,0
0.637500000000008,1200,764,0,0,0,0,0,0,0,0,-0,0,0,0,0,0,-9.81,765,765,765,0,0
0.638333333333341,1200,765,0,0,0,0,0,0,0,0,-0,0,0,0,0,0,-9.81,766,766,766,0,0
0.639166666666675,1200,766,0,0,0,0,0,0,0,0,-0,0,0,0,0,0,-9.81,767,767,767,0,0
0.640000000000008,1200,767,0,0,0,0,0,0,0,0,-0,0,0,0,0,0,-9.81,768,768,768,0,0
0.640833333333341,1200,768,0,0,0,0,0,0,0,0,-0,0,0,0,0,0,-9.81,769,769,769,0,0
0.641666666666675,1200,769,0,0,0,0,0,0,0,0,-0,0,0,0,0,0,-9.81,770,770,770,0,0
0.642500000000008,1200,770,0,0,0,0,0,0,0,0,-0,0,0,0,0,0,-9.81,771,771,771,0,0
0.643333333333341,1200,771,0,0,0,0,0,0,0,0,-0,0,0,0,0,0,-9.81,772,772,772,0,0
0.644166666666675,1200,772,0,0,0,0,0,0,0,0,-0,0,0,0,0,0,-9.81,773,773,773,0,0
0.645000000000008,1200,773,0,0,0,0,0,0,0,0,-0,0,0,0,0,0,-9.81,774,774,774,0,0
0.645833333333341,1200,774,0,0,0,0,0,0,0,0,-0,0,0,0,0,0,-9.81,775,775,775,0,0
0.646666666666675,1200,775,0,0,0,0,0,0,0,0,-0,0,0,0,0,0,-9.81,776,776,776,0,0
0.647500000000008,1200,776,0,0,0,0,0,0,0,0,-0,0,0,0,0,0,-9.81,777,777,777,0,0
0.648333333333342,1200,777,0,0,0,0,0,0,0,0,-0,0,0,0,0,0,-9.81,778,778,778,0,0
0.649166666666675,1200,778,0,0,0,0,0,0,0,0,-0,0,0,0,0,0,-9.81,779,779,779,0,0
0.650000000000008,1200,779,0,0,0,0,0,0,0,0,-0,0,0,0,0,0,-9.81,780,780,780,0,0
0.650833333333342,1200,780,0,0,0,0,0,0,0,0,-0,0,0,0,0,0,-9.81,781,781,781,0,0
0.651666666666675,1200,781,0,0,0,0,0,0,0,0,-0,0,0,0,0,0,-9.81,782,782,782,0,0
