time_s,frame_count,sitl_packet_valid,pwm1_us,pwm2_us,pwm3_us,pwm4_us,motor1_radps,motor2_radps,motor3_radps,motor4_radps,altitude_true_m,altitude_est_m,roll_true_rad,pitch_true_rad,yaw_true_rad,roll_est_rad,pitch_est_rad,yaw_est_rad,udp_valid_rx_count,udp_invalid_rx_count,udp_rx_datagram_count
0.0017337,0,0,NaN,NaN,NaN,NaN,0,0,0,0,-0,-0.00094395744,0,0,0,0,0,0,0,0,0
0.0215045,559,1,1000,1000,1000,1000,0,0,0,0,-0.000981,-0.00282402732860928,0,0,0,0,0,0,1,0,1
0.0357229,0,0,NaN,NaN,NaN,NaN,0,0,0,0,-0.002943,-0.00563273846700084,0,0,0,0,0,0,0,0,0
0.0486443,0,0,NaN,NaN,NaN,NaN,0,0,0,0,-0.005886,-0.00936299224473575,0,0,0,0,0,0,0,0,0
0.0538666,560,1,1000,1000,1000,1000,0,0,0,0,-0.00981,-0.0140080608372245,0,0,0,0,0,0,1,0,1
0.068739,0,0,NaN,NaN,NaN,NaN,0,0,0,0,-0.014715,-0.0195615848305341,0,0,0,0,0,0,0,0,0
0.0827876,0,0,NaN,NaN,NaN,NaN,0,0,0,0,-0.020601,-0.0260175702992692,0,0,0,0,0,0,0,0,0
0.0881198,561,1,1000,1000,1000,1000,0,0,0,0,-0.027468,-0.0333703853632278,0,0,0,0,0,0,1,0,1
0.1032833,0,0,NaN,NaN,NaN,NaN,0,0,0,0,-0.035316,-0.0416147562484636,0,0,0,0,0,0,0,0,0
0.1156441,0,0,NaN,NaN,NaN,NaN,0,0,0,0,-0.044145,-0.0507457628782755,0,0,0,0,0,0,0,0,0
0.1247019,562,1,1000,1000,1000,1000,0,0,0,0,-0.053955,-0.0607588340194921,0,0,0,0,0,0,1,0,1
0.1383701,0,0,NaN,NaN,NaN,NaN,0,0,0,0,-0.064746,-0.0716497420092307,0,0,0,0,0,0,0,0,0
0.1521766,0,0,NaN,NaN,NaN,NaN,0,0,0,0,-0.076518,-0.0834145970870848,0,0,0,0,0,0,0,0,0
0.158694,563,1,1000,1000,1000,1000,0,0,0,0,-0.089271,-0.0960498413574326,0,0,0,0,0,0,1,0,1
0.1735026,0,0,NaN,NaN,NaN,NaN,0,0,0,0,-0.103005,-0.109552242406266,0,0,0,0,0,0,0,0,0
0.1872934,0,0,NaN,NaN,NaN,NaN,0,0,0,0,-0.11772,-0.123918886596618,0,0,0,0,0,0,0,0,0
0.1949959,564,1,1000,1000,1000,1000,0,0,0,0,-0.133416,-0.139147172066304,0,0,0,0,0,0,1,0,1
0.2096839,0,0,NaN,NaN,NaN,NaN,0,0,0,0,-0.150093,-0.155234801451323,0,0,0,0,0,0,0,0,0
0.2238227,0,0,NaN,NaN,NaN,NaN,0,0,0,0,-0.167751,-0.172179774357856,0,0,0,0,0,0,0,0,0
0.2282074,565,1,1000,1000,1000,1000,0,0,0,0,-0.18639,-0.189980379605348,0,0,0,0,0,0,1,0,1
0.241289,0,0,NaN,NaN,NaN,NaN,0,0,0,0,-0.20601,-0.208635187262737,0,0,0,0,0,0,0,0,0
0.2550778,0,0,NaN,NaN,NaN,NaN,0,0,0,0,-0.226611,-0.228143040499393,0,0,0,0,0,0,0,0,0
0.2612926,566,1,1000,1000,1000,1000,0,0,0,0,-0.248193,-0.248503047271849,0,0,0,0,0,0,1,0,1
0.2743252,0,0,NaN,NaN,NaN,NaN,0,0,0,0,-0.270756,-0.269714571866892,0,0,0,0,0,0,0,0,0
0.2883549,0,0,NaN,NaN,NaN,NaN,0,0,0,0,-0.2943,-0.29177722632104,0,0,0,0,0,0,0,0,0
0.2951209,567,1,1000,1000,1000,1000,0,0,0,0,-0.318825,-0.314690861735917,0,0,0,0,0,0,1,0,1
0.3094567,0,0,NaN,NaN,NaN,NaN,0,0,0,0,-0.344331,-0.338455559508448,0,0,0,0,0,0,0,0,0
0.3235206,0,0,NaN,NaN,NaN,NaN,0,0,0,0,-0.370818,-0.363071622494258,0,0,0,0,0,0,0,0,0
0.3280201,568,1,1000,1000,1000,1000,0,0,0,0,-0.398286,-0.388539566122054,0,0,0,0,0,0,1,0,1
0.3422253,0,0,NaN,NaN,NaN,NaN,0,0,0,0,-0.426735,-0.414860109476205,0,0,0,0,0,0,0,0,0
0.3559571,0,0,NaN,NaN,NaN,NaN,0,0,0,0,-0.456165,-0.442034166364129,0,0,0,0,0,0,0,0,0
0.3617936,569,1,1000,1000,1000,1000,0,0,0,0,-0.486576,-0.470062836384487,0,0,0,0,0,0,1,0,1
0.3762671,0,0,NaN,NaN,NaN,NaN,0,0,0,0,-0.517968,-0.498947396011604,0,0,0,0,0,0,0,0,0
0.3901066,0,0,NaN,NaN,NaN,NaN,0,0,0,0,-0.550341,-0.528689289710894,0,0,0,0,0,0,0,0,0
0.3956899,570,1,1000,1000,1000,1000,0,0,0,0,-0.583695,-0.559290121099477,0,0,0,0,0,0,1,0,1
0.4103689,0,0,NaN,NaN,NaN,NaN,0,0,0,0,-0.61803,-0.590751644165568,0,0,0,0,0,0,0,0,0
0.4240761,0,0,NaN,NaN,NaN,NaN,0,0,0,0,-0.653346,-0.623075754559565,0,0,0,0,0,0,0,0,0
0.4287997,571,1,1000,1000,1000,1000,0,0,0,0,-0.689643,-0.656264480969206,0,0,0,0,0,0,1,0,1
0.4428983,0,0,NaN,NaN,NaN,NaN,0,0,0,0,-0.726921,-0.690319976590504,0,0,0,0,0,0,0,0,0
0.4570896,0,0,NaN,NaN,NaN,NaN,0,0,0,0,-0.76518,-0.725244510705594,0,0,0,0,0,0,0,0,0
0.4620378,572,1,1000,1000,1000,1000,0,0,0,0,-0.80442,-0.761040460377998,0,0,0,0,0,0,1,0,1
0.4758615,0,0,NaN,NaN,NaN,NaN,0,0,0,0,-0.844641,-0.797710302275239,0,0,0,0,0,0,0,0,0
0.4890483,0,0,NaN,NaN,NaN,NaN,0,0,0,0,-0.885843,-0.835256604628109,0,0,0,0,0,0,0,0,0
0.4955445,573,1,1000,1000,1000,1000,0,0,0,0,-0.928026,-0.873682019335337,0,0,0,0,0,0,1,0,1
0.509792,0,0,NaN,NaN,NaN,NaN,0,0,0,0,-0.97119,-0.912989274221809,0,0,0,0,0,0,0,0,0
0.5242129,0,0,NaN,NaN,NaN,NaN,0,0,0,0,-1.015335,-0.953181165457912,0,0,0,0,0,0,0,0,0
0.5332708,574,1,1000,1000,1000,1000,0,0,0,0,-1.060461,-0.994260550147029,0,0,0,0,0,0,1,0,1
0.5479262,0,0,NaN,NaN,NaN,NaN,0,0,0,0,-1.106568,-1.03623033908763,0,0,0,0,0,0,0,0,0
0.5606666,0,0,NaN,NaN,NaN,NaN,0,0,0,0,-1.153656,-1.07909348971589,0,0,0,0,0,0,0,0,0
0.5663907,575,1,1000,1000,1000,1000,0,0,0,0,-1.201725,-1.1228529992342,0,0,0,0,0,0,1,0,1
0.5796248,0,0,NaN,NaN,NaN,NaN,0,0,0,0,-1.250775,-1.16751189793042,0,0,0,0,0,0,0,0,0
0.5931842,0,0,NaN,NaN,NaN,NaN,0,0,0,0,-1.300806,-1.21307324269225,0,0,0,0,0,0,0,0,0
0.6003913,576,1,1000,1000,1000,1000,0,0,0,0,-1.351818,-1.2595401107205,0,0,0,0,0,0,1,0,1
0.6131756,0,0,NaN,NaN,NaN,NaN,0,0,0,0,-1.403811,-1.30691559344468,0,0,0,0,0,0,0,0,0
0.6254253,0,0,NaN,NaN,NaN,NaN,0,0,0,0,-1.456785,-1.35520279064371,0,0,0,0,0,0,0,0,0
0.6368536,577,1,1000,1000,1000,1000,0,0,0,0,-1.51074,-1.40440480477429,0,0,0,0,0,0,1,0,1
0.6498804,0,0,NaN,NaN,NaN,NaN,0,0,0,0,-1.565676,-1.45452473550864,0,0,0,0,0,0,0,0,0
0.6625022,0,0,NaN,NaN,NaN,NaN,0,0,0,0,-1.621593,-1.5055656744835,0,0,0,0,0,0,0,0,0
0.6705384,578,1,1000,1000,1000,1000,0,0,0,0,-1.678491,-1.55753070026117,0,0,0,0,0,0,1,0,1
0.6841308,0,0,NaN,NaN,NaN,NaN,0,0,0,0,-1.73637,-1.61042287350342,0,0,0,0,0,0,0,0,0
0.6978283,0,0,NaN,NaN,NaN,NaN,0,0,0,0,-1.79523,-1.66424523235862,0,0,0,0,0,0,0,0,0
0.7035629,579,1,1000,1000,1000,1000,0,0,0,0,-1.855071,-1.71900078806194,0,0,0,0,0,0,1,0,1
0.7162114,0,0,NaN,NaN,NaN,NaN,0,0,0,0,-1.915893,-1.77469252074813,0,0,0,0,0,0,0,0,0
0.7291608,0,0,NaN,NaN,NaN,NaN,0,0,0,0,-1.977696,-1.83132337547624,0,0,0,0,0,0,0,0,0
0.737064,580,1,1000,1000,1000,1000,0,0,0,0,-2.04048,-1.88889625846499,0,0,0,0,0,0,1,0,1
0.7502695,0,0,NaN,NaN,NaN,NaN,0,0,0,0,-2.104245,-1.94741403353746,0,0,0,0,0,0,0,0,0
0.7639419,0,0,NaN,NaN,NaN,NaN,0,0,0,0,-2.168991,-2.00687951877324,0,0,0,0,0,0,0,0,0
0.7700143,581,1,1000,1000,1000,1000,0,0,0,0,-2.234718,-2.06729548336608,0,0,0,0,0,0,1,0,1
0.7831665,0,0,NaN,NaN,NaN,NaN,0,0,0,0,-2.301426,-2.12866464468463,0,0,0,0,0,0,0,0,0
0.7954993,0,0,NaN,NaN,NaN,NaN,0,0,0,0,-2.369115,-2.19098966553378,0,0,0,0,0,0,0,0,0
0.8036293,582,1,1000,1000,1000,1000,0,0,0,0,-2.437785,-2.25427315161363,0,0,0,0,0,0,1,0,1
0.8180675,0,0,NaN,NaN,NaN,NaN,0,0,0,0,-2.507436,-2.31851764917311,0,0,0,0,0,0,0,0,0
0.8312286,0,0,NaN,NaN,NaN,NaN,0,0,0,0,-2.578068,-2.38372564285497,0,0,0,0,0,0,0,0,0
0.8372968,0,0,NaN,NaN,NaN,NaN,0,0,0,0,-2.649681,-2.44989955372855,0,0,0,0,0,0,0,0,0
0.8499008,583,1,1000,1000,1000,1000,0,0,0,0,-2.722275,-2.51704173750671,0,0,0,0,0,0,1,0,1
0.8632126,0,0,NaN,NaN,NaN,NaN,0,0,0,0,-2.79585,-2.58515448294299,0,0,0,0,0,0,0,0,0
0.8704623,584,1,1000,1000,1000,1000,0,0,0,0,-2.870406,-2.65424001040507,0,0,0,0,0,0,1,0,1
0.8835336,0,0,NaN,NaN,NaN,NaN,0,0,0,0,-2.945943,-2.7243004706202,0,0,0,0,0,0,0,0,0
0.8958308,0,0,NaN,NaN,NaN,NaN,0,0,0,0,-3.022461,-2.79533794358837,0,0,0,0,0,0,0,0,0
0.9043175,585,1,1000,1000,1000,1000,0,0,0,0,-3.09996,-2.86735443765875,0,0,0,0,0,0,1,0,1
0.9177713,0,0,NaN,NaN,NaN,NaN,0,0,0,0,-3.17844,-2.94035188876476,0,0,0,0,0,0,0,0,0
0.9314043,0,0,NaN,NaN,NaN,NaN,0,0,0,0,-3.257901,-3.01433215981322,0,0,0,0,0,0,0,0,0
0.9371982,586,1,1000,1000,1000,1000,0,0,0,0,-3.338343,-3.08929704022273,0,0,0,0,0,0,1,0,1
0.9500059,0,0,NaN,NaN,NaN,NaN,0,0,0,0,-3.419766,-3.16524824560647,0,0,0,0,0,0,0,0,0
0.9624534,0,0,NaN,NaN,NaN,NaN,0,0,0,0,-3.50217,-3.24218741759451,0,0,0,0,0,0,0,0,0
0.9702836,587,1,1000,1000,1000,1000,0,0,0,0,-3.585555,-3.32011612379069,0,0,0,0,0,0,1,0,1
0.983176,0,0,NaN,NaN,NaN,NaN,0,0,0,0,-3.669921,-3.39903585785898,0,0,0,0,0,0,0,0,0
0.9956358,0,0,NaN,NaN,NaN,NaN,0,0,0,0,-3.755268,-3.47894803973448,0,0,0,0,0,0,0,0,0
1.0036706,588,1,1000,1000,1000,1000,0,0,0,0,-3.841596,-3.55985401595369,0,0,0,0,0,0,1,0,1
1.0166109,0,0,NaN,NaN,NaN,NaN,0,0,0,0,-3.928905,-3.6417550600993,0,0,0,0,0,0,0,0,0
1.0306714,0,0,NaN,NaN,NaN,NaN,0,0,0,0,-4.017195,-3.72465237335412,0,0,0,0,0,0,0,0,0
1.0368946,589,1,1000,1000,1000,1000,0,0,0,0,-4.106466,-3.80854708515928,0,0,0,0,0,0,1,0,1
1.0496265,0,0,NaN,NaN,NaN,NaN,0,0,0,0,-4.196718,-3.89344025397153,0,0,0,0,0,0,0,0,0
1.062719,0,0,NaN,NaN,NaN,NaN,0,0,0,0,-4.287951,-3.97933286811456,0,0,0,0,0,0,0,0,0
1.0701356,590,1,1000,1000,1000,1000,0,0,0,0,-4.380165,-4.06622584671945,0,0,0,0,0,0,1,0,1
1.0839062,0,0,NaN,NaN,NaN,NaN,0,0,0,0,-4.47336,-4.15412004074908,0,0,0,0,0,0,0,0,0
1.0973498,0,0,NaN,NaN,NaN,NaN,0,0,0,0,-4.567536,-4.24301623410175,0,0,0,0,0,0,0,0,0
1.1083103,591,1,1000,1000,1000,1000,0,0,0,0,-4.662693,-4.33291514478889,0,0,0,0,0,0,1,0,1
1.122766,0,0,NaN,NaN,NaN,NaN,0,0,0,0,-4.758831,-4.42381742618228,0,0,0,0,0,0,0,0,0
1.1365684,0,0,NaN,NaN,NaN,NaN,0,0,0,0,-4.85595,-4.51572366832582,0,0,0,0,0,0,0,0,0
1.1423133,592,1,1000,1000,1000,1000,0,0,0,0,-4.95405,-4.60863439930715,0,0,0,0,0,0,1,0,1
1.1553096,0,0,NaN,NaN,NaN,NaN,0,0,0,0,-5.053131,-4.70255008668463,0,0,0,0,0,0,0,0,0
1.1685349,0,0,NaN,NaN,NaN,NaN,0,0,0,0,-5.153193,-4.79747113896494,0,0,0,0,0,0,0,0,0
1.1783675,593,1,1000,1000,1000,1000,0,0,0,0,-5.254236,-4.89339790712701,0,0,0,0,0,0,1,0,1
1.1919223,0,0,NaN,NaN,NaN,NaN,0,0,0,0,-5.35626,-4.99033068618777,0,0,0,0,0,0,0,0,0
1.2052357,0,0,NaN,NaN,NaN,NaN,0,0,0,0,-5.459265,-5.08826971680546,0,0,0,0,0,0,0,0,0
1.2120175,594,1,1000,1000,1000,1000,0,0,0,0,-5.563251,-5.18721518691639,0,0,0,0,0,0,1,0,1
1.225211,0,0,NaN,NaN,NaN,NaN,0,0,0,0,-5.668218,-5.28716723340094,0,0,0,0,0,0,0,0,0
1.2373441,0,0,NaN,NaN,NaN,NaN,0,0,0,0,-5.774166,-5.38812594377491,0,0,0,0,0,0,0,0,0
1.2492924,595,1,1000,1000,1000,1000,0,0,0,0,-5.881095,-5.49009135790232,0,0,0,0,0,0,1,0,1
1.262626,0,0,NaN,NaN,NaN,NaN,0,0,0,0,-5.989005,-5.59306346972583,0,0,0,0,0,0,0,0,0
1.2746852,0,0,NaN,NaN,NaN,NaN,0,0,0,0,-6.097896,-5.69704222901119,0,0,0,0,0,0,0,0,0
1.2864866,596,1,1000,1000,1000,1000,0,0,0,0,-6.207768,-5.8020275431022,0,0,0,0,0,0,1,0,1
1.2997202,0,0,NaN,NaN,NaN,NaN,0,0,0,0,-6.318621,-5.90801927868266,0,0,0,0,0,0,0,0,0
1.3136432,0,0,NaN,NaN,NaN,NaN,0,0,0,0,-6.430455,-6.01501726354204,0,0,0,0,0,0,0,0,0
1.3201878,597,1,1000,1000,1000,1000,0,0,0,0,-6.54327,-6.12302128834172,0,0,0,0,0,0,1,0,1
1.332955,0,0,NaN,NaN,NaN,NaN,0,0,0,0,-6.657066,-6.23203110837872,0,0,0,0,0,0,0,0,0
1.346918,0,0,NaN,NaN,NaN,NaN,0,0,0,0,-6.771843,-6.34204644534384,0,0,0,0,0,0,0,0,0
1.3536923,598,1,1000,1000,1000,1000,0,0,0,0,-6.887601,-6.4530669890716,0,0,0,0,0,0,1,0,1
1.3668378,0,0,NaN,NaN,NaN,NaN,0,0,0,0,-7.00434,-6.56509239927909,0,0,0,0,0,0,0,0,0
1.3791689,0,0,NaN,NaN,NaN,NaN,0,0,0,0,-7.12206,-6.67812230729119,0,0,0,0,0,0,0,0,0
1.3871344,0,0,NaN,NaN,NaN,NaN,0,0,0,0,-7.240761,-6.79215631774975,0,0,0,0,0,0,0,0,0
1.3996124,599,1,1000,1000,1000,1000,0,0,0,0,-7.360443,-6.90719401030432,0,0,0,0,0,0,1,0,1
1.4127916,0,0,NaN,NaN,NaN,NaN,0,0,0,0,-7.481106,-7.02323494128223,0,0,0,0,0,0,0,0,0
1.4206076,600,1,1000,1000,1000,1000,0,0,0,0,-7.60275,-7.14027864533588,0,0,0,0,0,0,1,0,1
1.4335647,0,0,NaN,NaN,NaN,NaN,0,0,0,0,-7.725375,-7.25832463706532,0,0,0,0,0,0,0,0,0
1.4475753,0,0,NaN,NaN,NaN,NaN,0,0,0,0,-7.848981,-7.37737241261421,0,0,0,0,0,0,0,0,0
1.4578552,601,1,1000,1000,1000,1000,0,0,0,0,-7.973568,-7.49742145123737,0,0,0,0,0,0,1,0,1
1.4717855,0,0,NaN,NaN,NaN,NaN,0,0,0,0,-8.099136,-7.61847121683839,0,0,0,0,0,0,0,0,0
1.4853567,0,0,NaN,NaN,NaN,NaN,0,0,0,0,-8.225685,-7.74052115947561,0,0,0,0,0,0,0,0,0
1.4916088,602,1,1000,1000,1000,1000,0,0,0,0,-8.353215,-7.86357071683528,0,0,0,0,0,0,1,0,1
1.5058271,0,0,NaN,NaN,NaN,NaN,0,0,0,0,-8.481726,-7.98761931567036,0,0,0,0,0,0,0,0,0
1.5184017,0,0,NaN,NaN,NaN,NaN,0,0,0,0,-8.611218,-8.11266637320394,0,0,0,0,0,0,0,0,0
1.5249833,603,1,1000,1000,1000,1000,0,0,0,0,-8.741691,-8.23871129849617,0,0,0,0,0,0,1,0,1
1.5380823,0,0,NaN,NaN,NaN,NaN,0,0,0,0,-8.873145,-8.36575349377355,0,0,0,0,0,0,0,0,0
1.5521301,0,0,NaN,NaN,NaN,NaN,0,0,0,0,-9.00558,-8.49379235572002,0,0,0,0,0,0,0,0,0
1.5585779,604,1,1000,1000,1000,1000,0,0,0,0,-9.138996,-8.62282727672871,0,0,0,0,0,0,1,0,1
1.5723823,0,0,NaN,NaN,NaN,NaN,0,0,0,0,-9.273393,-8.75285764611392,0,0,0,0,0,0,0,0,0
1.5862579,0,0,NaN,NaN,NaN,NaN,0,0,0,0,-9.408771,-8.88388285128266,0,0,0,0,0,0,0,0,0
1.5955266,605,1,1000,1000,1000,1000,0,0,0,0,-9.54513,-9.01590227886522,0,0,0,0,0,0,1,0,1
1.6089521,0,0,NaN,NaN,NaN,NaN,0,0,0,0,-9.68247,-9.14891531580438,0,0,0,0,0,0,0,0,0
1.6230699,0,0,NaN,NaN,NaN,NaN,0,0,0,0,-9.820791,-9.282921350403,0,0,0,0,0,0,0,0,0
1.6293155,606,1,1000,1000,1000,1000,0,0,0,0,-9.960093,-9.41791977332968,0,0,0,0,0,0,1,0,1
1.6432345,0,0,NaN,NaN,NaN,NaN,0,0,0,0,-10.100376,-9.55390997858234,0,0,0,0,0,0,0,0,0
1.6554845,0,0,NaN,NaN,NaN,NaN,0,0,0,0,-10.24164,-9.69089136440967,0,0,0,0,0,0,0,0,0
1.6657146,607,1,1000,1000,1000,1000,0,0,0,0,-10.383885,-9.82886333419046,0,0,0,0,0,0,1,0,1
1.6800147,0,0,NaN,NaN,NaN,NaN,0,0,0,0,-10.527111,-9.96782529727085,0,0,0,0,0,0,0,0,0
1.6919612,0,0,NaN,NaN,NaN,NaN,0,0,0,0,-10.671318,-10.1077766697596,0,0,0,0,0,0,0,0,0
1.6997625,608,1,1000,1000,1000,1000,0,0,0,0,-10.816506,-10.2487168752819,0,0,0,0,0,0,1,0,1
1.7131757,0,0,NaN,NaN,NaN,NaN,0,0,0,0,-10.962675,-10.3906453456912,0,0,0,0,0,0,0,0,0
1.726818,0,0,NaN,NaN,NaN,NaN,0,0,0,0,-11.109825,-10.5335615217404,0,0,0,0,0,0,0,0,0
1.7330884,609,1,1000,1000,1000,1000,0,0,0,0,-11.257956,-10.6774648537125,0,0,0,0,0,0,1,0,1
1.7478171,0,0,NaN,NaN,NaN,NaN,0,0,0,0,-11.407068,-10.82235480201,0,0,0,0,0,0,0,0,0
1.7609607,0,0,NaN,NaN,NaN,NaN,0,0,0,0,-11.557161,-10.968230837706,0,0,0,0,0,0,0,0,0
1.7678835,610,1,1000,1000,1000,1000,0,0,0,0,-11.708235,-11.1150924430546,0,0,0,0,0,0,1,0,1
1.7816964,0,0,NaN,NaN,NaN,NaN,0,0,0,0,-11.86029,-11.2629391119636,0,0,0,0,0,0,0,0,0
1.7947557,0,0,NaN,NaN,NaN,NaN,0,0,0,0,-12.013326,-11.4117703504291,0,0,0,0,0,0,0,0,0
1.8033498,611,1,1000,1000,1000,1000,0,0,0,0,-12.167343,-11.5615856769326,0,0,0,0,0,0,1,0,1
1.8162426,0,0,NaN,NaN,NaN,NaN,0,0,0,0,-12.322341,-11.7123846228016,0,0,0,0,0,0,0,0,0
1.8284837,0,0,NaN,NaN,NaN,NaN,0,0,0,0,-12.47832,-11.8641667325344,0,0,0,0,0,0,0,0,0
1.8374909,612,1,1000,1000,1000,1000,0,0,0,0,-12.63528,-12.0169315640899,0,0,0,0,0,0,1,0,1
1.8508561,0,0,NaN,NaN,NaN,NaN,0,0,0,0,-12.793221,-12.1706786891431,0,0,0,0,0,0,0,0,0
1.8643037,0,0,NaN,NaN,NaN,NaN,0,0,0,0,-12.952143,-12.3254076933074,0,0,0,0,0,0,0,0,0
1.8710424,613,1,1000,1000,1000,1000,0,0,0,0,-13.112046,-12.4811181763245,0,0,0,0,0,0,1,0,1
1.8834157,0,0,NaN,NaN,NaN,NaN,0,0,0,0,-13.27293,-12.6378097522221,0,0,0,0,0,0,0,0,0
1.89656,0,0,NaN,NaN,NaN,NaN,0,0,0,0,-13.434795,-12.795482049442,0,0,0,0,0,0,0,0,0
1.9076793,614,1,1000,1000,1000,1000,0,0,0,0,-13.597641,-12.9541347109374,0,0,0,0,0,0,1,0,1
1.9223629,0,0,NaN,NaN,NaN,NaN,0,0,0,0,-13.761468,-13.1137673942423,0,0,0,0,0,0,0,0,0
1.9348926,0,0,NaN,NaN,NaN,NaN,0,0,0,0,-13.926276,-13.2743797715124,0,0,0,0,0,0,0,0,0
1.9419073,615,1,1000,1000,1000,1000,0,0,0,0,-14.092065,-13.4359715295395,0,0,0,0,0,0,1,0,1
1.9562958,0,0,NaN,NaN,NaN,NaN,0,0,0,0,-14.258835,-13.5985423697405,0,0,0,0,0,0,0,0,0
1.9702177,0,0,NaN,NaN,NaN,NaN,0,0,0,0,-14.426586,-13.7620920081206,0,0,0,0,0,0,0,0,0
1.9760544,616,1,1000,1000,1000,1000,0,0,0,0,-14.595318,-13.9266201752134,0,0,0,0,0,0,1,0,1
1.9885139,0,0,NaN,NaN,NaN,NaN,0,0,0,0,-14.765031,-14.0921266159981,0,0,0,0,0,0,0,0,0
2.0020333,0,0,NaN,NaN,NaN,NaN,0,0,0,0,-14.935725,-14.2586110897942,0,0,0,0,0,0,0,0,0
2.0123318,617,1,1000,1000,1000,1000,0,0,0,0,-15.1074,-14.4260733701367,0,0,0,0,0,0,1,0,1
2.0254792,0,0,NaN,NaN,NaN,NaN,0,0,0,0,-15.280056,-14.5945132446298,0,0,0,0,0,0,0,0,0
2.0387135,0,0,NaN,NaN,NaN,NaN,0,0,0,0,-15.453693,-14.7639305147834,0,0,0,0,0,0,0,0,0
2.045366,618,1,1000,1000,1000,1000,0,0,0,0,-15.628311,-14.9343249958304,0,0,0,0,0,0,1,0,1
2.0588068,0,0,NaN,NaN,NaN,NaN,0,0,0,0,-15.80391,-15.1056965165282,0,0,0,0,0,0,0,0,0
2.071087,0,0,NaN,NaN,NaN,NaN,0,0,0,0,-15.98049,-15.278044918944,0,0,0,0,0,0,0,0,0
2.0784886,619,1,1000,1000,1000,1000,0,0,0,0,-16.158051,-15.4513700582246,0,0,0,0,0,0,1,0,1
2.0918761,0,0,NaN,NaN,NaN,NaN,0,0,0,0,-16.336593,-15.6256718023534,0,0,0,0,0,0,0,0,0
2.1048908,0,0,NaN,NaN,NaN,NaN,0,0,0,0,-16.516116,-15.8009500318934,0,0,0,0,0,0,0,0,0
2.1123292,620,1,1000,1000,1000,1000,0,0,0,0,-16.69662,-15.9772046397188,0,0,0,0,0,0,1,0,1
2.1261191,0,0,NaN,NaN,NaN,NaN,0,0,0,0,-16.878105,-16.1544355307353,0,0,0,0,0,0,0,0,0
2.1395801,0,0,NaN,NaN,NaN,NaN,0,0,0,0,-17.060571,-16.33264262159,0,0,0,0,0,0,0,0,0
2.1452061,621,1,1000,1000,1000,1000,0,0,0,0,-17.244018,-16.5118258403718,0,0,0,0,0,0,1,0,1
2.1598983,0,0,NaN,NaN,NaN,NaN,0,0,0,0,-17.428446,-16.6919851263043,0,0,0,0,0,0,0,0,0
2.1728128,0,0,NaN,NaN,NaN,NaN,0,0,0,0,-17.613855,-16.8731204294297,0,0,0,0,0,0,0,0,0
2.1788193,622,1,1000,1000,1000,1000,0,0,0,0,-17.800245,-17.0552317102871,0,0,0,0,0,0,1,0,1
2.1930696,0,0,NaN,NaN,NaN,NaN,0,0,0,0,-17.987616,-17.2383189395839,0,0,0,0,0,0,0,0,0
2.2066811,0,0,NaN,NaN,NaN,NaN,0,0,0,0,-18.175968,-17.4223820978628,0,0,0,0,0,0,0,0,0
2.2120619,623,1,1000,1000,1000,1000,0,0,0,0,-18.365301,-17.6074211751641,0,0,0,0,0,0,1,0,1
2.22637,0,0,NaN,NaN,NaN,NaN,0,0,0,0,-18.555615,-17.7934361706837,0,0,0,0,0,0,0,0,0
2.2384874,0,0,NaN,NaN,NaN,NaN,0,0,0,0,-18.74691,-17.9804270924296,0,0,0,0,0,0,0,0,0
2.2455997,624,1,1000,1000,1000,1000,0,0,0,0,-18.939186,-18.1683939568747,0,0,0,0,0,0,1,0,1
2.2602085,0,0,NaN,NaN,NaN,NaN,0,0,0,0,-19.132443,-18.3573367886088,0,0,0,0,0,0,0,0,0
2.2744357,0,0,NaN,NaN,NaN,NaN,0,0,0,0,-19.326681,-18.5472556199899,0,0,0,0,0,0,0,0,0
2.2786352,625,1,1000,1000,1000,1000,0,0,0,0,-19.5219,-18.7381504907948,0,0,0,0,0,0,1,0,1
2.2915924,0,0,NaN,NaN,NaN,NaN,0,0,0,0,-19.7181,-18.9300214478699,0,0,0,0,0,0,0,0,0
2.305461,0,0,NaN,NaN,NaN,NaN,0,0,0,0,-19.915281,-19.122868544784,0,0,0,0,0,0,0,0,0
2.3119701,626,1,1000,1000,1000,1000,0,0,0,0,-20.113443,-19.3166918414812,0,0,0,0,0,0,1,0,1
2.3264263,0,0,NaN,NaN,NaN,NaN,0,0,0,0,-20.312586,-19.511491403937,0,0,0,0,0,0,0,0,0
2.3387468,0,0,NaN,NaN,NaN,NaN,0,0,0,0,-20.51271,-19.7072673038166,0,0,0,0,0,0,0,0,0
2.3459011,627,1,1000,1000,1000,1000,0,0,0,0,-20.713815,-19.9040196181356,0,0,0,0,0,0,1,0,1
2.3608893,0,0,NaN,NaN,NaN,NaN,0,0,0,0,-20.915901,-20.1017484289259,0,0,0,0,0,0,0,0,0
2.3739502,0,0,NaN,NaN,NaN,NaN,0,0,0,0,-21.118968,-20.3004538229035,0,0,0,0,0,0,0,0,0
2.3784745,628,1,1000,1000,1000,1000,0,0,0,0,-21.323016,-20.5001358911425,0,0,0,0,0,0,1,0,1
2.3918716,0,0,NaN,NaN,NaN,NaN,0,0,0,0,-21.528045,-20.700794728753,0,0,0,0,0,0,0,0,0
2.404267,0,0,NaN,NaN,NaN,NaN,0,0,0,0,-21.734055,-20.902430434564,0,0,0,0,0,0,0,0,0
2.4119895,629,1,1000,1000,1000,1000,0,0,0,0,-21.941046,-21.1050431108126,0,0,0,0,0,0,1,0,1
2.4246554,0,0,NaN,NaN,NaN,NaN,0,0,0,0,-22.149018,-21.3086328628386,0,0,0,0,0,0,0,0,0
2.4367149,0,0,NaN,NaN,NaN,NaN,0,0,0,0,-22.357971,-21.5131997987851,0,0,0,0,0,0,0,0,0
2.4455523,630,1,1000,1000,1000,1000,0,0,0,0,-22.567905,-21.718744029306,0,0,0,0,0,0,1,0,1
2.4600841,0,0,NaN,NaN,NaN,NaN,0,0,0,0,-22.77882,-21.9252656672798,0,0,0,0,0,0,0,0,0
2.4730363,0,0,NaN,NaN,NaN,NaN,0,0,0,0,-22.990716,-22.1327648275306,0,0,0,0,0,0,0,0,0
2.478378,631,1,1000,1000,1000,1000,0,0,0,0,-23.203593,-22.3412416265564,0,0,0,0,0,0,1,0,1
2.4915695,0,0,NaN,NaN,NaN,NaN,0,0,0,0,-23.417451,-22.5506961822642,0,0,0,0,0,0,0,0,0
2.5044193,0,0,NaN,NaN,NaN,NaN,0,0,0,0,-23.63229,-22.7611286137136,0,0,0,0,0,0,0,0,0
2.5119541,632,1,1000,1000,1000,1000,0,0,0,0,-23.84811,-22.972539040867,0,0,0,0,0,0,1,0,1
2.5250953,0,0,NaN,NaN,NaN,NaN,0,0,0,0,-24.064911,-23.1849275843484,0,0,0,0,0,0,0,0,0
2.5375517,0,0,NaN,NaN,NaN,NaN,0,0,0,0,-24.282693,-23.3982943652102,0,0,0,0,0,0,0,0,0
2.5454383,633,1,1000,1000,1000,1000,0,0,0,0,-24.501456,-23.6126395047076,0,0,0,0,0,0,1,0,1
2.5585568,0,0,NaN,NaN,NaN,NaN,0,0,0,0,-24.7212,-23.8279631240815,0,0,0,0,0,0,0,0,0
2.5724443,0,0,NaN,NaN,NaN,NaN,0,0,0,0,-24.941925,-24.0442653443493,0,0,0,0,0,0,0,0,0
2.5783326,634,1,1000,1000,1000,1000,0,0,0,0,-25.163631,-24.2615462861049,0,0,0,0,0,0,1,0,1
2.5910858,0,0,NaN,NaN,NaN,NaN,0,0,0,0,-25.386318,-24.4798060693253,0,0,0,0,0,0,0,0,0
2.6037432,0,0,NaN,NaN,NaN,NaN,0,0,0,0,-25.609986,-24.6990448131875,0,0,0,0,0,0,0,0,0
2.615508,635,1,1000,1000,1000,1000,0,0,0,0,-25.834635,-24.9192626358924,0,0,0,0,0,0,1,0,1
2.6287602,0,0,NaN,NaN,NaN,NaN,0,0,0,0,-26.060265,-25.140459654497,0,0,0,0,0,0,0,0,0
2.6410735,0,0,NaN,NaN,NaN,NaN,0,0,0,0,-26.286876,-25.3626359847562,0,0,0,0,0,0,0,0,0
2.6498188,636,1,1000,1000,1000,1000,0,0,0,0,-26.514468,-25.5857917409711,0,0,0,0,0,0,1,0,1
2.6635023,0,0,NaN,NaN,NaN,NaN,0,0,0,0,-26.743041,-25.809927035847,0,0,0,0,0,0,0,0,0
2.6770272,0,0,NaN,NaN,NaN,NaN,0,0,0,0,-26.972595,-26.0350419803584,0,0,0,0,0,0,0,0,0
2.6842898,637,1,1000,1000,1000,1000,0,0,0,0,-27.20313,-26.261136683623,0,0,0,0,0,0,1,0,1
2.6977417,0,0,NaN,NaN,NaN,NaN,0,0,0,0,-27.434646,-26.488211252783,0,0,0,0,0,0,0,0,0
2.7119194,0,0,NaN,NaN,NaN,NaN,0,0,0,0,-27.667143,-26.7162657928947,0,0,0,0,0,0,0,0,0
2.7199951,638,1,1000,1000,1000,1000,0,0,0,0,-27.900621,-26.9453004068257,0,0,0,0,0,0,1,0,1
2.7346708,0,0,NaN,NaN,NaN,NaN,0,0,0,0,-28.13508,-27.1753151951597,0,0,0,0,0,0,0,0,0
2.7481622,0,0,NaN,NaN,NaN,NaN,0,0,0,0,-28.37052,-27.4063102561089,0,0,0,0,0,0,0,0,0
2.7531873,639,1,1000,1000,1000,1000,0,0,0,0,-28.606941,-27.6382856854342,0,0,0,0,0,0,1,0,1
2.7662301,0,0,NaN,NaN,NaN,NaN,0,0,0,0,-28.844343,-27.8712415763717,0,0,0,0,0,0,0,0,0
2.7783874,0,0,NaN,NaN,NaN,NaN,0,0,0,0,-29.082726,-28.1051780195674,0,0,0,0,0,0,0,0,0
2.7865992,640,1,1000,1000,1000,1000,0,0,0,0,-29.32209,-28.3400951030182,0,0,0,0,0,0,1,0,1
2.7999119,0,0,NaN,NaN,NaN,NaN,0,0,0,0,-29.562435,-28.5759929120199,0,0,0,0,0,0,0,0,0
2.8141031,0,0,NaN,NaN,NaN,NaN,0,0,0,0,-29.803761,-28.8128715291217,0,0,0,0,0,0,0,0,0
2.8199149,641,1,1000,1000,1000,1000,0,0,0,0,-30.046068,-29.0507310340875,0,0,0,0,0,0,1,0,1
2.8338772,0,0,NaN,NaN,NaN,NaN,0,0,0,0,-30.289356,-29.2895715038628,0,0,0,0,0,0,0,0,0
2.8466896,0,0,NaN,NaN,NaN,NaN,0,0,0,0,-30.533625,-29.5293930125488,0,0,0,0,0,0,0,0,0
2.8533633,642,1,1000,1000,1000,1000,0,0,0,0,-30.778875,-29.7701956313811,0,0,0,0,0,0,1,0,1
2.86656,0,0,NaN,NaN,NaN,NaN,0,0,0,0,-31.025106,-30.0119794287152,0,0,0,0,0,0,0,0,0
2.8799509,0,0,NaN,NaN,NaN,NaN,0,0,0,0,-31.272318,-30.2547444700172,0,0,0,0,0,0,0,0,0
2.8871935,643,1,1000,1000,1000,1000,0,0,0,0,-31.520511,-30.4984908178594,0,0,0,0,0,0,1,0,1
2.9014794,0,0,NaN,NaN,NaN,NaN,0,0,0,0,-31.769685,-30.7432185319219,0,0,0,0,0,0,0,0,0
2.9155696,0,0,NaN,NaN,NaN,NaN,0,0,0,0,-32.01984,-30.9889276689982,0,0,0,0,0,0,0,0,0
2.9202969,644,1,1000,1000,1000,1000,0,0,0,0,-32.270976,-31.2356182830065,0,0,0,0,0,0,1,0,1
2.9330696,0,0,NaN,NaN,NaN,NaN,0,0,0,0,-32.523093,-31.4832904250047,0,0,0,0,0,0,0,0,0
2.9456118,0,0,NaN,NaN,NaN,NaN,0,0,0,0,-32.776191,-31.7319441432107,0,0,0,0,0,0,0,0,0
2.9538143,645,1,1000,1000,1000,1000,0,0,0,0,-33.03027,-31.9815794830258,0,0,0,0,0,0,1,0,1
2.9670763,0,0,NaN,NaN,NaN,NaN,0,0,0,0,-33.28533,-32.2321964870628,0,0,0,0,0,0,0,0,0
2.9809362,0,0,NaN,NaN,NaN,NaN,0,0,0,0,-33.541371,-32.4837951951777,0,0,0,0,0,0,0,0,0
2.9873195,646,1,1000,1000,1000,1000,0,0,0,0,-33.798393,-32.736375644505,0,0,0,0,0,0,1,0,1
3.0012447,0,0,NaN,NaN,NaN,NaN,0,0,0,0,-34.056396,-32.9899378694959,0,0,0,0,0,0,0,0,0
3.0134173,0,0,NaN,NaN,NaN,NaN,0,0,0,0,-34.31538,-33.2444819019607,0,0,0,0,0,0,0,0,0
3.0242372,647,1,1000,1000,1000,1000,0,0,0,0,-34.575345,-33.500007771113,0,0,0,0,0,0,1,0,1
3.0375697,0,0,NaN,NaN,NaN,NaN,0,0,0,0,-34.836291,-33.7565155036177,0,0,0,0,0,0,0,0,0
3.051366,0,0,NaN,NaN,NaN,NaN,0,0,0,0,-35.098218,-34.0140051236407,0,0,0,0,0,0,0,0,0
3.0578216,648,1,1000,1000,1000,1000,0,0,0,0,-35.361126,-34.272476652902,0,0,0,0,0,0,1,0,1
3.0727623,0,0,NaN,NaN,NaN,NaN,0,0,0,0,-35.625015,-34.5319301107302,0,0,0,0,0,0,0,0,0
3.0863661,0,0,NaN,NaN,NaN,NaN,0,0,0,0,-35.889885,-34.7923655141194,0,0,0,0,0,0,0,0,0
3.0913783,649,1,1000,1000,1000,1000,0,0,0,0,-36.155736,-35.0537828777883,0,0,0,0,0,0,1,0,1
3.1045151,0,0,NaN,NaN,NaN,NaN,0,0,0,0,-36.422568,-35.3161822142402,0,0,0,0,0,0,0,0,0
3.1181065,0,0,NaN,NaN,NaN,NaN,0,0,0,0,-36.690381,-35.5795635338255,0,0,0,0,0,0,0,0,0
3.1289503,650,1,1000,1000,1000,1000,0,0,0,0,-36.959175,-35.8439268448048,0,0,0,0,0,0,1,0,1
3.143576,0,0,NaN,NaN,NaN,NaN,0,0,0,0,-37.22895,-36.1092721534137,0,0,0,0,0,0,0,0,0
3.1565317,0,0,NaN,NaN,NaN,NaN,0,0,0,0,-37.499706,-36.3755994639284,0,0,0,0,0,0,0,0,0
3.1619683,651,1,1000,1000,1000,1000,0,0,0,0,-37.771443,-36.6429087787324,0,0,0,0,0,0,1,0,1
3.1764298,0,0,NaN,NaN,NaN,NaN,0,0,0,0,-38.044161,-36.9112000983838,0,0,0,0,0,0,0,0,0
3.1899368,0,0,NaN,NaN,NaN,NaN,0,0,0,0,-38.31786,-37.1804734216831,0,0,0,0,0,0,0,0,0
3.1951853,652,1,1000,1000,1000,1000,0,0,0,0,-38.59254,-37.450728745742,0,0,0,0,0,0,1,0,1
3.208684,0,0,NaN,NaN,NaN,NaN,0,0,0,0,-38.868201,-37.7219660660518,0,0,0,0,0,0,0,0,0
3.2225364,0,0,NaN,NaN,NaN,NaN,0,0,0,0,-39.144843,-37.9941853765525,0,0,0,0,0,0,0,0,0
3.2289894,653,1,1000,1000,1000,1000,0,0,0,0,-39.422466,-38.267386669702,0,0,0,0,0,0,1,0,1
3.2436466,0,0,NaN,NaN,NaN,NaN,0,0,0,0,-39.70107,-38.541569936545,0,0,0,0,0,0,0,0,0
3.2561974,0,0,NaN,NaN,NaN,NaN,0,0,0,0,-39.9806549999999,-38.8167351667816,0,0,0,0,0,0,0,0,0
3.2620111,654,1,1000,1000,1000,1000,0,0,0,0,-40.2612209999999,-39.0928823488363,0,0,0,0,0,0,1,0,1
3.2753397,0,0,NaN,NaN,NaN,NaN,0,0,0,0,-40.5427679999999,-39.3700114699259,0,0,0,0,0,0,0,0,0
3.2888273,0,0,NaN,NaN,NaN,NaN,0,0,0,0,-40.8252959999999,-39.648122516127,0,0,0,0,0,0,0,0,0
3.2954904,655,1,1000,1000,1000,1000,0,0,0,0,-41.1088049999999,-39.9272154724437,0,0,0,0,0,0,1,0,1
3.3098648,0,0,NaN,NaN,NaN,NaN,0,0,0,0,-41.3932949999999,-40.2072903228736,0,0,0,0,0,0,0,0,0
3.3230944,0,0,NaN,NaN,NaN,NaN,0,0,0,0,-41.6787659999999,-40.4883470504732,0,0,0,0,0,0,0,0,0
3.3330555,656,1,1000,1000,1000,1000,0,0,0,0,-41.9652179999999,-40.7703856374235,0,0,0,0,0,0,1,0,1
3.347387,0,0,NaN,NaN,NaN,NaN,0,0,0,0,-42.2526509999999,-41.0534060650931,0,0,0,0,0,0,0,0,0
3.3607407,0,0,NaN,NaN,NaN,NaN,0,0,0,0,-42.5410649999999,-41.3374083141014,0,0,0,0,0,0,0,0,0
3.3700642,657,1,1000,1000,1000,1000,0,0,0,0,-42.8304599999999,-41.6223923643804,0,0,0,0,0,0,1,0,1
3.3839147,0,0,NaN,NaN,NaN,NaN,0,0,0,0,-43.1208359999999,-41.9083581952352,0,0,0,0,0,0,0,0,0
3.3976187,0,0,NaN,NaN,NaN,NaN,0,0,0,0,-43.4121929999999,-42.1953057854035,0,0,0,0,0,0,0,0,0
3.4037285,658,1,1000,1000,1000,1000,0,0,0,0,-43.7045309999999,-42.4832351131139,0,0,0,0,0,0,1,0,1
3.4167349,0,0,NaN,NaN,NaN,NaN,0,0,0,0,-43.9978499999999,-42.7721461561425,0,0,0,0,0,0,0,0,0
3.4300738,0,0,NaN,NaN,NaN,NaN,0,0,0,0,-44.2921499999999,-43.0620388918685,0,0,0,0,0,0,0,0,0
3.4408742,659,1,1000,1000,1000,1000,0,0,0,0,-44.5874309999999,-43.3529132973284,0,0,0,0,0,0,1,0,1
3.4543667,0,0,NaN,NaN,NaN,NaN,0,0,0,0,-44.8836929999999,-43.6447693492683,0,0,0,0,0,0,0,0,0
3.4677442,0,0,NaN,NaN,NaN,NaN,0,0,0,0,-45.1809359999999,-43.9376070241955,0,0,0,0,0,0,0,0,0
3.4740004,660,1,1000,1000,1000,1000,0,0,0,0,-45.4791599999999,-44.2314262984275,0,0,0,0,0,0,1,0,1
3.4886218,0,0,NaN,NaN,NaN,NaN,0,0,0,0,-45.7783649999999,-44.5262271481409,0,0,0,0,0,0,0,0,0
3.5020314,0,0,NaN,NaN,NaN,NaN,0,0,0,0,-46.0785509999999,-44.8220095494171,0,0,0,0,0,0,0,0,0
3.5073497,661,1,1000,1000,1000,1000,0,0,0,0,-46.3797179999999,-45.1187734782878,0,0,0,0,0,0,1,0,1
3.5205071,0,0,NaN,NaN,NaN,NaN,0,0,0,0,-46.6818659999999,-45.4165189107778,0,0,0,0,0,0,0,0,0
3.5343296,0,0,NaN,NaN,NaN,NaN,0,0,0,0,-46.9849949999999,-45.7152458229471,0,0,0,0,0,0,0,0,0
3.5408567,662,1,1000,1000,1000,1000,0,0,0,0,-47.2891049999999,-46.0149541909309,0,0,0,0,0,0,1,0,1
3.553791,0,0,NaN,NaN,NaN,NaN,0,0,0,0,-47.5941959999999,-46.3156439909777,0,0,0,0,0,0,0,0,0
3.566287,0,0,NaN,NaN,NaN,NaN,0,0,0,0,-47.9002679999999,-46.6173151994863,0,0,0,0,0,0,0,0,0
3.5742053,663,1,1000,1000,1000,1000,0,0,0,0,-48.2073209999999,-46.919967793041,0,0,0,0,0,0,1,0,1
3.5887246,0,0,NaN,NaN,NaN,NaN,0,0,0,0,-48.5153549999999,-47.2236017484446,0,0,0,0,0,0,0,0,0
3.6016887,0,0,NaN,NaN,NaN,NaN,0,0,0,0,-48.8243699999999,-47.5282170427508,0,0,0,0,0,0,0,0,0
3.6078878,664,1,1000,1000,1000,1000,0,0,0,0,-49.1343659999999,-47.8338136532942,0,0,0,0,0,0,1,0,1
3.6210239,0,0,NaN,NaN,NaN,NaN,0,0,0,0,-49.4453429999999,-48.1403915577186,0,0,0,0,0,0,0,0,0
3.6355818,0,0,NaN,NaN,NaN,NaN,0,0,0,0,-49.7573009999999,-48.4479507340042,0,0,0,0,0,0,0,0,0
3.6421892,665,1,1000,1000,1000,1000,0,0,0,0,-50.0702399999999,-48.7564911604928,0,0,0,0,0,0,1,0,1
3.6567769,0,0,NaN,NaN,NaN,NaN,0,0,0,0,-50.3841599999999,-49.066012815912,0,0,0,0,0,0,0,0,0
3.6704059,0,0,NaN,NaN,NaN,NaN,0,0,0,0,-50.6990609999999,-49.3765156793966,0,0,0,0,0,0,0,0,0
3.6786491,666,1,1000,1000,1000,1000,0,0,0,0,-51.0149429999999,-49.68799973051,0,0,0,0,0,0,1,0,1
3.6925235,0,0,NaN,NaN,NaN,NaN,0,0,0,0,-51.3318059999999,-50.0004649492631,0,0,0,0,0,0,0,0,0
3.7061438,0,0,NaN,NaN,NaN,NaN,0,0,0,0,-51.6496499999999,-50.3139113161317,0,0,0,0,0,0,0,0,0
3.7162501,667,1,1000,1000,1000,1000,0,0,0,0,-51.9684749999999,-50.6283388120731,0,0,0,0,0,0,1,0,1
3.729734,0,0,NaN,NaN,NaN,NaN,0,0,0,0,-52.2882809999999,-50.9437474185405,0,0,0,0,0,0,0,0,0
3.7434447,0,0,NaN,NaN,NaN,NaN,0,0,0,0,-52.6090679999999,-51.2601371174964,0,0,0,0,0,0,0,0,0
3.749456,668,1,1000,1000,1000,1000,0,0,0,0,-52.9308359999999,-51.5775078914247,0,0,0,0,0,0,1,0,1
3.7621728,0,0,NaN,NaN,NaN,NaN,0,0,0,0,-53.2535849999999,-51.8958597233411,0,0,0,0,0,0,0,0,0
3.7756165,0,0,NaN,NaN,NaN,NaN,0,0,0,0,-53.5773149999999,-52.2151925968024,0,0,0,0,0,0,0,0,0
3.7869323,669,1,1000,1000,1000,1000,0,0,0,0,-53.9020259999999,-52.5355064959145,0,0,0,0,0,0,1,0,1
3.8009216,0,0,NaN,NaN,NaN,NaN,0,0,0,0,-54.2277179999999,-52.8568014053393,0,0,0,0,0,0,0,0,0
3.8145065,0,0,NaN,NaN,NaN,NaN,0,0,0,0,-54.5543909999999,-53.1790773102997,0,0,0,0,0,0,0,0,0
3.8204801,670,1,1000,1000,1000,1000,0,0,0,0,-54.8820449999999,-53.5023341965846,0,0,0,0,0,0,1,0,1
3.833439,0,0,NaN,NaN,NaN,NaN,0,0,0,0,-55.2106799999999,-53.8265720505517,0,0,0,0,0,0,0,0,0
3.8469909,0,0,NaN,NaN,NaN,NaN,0,0,0,0,-55.5402959999999,-54.1517908591296,0,0,0,0,0,0,0,0,0
3.857385,671,1,1000,1000,1000,1000,0,0,0,0,-55.8708929999999,-54.4779906098191,0,0,0,0,0,0,1,0,1
3.8709985,0,0,NaN,NaN,NaN,NaN,0,0,0,0,-56.2024709999999,-54.8051712906928,0,0,0,0,0,0,0,0,0
3.8844928,0,0,NaN,NaN,NaN,NaN,0,0,0,0,-56.5350299999999,-55.1333328903943,0,0,0,0,0,0,0,0,0
3.8926079,672,1,1000,1000,1000,1000,0,0,0,0,-56.8685699999999,-55.4624753981365,0,0,0,0,0,0,1,0,1
3.9062523,0,0,NaN,NaN,NaN,NaN,0,0,0,0,-57.2030909999999,-55.7925988036984,0,0,0,0,0,0,0,0,0
3.9201009,0,0,NaN,NaN,NaN,NaN,0,0,0,0,-57.5385929999999,-56.1237030974215,0,0,0,0,0,0,0,0,0
3.9239499,673,1,1000,1000,1000,1000,0,0,0,0,-57.8750759999999,-56.4557882702053,0,0,0,0,0,0,1,0,1
3.9382174,0,0,NaN,NaN,NaN,NaN,0,0,0,0,-58.2125399999999,-56.7888543135018,0,0,0,0,0,0,0,0,0
3.952006,0,0,NaN,NaN,NaN,NaN,0,0,0,0,-58.5509849999999,-57.1229012193097,0,0,0,0,0,0,0,0,0
3.9579999,674,1,1000,1000,1000,1000,0,0,0,0,-58.8904109999999,-57.4579289801674,0,0,0,0,0,0,1,0,1
3.9710141,0,0,NaN,NaN,NaN,NaN,0,0,0,0,-59.2308179999999,-57.7939375891453,0,0,0,0,0,0,0,0,0
3.9844852,0,0,NaN,NaN,NaN,NaN,0,0,0,0,-59.5722059999999,-58.1309270398382,0,0,0,0,0,0,0,0,0
3.9949358,675,1,1000,1000,1000,1000,0,0,0,0,-59.9145749999999,-58.4688973263561,0,0,0,0,0,0,1,0,1
4.0092751,0,0,NaN,NaN,NaN,NaN,0,0,0,0,-60.2579249999999,-58.8078484433151,0,0,0,0,0,0,0,0,0
4.0226697,0,0,NaN,NaN,NaN,NaN,0,0,0,0,-60.6022559999999,-59.1477803858277,0,0,0,0,0,0,0,0,0
4.028587,676,1,1000,1000,1000,1000,0,0,0,0,-60.9475679999999,-59.4886931494923,0,0,0,0,0,0,1,0,1
4.0410886,0,0,NaN,NaN,NaN,NaN,0,0,0,0,-61.2938609999999,-59.8305867303826,0,0,0,0,0,0,0,0,0
4.0533322,0,0,NaN,NaN,NaN,NaN,0,0,0,0,-61.6411349999998,-60.1734611250364,0,0,0,0,0,0,0,0,0
4.0669791,0,0,NaN,NaN,NaN,NaN,0,0,0,0,-61.9893899999999,-60.517316330444,0,0,0,0,0,0,0,0,0
4.0804685,0,0,NaN,NaN,NaN,NaN,0,0,0,0,-62.3386259999998,-60.8621523440364,0,0,0,0,0,0,0,0,0
4.0937988,0,0,NaN,NaN,NaN,NaN,0,0,0,0,-62.6888429999998,-61.2079691636731,0,0,0,0,0,0,0,0,0
4.1004623,677,1,1000,1000,1000,1000,0,0,0,0,-63.0400409999998,-61.5547667876295,0,0,0,0,0,0,1,0,1
4.1127871,0,0,NaN,NaN,NaN,NaN,0,0,0,0,-63.3922199999998,-61.9025452145842,0,0,0,0,0,0,0,0,0
4.1259113,0,0,NaN,NaN,NaN,NaN,0,0,0,0,-63.7453799999998,-62.2513044436063,0,0,0,0,0,0,0,0,0
4.1367255,678,1,1000,1000,1000,1000,0,0,0,0,-64.0995209999998,-62.601044474142,0,0,0,0,0,0,1,0,1
4.1499554,0,0,NaN,NaN,NaN,NaN,0,0,0,0,-64.4546429999998,-62.9517653060014,0,0,0,0,0,0,0,0,0
4.1624649,0,0,NaN,NaN,NaN,NaN,0,0,0,0,-64.8107459999998,-63.3034669393449,0,0,0,0,0,0,0,0,0
4.1704183,679,1,1000,1000,1000,1000,0,0,0,0,-65.1678299999998,-63.6561493746703,0,0,0,0,0,0,1,0,1
4.1840544,0,0,NaN,NaN,NaN,NaN,0,0,0,0,-65.5258949999998,-64.0098126127983,0,0,0,0,0,0,0,0,0
4.1962677,0,0,NaN,NaN,NaN,NaN,0,0,0,0,-65.8849409999998,-64.3644566548597,0,0,0,0,0,0,0,0,0
4.2075772,680,1,1000,1000,1000,1000,0,0,0,0,-66.2449679999998,-64.7200815022812,0,0,0,0,0,0,1,0,1
4.2208009,0,0,NaN,NaN,NaN,NaN,0,0,0,0,-66.6059759999998,-65.0766871567722,0,0,0,0,0,0,0,0,0
4.2336651,0,0,NaN,NaN,NaN,NaN,0,0,0,0,-66.9679649999998,-65.4342736203107,0,0,0,0,0,0,0,0,0
4.2407019,681,1,1000,1000,1000,1000,0,0,0,0,-67.3309349999998,-65.7928408951301,0,0,0,0,0,0,1,0,1
4.2539818,0,0,NaN,NaN,NaN,NaN,0,0,0,0,-67.6948859999998,-66.1523889837055,0,0,0,0,0,0,0,0,0
4.2674183,0,0,NaN,NaN,NaN,NaN,0,0,0,0,-68.0598179999998,-66.5129178887404,0,0,0,0,0,0,0,0,0
4.2742215,682,1,1000,1000,1000,1000,0,0,0,0,-68.4257309999998,-66.8744276131535,0,0,0,0,0,0,1,0,1
4.2879059,0,0,NaN,NaN,NaN,NaN,0,0,0,0,-68.7926249999998,-67.2369181600653,0,0,0,0,0,0,0,0,0
4.2998389,0,0,NaN,NaN,NaN,NaN,0,0,0,0,-69.1604999999998,-67.600389532785,0,0,0,0,0,0,0,0,0
4.3074812,683,1,1000,1000,1000,1000,0,0,0,0,-69.5293559999998,-67.9648417347982,0,0,0,0,0,0,1,0,1
4.3211915,0,0,NaN,NaN,NaN,NaN,0,0,0,0,-69.8991929999998,-68.3302747697537,0,0,0,0,0,0,0,0,0
4.3353954,0,0,NaN,NaN,NaN,NaN,0,0,0,0,-70.2700109999998,-68.696688641451,0,0,0,0,0,0,0,0,0
4.3417351,684,1,1000,1000,1000,1000,0,0,0,0,-70.6418099999998,-69.0640833538287,0,0,0,0,0,0,1,0,1
4.3568058,0,0,NaN,NaN,NaN,NaN,0,0,0,0,-71.0145899999998,-69.4324589109516,0,0,0,0,0,0,0,0,0
4.3710404,0,0,NaN,NaN,NaN,NaN,0,0,0,0,-71.3883509999998,-69.8018153169994,0,0,0,0,0,0,0,0,0
4.3746377,685,1,1000,1000,1000,1000,0,0,0,0,-71.7630929999998,-70.172152576255,0,0,0,0,0,0,1,0,1
4.3874499,0,0,NaN,NaN,NaN,NaN,0,0,0,0,-72.1388159999998,-70.5434706930934,0,0,0,0,0,0,0,0,0
4.4011023,0,0,NaN,NaN,NaN,NaN,0,0,0,0,-72.5155199999998,-70.9157696719703,0,0,0,0,0,0,0,0,0
4.4078781,686,1,1000,1000,1000,1000,0,0,0,0,-72.8932049999998,-71.2890495174117,0,0,0,0,0,0,1,0,1
4.4226009,0,0,NaN,NaN,NaN,NaN,0,0,0,0,-73.2718709999998,-71.6633102340031,0,0,0,0,0,0,0,0,0
4.4360653,0,0,NaN,NaN,NaN,NaN,0,0,0,0,-73.6515179999998,-72.0385518263796,0,0,0,0,0,0,0,0,0
4.4414175,687,1,1000,1000,1000,1000,0,0,0,0,-74.0321459999998,-72.4147742992161,0,0,0,0,0,0,1,0,1
4.455,0,0,NaN,NaN,NaN,NaN,0,0,0,0,-74.4137549999998,-72.7919776572171,0,0,0,0,0,0,0,0,0
4.4686678,0,0,NaN,NaN,NaN,NaN,0,0,0,0,-74.7963449999998,-73.1701619051084,0,0,0,0,0,0,0,0,0
4.4754518,688,1,1000,1000,1000,1000,0,0,0,0,-75.1799159999998,-73.5493270476273,0,0,0,0,0,0,1,0,1
4.4881211,0,0,NaN,NaN,NaN,NaN,0,0,0,0,-75.5644679999998,-73.9294730895144,0,0,0,0,0,0,0,0,0
4.5013696,0,0,NaN,NaN,NaN,NaN,0,0,0,0,-75.9500009999998,-74.3106000355051,0,0,0,0,0,0,0,0,0
4.511529,689,1,1000,1000,1000,1000,0,0,0,0,-76.3365149999998,-74.6927078903219,0,0,0,0,0,0,1,0,1
4.52449,0,0,NaN,NaN,NaN,NaN,0,0,0,0,-76.7240099999998,-75.0757966586663,0,0,0,0,0,0,0,0,0
4.5379612,0,0,NaN,NaN,NaN,NaN,0,0,0,0,-77.1124859999998,-75.4598663452118,0,0,0,0,0,0,0,0,0
4.5455924,690,1,1000,1000,1000,1000,0,0,0,0,-77.5019429999998,-75.8449169545969,0,0,0,0,0,0,1,0,1
4.5588996,0,0,NaN,NaN,NaN,NaN,0,0,0,0,-77.8923809999998,-76.230948491418,0,0,0,0,0,0,0,0,0
4.5710617,0,0,NaN,NaN,NaN,NaN,0,0,0,0,-78.2837999999998,-76.6179609602236,0,0,0,0,0,0,0,0,0
4.5786912,691,1,1000,1000,1000,1000,0,0,0,0,-78.6761999999998,-77.0059543655079,0,0,0,0,0,0,1,0,1
4.5917687,0,0,NaN,NaN,NaN,NaN,0,0,0,0,-79.0695809999998,-77.394928711705,0,0,0,0,0,0,0,0,0
4.6060485,0,0,NaN,NaN,NaN,NaN,0,0,0,0,-79.4639429999998,-77.7848840031838,0,0,0,0,0,0,0,0,0
4.6189317,692,1,1000,1000,1000,1000,0,0,0,0,-79.8592859999998,-78.175820244243,0,0,0,0,0,0,1,0,1
4.6348301,0,0,NaN,NaN,NaN,NaN,0,0,0,0,-80.2556099999998,-78.5677374391057,0,0,0,0,0,0,0,0,0
4.6490627,0,0,NaN,NaN,NaN,NaN,0,0,0,0,-80.6529149999998,-78.9606355919156,0,0,0,0,0,0,0,0,0
4.6556974,693,1,1000,1000,1000,1000,0,0,0,0,-81.0512009999998,-79.3545147067325,0,0,0,0,0,0,1,0,1
4.6721463,0,0,NaN,NaN,NaN,NaN,0,0,0,0,-81.4504679999998,-79.7493747875288,0,0,0,0,0,0,0,0,0
4.6860854,0,0,NaN,NaN,NaN,NaN,0,0,0,0,-81.8507159999998,-80.1452158381853,0,0,0,0,0,0,0,0,0
4.6920051,694,1,1000,1000,1000,1000,0,0,0,0,-82.2519449999998,-80.5420378624887,0,0,0,0,0,0,1,0,1
4.7070169,0,0,NaN,NaN,NaN,NaN,0,0,0,0,-82.6541549999998,-80.9398408641279,0,0,0,0,0,0,0,0,0
4.7210255,0,0,NaN,NaN,NaN,NaN,0,0,0,0,-83.0573459999998,-81.3386248466921,0,0,0,0,0,0,0,0,0
4.7253039,695,1,1000,1000,1000,1000,0,0,0,0,-83.4615179999998,-81.7383898136676,0,0,0,0,0,0,1,0,1
4.7388337,0,0,NaN,NaN,NaN,NaN,0,0,0,0,-83.8666709999998,-82.139135768436,0,0,0,0,0,0,0,0,0
4.752216,0,0,NaN,NaN,NaN,NaN,0,0,0,0,-84.2728049999998,-82.5408627142725,0,0,0,0,0,0,0,0,0
4.7618079,696,1,1000,1000,1000,1000,0,0,0,0,-84.6799199999998,-82.943570654344,0,0,0,0,0,0,1,0,1
4.7754379,0,0,NaN,NaN,NaN,NaN,0,0,0,0,-85.0880159999998,-83.3472595917077,0,0,0,0,0,0,0,0,0
4.7891108,0,0,NaN,NaN,NaN,NaN,0,0,0,0,-85.4970929999998,-83.75192952931,0,0,0,0,0,0,0,0,0
4.7948459,697,1,1000,1000,1000,1000,0,0,0,0,-85.9071509999998,-84.1575804699859,0,0,0,0,0,0,1,0,1
4.8075035,0,0,NaN,NaN,NaN,NaN,0,0,0,0,-86.3181899999998,-84.5642124164576,0,0,0,0,0,0,0,0,0
4.8200358,0,0,NaN,NaN,NaN,NaN,0,0,0,0,-86.7302099999998,-84.971825371335,0,0,0,0,0,0,0,0,0
4.8331216,698,1,1000,1000,1000,1000,0,0,0,0,-87.1432109999998,-85.3804193371145,0,0,0,0,0,0,1,0,1
4.8458978,0,0,NaN,NaN,NaN,NaN,0,0,0,0,-87.5571929999998,-85.7899943161797,0,0,0,0,0,0,0,0,0
4.8593275,0,0,NaN,NaN,NaN,NaN,0,0,0,0,-87.9721559999998,-86.200550310801,0,0,0,0,0,0,0,0,0
4.8661823,699,1,1000,1000,1000,1000,0,0,0,0,-88.3880999999998,-86.6120873231364,0,0,0,0,0,0,1,0,1
4.8796563,0,0,NaN,NaN,NaN,NaN,0,0,0,0,-88.8050249999998,-87.0246053552315,0,0,0,0,0,0,0,0,0
4.8932618,0,0,NaN,NaN,NaN,NaN,0,0,0,0,-89.2229309999998,-87.438104409021,0,0,0,0,0,0,0,0,0
4.899634,700,1,1000,1000,1000,1000,0,0,0,0,-89.6418179999998,-87.8525844863285,0,0,0,0,0,0,1,0,1
4.9135204,0,0,NaN,NaN,NaN,NaN,0,0,0,0,-90.0616859999998,-88.2680455888685,0,0,0,0,0,0,0,0,0
4.9262412,0,0,NaN,NaN,NaN,NaN,0,0,0,0,-90.4825349999998,-88.6844877182471,0,0,0,0,0,0,0,0,0
4.9340197,701,1,1000,1000,1000,1000,0,0,0,0,-90.9043649999998,-89.1019108759632,0,0,0,0,0,0,1,0,1
4.9470997,0,0,NaN,NaN,NaN,NaN,0,0,0,0,-91.3271759999998,-89.5203150634103,0,0,0,0,0,0,0,0,0
4.9604818,0,0,NaN,NaN,NaN,NaN,0,0,0,0,-91.7509679999998,-89.9397002818777,0,0,0,0,0,0,0,0,0
4.9707548,702,1,1000,1000,1000,1000,0,0,0,0,-92.1757409999998,-90.3600665325528,0,0,0,0,0,0,1,0,1
4.9852291,0,0,NaN,NaN,NaN,NaN,0,0,0,0,-92.6014949999998,-90.7814138165222,0,0,0,0,0,0,0,0,0
4.9985293,0,0,NaN,NaN,NaN,NaN,0,0,0,0,-93.0282299999998,-91.2037421347739,0,0,0,0,0,0,0,0,0
5.0078401,703,1,1000,1000,1000,1000,0,0,0,0,-93.4559459999998,-91.6270514881995,0,0,0,0,0,0,1,0,1
5.0217739,0,0,NaN,NaN,NaN,NaN,0,0,0,0,-93.8846429999998,-92.0513418775962,0,0,0,0,0,0,0,0,0
5.0350371,0,0,NaN,NaN,NaN,NaN,0,0,0,0,-94.3143209999998,-92.4766133036687,0,0,0,0,0,0,0,0,0
5.045439,704,1,1000,1000,1000,1000,0,0,0,0,-94.7449799999998,-92.9028657670321,0,0,0,0,0,0,1,0,1
5.0593072,0,0,NaN,NaN,NaN,NaN,0,0,0,0,-95.1766199999998,-93.3300992682134,0,0,0,0,0,0,0,0,0
5.07193,0,0,NaN,NaN,NaN,NaN,0,0,0,0,-95.6092409999998,-93.7583138076546,0,0,0,0,0,0,0,0,0
5.0786297,705,1,1000,1000,1000,1000,0,0,0,0,-96.0428429999998,-94.1875093857149,0,0,0,0,0,0,1,0,1
5.0914463,0,0,NaN,NaN,NaN,NaN,0,0,0,0,-96.4774259999999,-94.6176860026731,0,0,0,0,0,0,0,0,0
5.1035551,0,0,NaN,NaN,NaN,NaN,0,0,0,0,-96.9129899999999,-95.0488436587303,0,0,0,0,0,0,0,0,0
5.112024,706,1,1000,1000,1000,1000,0,0,0,0,-97.3495349999998,-95.4809823540126,0,0,0,0,0,0,1,0,1
5.1248864,0,0,NaN,NaN,NaN,NaN,0,0,0,0,-97.7870609999999,-95.9141020885732,0,0,0,0,0,0,0,0,0
5.1377559,0,0,NaN,NaN,NaN,NaN,0,0,0,0,-98.2255679999999,-96.3482028623958,0,0,0,0,0,0,0,0,0
5.1450378,707,1,1000,1000,1000,1000,0,0,0,0,-98.6650559999999,-96.7832846753967,0,0,0,0,0,0,1,0,1
5.1581197,0,0,NaN,NaN,NaN,NaN,0,0,0,0,-99.1055249999999,-97.2193475274275,0,0,0,0,0,0,0,0,0
5.1710142,0,0,NaN,NaN,NaN,NaN,0,0,0,0,-99.5469749999999,-97.6563914182783,0,0,0,0,0,0,0,0,0
5.1787076,708,1,1000,1000,1000,1000,0,0,0,0,-99.9894059999999,-98.0944163476797,0,0,0,0,0,0,1,0,1
5.1915185,0,0,NaN,NaN,NaN,NaN,0,0,0,0,-100.432818,-98.5334223153062,0,0,0,0,0,0,0,0,0
5.2051258,0,0,NaN,NaN,NaN,NaN,0,0,0,0,-100.877211,-98.9734093207782,0,0,0,0,0,0,0,0,0
5.2121486,709,1,1000,1000,1000,1000,0,0,0,0,-101.322585,-99.4143773636653,0,0,0,0,0,0,1,0,1
5.2251165,0,0,NaN,NaN,NaN,NaN,0,0,0,0,-101.76894,-99.8563264434886,0,0,0,0,0,0,0,0,0
5.238881,0,0,NaN,NaN,NaN,NaN,0,0,0,0,-102.216276,-100.299256559723,0,0,0,0,0,0,0,0,0
5.2451591,710,1,1000,1000,1000,1000,0,0,0,0,-102.664593,-100.743167711802,0,0,0,0,0,0,1,0,1
5.2581244,0,0,NaN,NaN,NaN,NaN,0,0,0,0,-103.113891,-101.188059899116,0,0,0,0,0,0,0,0,0
5.2716785,0,0,NaN,NaN,NaN,NaN,0,0,0,0,-103.56417,-101.633933121019,0,0,0,0,0,0,0,0,0
5.2831188,711,1,1000,1000,1000,1000,0,0,0,0,-104.01543,-102.080787376831,0,0,0,0,0,0,1,0,1
5.2978663,0,0,NaN,NaN,NaN,NaN,0,0,0,0,-104.467671,-102.528622665835,0,0,0,0,0,0,0,0,0
5.3115294,0,0,NaN,NaN,NaN,NaN,0,0,0,0,-104.920893,-102.977438987289,0,0,0,0,0,0,0,0,0
5.319942,712,1,1000,1000,1000,1000,0,0,0,0,-105.375096,-103.427236340418,0,0,0,0,0,0,1,0,1
5.3328993,0,0,NaN,NaN,NaN,NaN,0,0,0,0,-105.83028,-103.878014724425,0,0,0,0,0,0,0,0,0
5.3462898,0,0,NaN,NaN,NaN,NaN,0,0,0,0,-106.286445,-104.329774138487,0,0,0,0,0,0,0,0,0
5.3533734,713,1,1000,1000,1000,1000,0,0,0,0,-106.743591,-104.782514581764,0,0,0,0,0,0,1,0,1
5.3665864,0,0,NaN,NaN,NaN,NaN,0,0,0,0,-107.201718,-105.236236053393,0,0,0,0,0,0,0,0,0
5.3799887,0,0,NaN,NaN,NaN,NaN,0,0,0,0,-107.660826,-105.690938552497,0,0,0,0,0,0,0,0,0
5.3870541,714,1,1000,1000,1000,1000,0,0,0,0,-108.120915,-106.146622078184,0,0,0,0,0,0,1,0,1
5.4001955,0,0,NaN,NaN,NaN,NaN,0,0,0,0,-108.581985,-106.603286629551,0,0,0,0,0,0,0,0,0
5.4127049,0,0,NaN,NaN,NaN,NaN,0,0,0,0,-109.044036,-107.060932205681,0,0,0,0,0,0,0,0,0
5.4202908,715,1,1000,1000,1000,1000,0,0,0,0,-109.507068,-107.519558805654,0,0,0,0,0,0,1,0,1
5.433178,0,0,NaN,NaN,NaN,NaN,0,0,0,0,-109.971081,-107.979166428539,0,0,0,0,0,0,0,0,0
5.4458701,0,0,NaN,NaN,NaN,NaN,0,0,0,0,-110.436075,-108.439755073404,0,0,0,0,0,0,0,0,0
5.4575246,716,1,1000,1000,1000,1000,0,0,0,0,-110.90205,-108.901324739312,0,0,0,0,0,0,1,0,1
5.4710123,0,0,NaN,NaN,NaN,NaN,0,0,0,0,-111.369006,-109.363875425326,0,0,0,0,0,0,0,0,0
5.4843073,0,0,NaN,NaN,NaN,NaN,0,0,0,0,-111.836943,-109.827407130509,0,0,0,0,0,0,0,0,0
5.4917223,717,1,1000,1000,1000,1000,0,0,0,0,-112.305861,-110.291919853926,0,0,0,0,0,0,1,0,1
5.5057562,0,0,NaN,NaN,NaN,NaN,0,0,0,0,-112.77576,-110.757413594648,0,0,0,0,0,0,0,0,0
5.5198753,0,0,NaN,NaN,NaN,NaN,0,0,0,0,-113.24664,-111.223888351749,0,0,0,0,0,0,0,0,0
5.5251641,718,1,1000,1000,1000,1000,0,0,0,0,-113.718501,-111.691344124309,0,0,0,0,0,0,1,0,1
5.5396427,0,0,NaN,NaN,NaN,NaN,0,0,0,0,-114.191343,-112.159780911419,0,0,0,0,0,0,0,0,0
5.5531153,0,0,NaN,NaN,NaN,NaN,0,0,0,0,-114.665166,-112.629198712177,0,0,0,0,0,0,0,0,0
5.5585433,719,1,1000,1000,1000,1000,0,0,0,0,-115.13997,-113.099597525691,0,0,0,0,0,0,1,0,1
5.5723575,0,0,NaN,NaN,NaN,NaN,0,0,0,0,-115.615755,-113.570977351083,0,0,0,0,0,0,0,0,0
5.5856822,0,0,NaN,NaN,NaN,NaN,0,0,0,0,-116.092521,-114.043338187486,0,0,0,0,0,0,0,0,0
5.5952704,720,1,1000,1000,1000,1000,0,0,0,0,-116.570268,-114.516680034045,0,0,0,0,0,0,1,0,1
5.6079795,0,0,NaN,NaN,NaN,NaN,0,0,0,0,-117.048996,-114.991002889924,0,0,0,0,0,0,0,0,0
5.6209423,0,0,NaN,NaN,NaN,NaN,0,0,0,0,-117.528705,-115.466306754299,0,0,0,0,0,0,0,0,0
5.6288603,721,1,1000,1000,1000,1000,0,0,0,0,-118.009395,-115.942591626364,0,0,0,0,0,0,1,0,1
5.643166,0,0,NaN,NaN,NaN,NaN,0,0,0,0,-118.491066,-116.419857505329,0,0,0,0,0,0,0,0,0
5.6568585,0,0,NaN,NaN,NaN,NaN,0,0,0,0,-118.973718,-116.898104390424,0,0,0,0,0,0,0,0,0
5.6620834,722,1,1000,1000,1000,1000,0,0,0,0,-119.457351,-117.377332280894,0,0,0,0,0,0,1,0,1
5.67665,0,0,NaN,NaN,NaN,NaN,0,0,0,0,-119.941965,-117.857541176007,0,0,0,0,0,0,0,0,0
5.6901261,0,0,NaN,NaN,NaN,NaN,0,0,0,0,-120.42756,-118.338731075049,0,0,0,0,0,0,0,0,0
5.6954264,723,1,1000,1000,1000,1000,0,0,0,0,-120.914136,-118.820901977325,0,0,0,0,0,0,1,0,1
5.7088575,0,0,NaN,NaN,NaN,NaN,0,0,0,0,-121.401693,-119.304053882162,0,0,0,0,0,0,0,0,0
5.7226246,0,0,NaN,NaN,NaN,NaN,0,0,0,0,-121.890231,-119.788186788908,0,0,0,0,0,0,0,0,0
5.7333536,724,1,1000,1000,1000,1000,0,0,0,0,-122.37975,-120.273300696932,0,0,0,0,0,0,1,0,1
5.7481227,0,0,NaN,NaN,NaN,NaN,0,0,0,0,-122.87025,-120.759395605625,0,0,0,0,0,0,0,0,0
5.7611061,0,0,NaN,NaN,NaN,NaN,0,0,0,0,-123.361731,-121.246471514399,0,0,0,0,0,0,0,0,0
5.7670422,725,1,1000,1000,1000,1000,0,0,0,0,-123.854193,-121.734528422689,0,0,0,0,0,0,1,0,1
5.7803476,0,0,NaN,NaN,NaN,NaN,0,0,0,0,-124.347636,-122.223566329952,0,0,0,0,0,0,0,0,0
5.7937869,0,0,NaN,NaN,NaN,NaN,0,0,0,0,-124.84206,-122.713585235666,0,0,0,0,0,0,0,0,0
5.8036809,726,1,1000,1000,1000,1000,0,0,0,0,-125.337465,-123.204585139333,0,0,0,0,0,0,1,0,1
5.8185537,0,0,NaN,NaN,NaN,NaN,0,0,0,0,-125.833851,-123.696566040477,0,0,0,0,0,0,0,0,0
5.8311437,0,0,NaN,NaN,NaN,NaN,0,0,0,0,-126.331218,-124.189527938643,0,0,0,0,0,0,0,0,0
5.8366673,727,1,1000,1000,1000,1000,0,0,0,0,-126.829566,-124.683470833401,0,0,0,0,0,0,1,0,1
5.8497529,0,0,NaN,NaN,NaN,NaN,0,0,0,0,-127.328895,-125.178394724341,0,0,0,0,0,0,0,0,0
5.8638663,0,0,NaN,NaN,NaN,NaN,0,0,0,0,-127.829205,-125.674299611075,0,0,0,0,0,0,0,0,0
5.8700595,728,1,1000,1000,1000,1000,0,0,0,0,-128.330496,-126.171185493239,0,0,0,0,0,0,1,0,1
5.884519,0,0,NaN,NaN,NaN,NaN,0,0,0,0,-128.832768,-126.669052370487,0,0,0,0,0,0,0,0,0
5.8979788,0,0,NaN,NaN,NaN,NaN,0,0,0,0,-129.336021,-127.167900242498,0,0,0,0,0,0,0,0,0
5.9031155,729,1,1000,1000,1000,1000,0,0,0,0,-129.840255,-127.667729108972,0,0,0,0,0,0,1,0,1
5.9176718,0,0,NaN,NaN,NaN,NaN,0,0,0,0,-130.34547,-128.168538969626,0,0,0,0,0,0,0,0,0
5.9313375,0,0,NaN,NaN,NaN,NaN,0,0,0,0,-130.851666,-128.670329824203,0,0,0,0,0,0,0,0,0
5.9364456,730,1,1000,1000,1000,1000,0,0,0,0,-131.358843,-129.173101672463,0,0,0,0,0,0,1,0,1
5.9507352,0,0,NaN,NaN,NaN,NaN,0,0,0,0,-131.867001,-129.676854514187,0,0,0,0,0,0,0,0,0
5.9641046,0,0,NaN,NaN,NaN,NaN,0,0,0,0,-132.37614,-130.181588349174,0,0,0,0,0,0,0,0,0
5.9701157,731,1,1000,1000,1000,1000,0,0,0,0,-132.88626,-130.687303177246,0,0,0,0,0,0,1,0,1
5.984504,0,0,NaN,NaN,NaN,NaN,0,0,0,0,-133.397361,-131.193998998238,0,0,0,0,0,0,0,0,0
5.997771,0,0,NaN,NaN,NaN,NaN,0,0,0,0,-133.909443,-131.70167581201,0,0,0,0,0,0,0,0,0
6.0035206,732,1,1000,1000,1000,1000,0,0,0,0,-134.422506,-132.210333618434,0,0,0,0,0,0,1,0,1
6.0181122,0,0,NaN,NaN,NaN,NaN,0,0,0,0,-134.93655,-132.719972417403,0,0,0,0,0,0,0,0,0
6.0306291,0,0,NaN,NaN,NaN,NaN,0,0,0,0,-135.451575,-133.230592208825,0,0,0,0,0,0,0,0,0
6.0371903,733,1,1000,1000,1000,1000,0,0,0,0,-135.967581,-133.742192992627,0,0,0,0,0,0,1,0,1
6.0497987,0,0,NaN,NaN,NaN,NaN,0,0,0,0,-136.484568,-134.254774768749,0,0,0,0,0,0,0,0,0
6.0624238,0,0,NaN,NaN,NaN,NaN,0,0,0,0,-137.002536,-134.768337537148,0,0,0,0,0,0,0,0,0
6.0748991,734,1,1000,1000,1000,1000,0,0,0,0,-137.521485,-135.282881297796,0,0,0,0,0,0,1,0,1
6.0896216,0,0,NaN,NaN,NaN,NaN,0,0,0,0,-138.041415,-135.79840605068,0,0,0,0,0,0,0,0,0
6.1026555,0,0,NaN,NaN,NaN,NaN,0,0,0,0,-138.562326,-136.314911795799,0,0,0,0,0,0,0,0,0
6.1081034,735,1,1000,1000,1000,1000,0,0,0,0,-139.084218,-136.832398533167,0,0,0,0,0,0,1,0,1
6.1220816,0,0,NaN,NaN,NaN,NaN,0,0,0,0,-139.607091,-137.350866262811,0,0,0,0,0,0,0,0,0
6.1351935,0,0,NaN,NaN,NaN,NaN,0,0,0,0,-140.130945,-137.870314984769,0,0,0,0,0,0,0,0,0
6.1419784,736,1,1000,1000,1000,1000,0,0,0,0,-140.65578,-138.390744699093,0,0,0,0,0,0,1,0,1
6.1546365,0,0,NaN,NaN,NaN,NaN,0,0,0,0,-141.181596,-138.912155405844,0,0,0,0,0,0,0,0,0
6.167378,0,0,NaN,NaN,NaN,NaN,0,0,0,0,-141.708393,-139.434547105094,0,0,0,0,0,0,0,0,0
6.179028,737,1,1000,1000,1000,1000,0,0,0,0,-142.236171,-139.957919796927,0,0,0,0,0,0,1,0,1
6.1935876,0,0,NaN,NaN,NaN,NaN,0,0,0,0,-142.76493,-140.482273481436,0,0,0,0,0,0,0,0,0
6.2077674,0,0,NaN,NaN,NaN,NaN,0,0,0,0,-143.29467,-141.007608158721,0,0,0,0,0,0,0,0,0
6.212263,738,1,1000,1000,1000,1000,0,0,0,0,-143.825391,-141.533923828894,0,0,0,0,0,0,1,0,1
6.2266077,0,0,NaN,NaN,NaN,NaN,0,0,0,0,-144.357093,-142.061220492073,0,0,0,0,0,0,0,0,0
6.2387145,0,0,NaN,NaN,NaN,NaN,0,0,0,0,-144.889776,-142.589498148384,0,0,0,0,0,0,0,0,0
6.2497985,739,1,1000,1000,1000,1000,0,0,0,0,-145.42344,-143.11875679796,0,0,0,0,0,0,1,0,1
6.2632323,0,0,NaN,NaN,NaN,NaN,0,0,0,0,-145.958085,-143.648996440942,0,0,0,0,0,0,0,0,0
6.2758159,0,0,NaN,NaN,NaN,NaN,0,0,0,0,-146.493711,-144.180217077474,0,0,0,0,0,0,0,0,0
6.2868712,740,1,1000,1000,1000,1000,0,0,0,0,-147.030318,-144.712418707709,0,0,0,0,0,0,1,0,1
6.3001589,0,0,NaN,NaN,NaN,NaN,0,0,0,0,-147.567906,-145.245601331804,0,0,0,0,0,0,0,0,0
6.3123987,0,0,NaN,NaN,NaN,NaN,0,0,0,0,-148.106475,-145.779764949919,0,0,0,0,0,0,0,0,0
6.3200423,741,1,1000,1000,1000,1000,0,0,0,0,-148.646025,-146.314909562221,0,0,0,0,0,0,1,0,1
6.3328581,0,0,NaN,NaN,NaN,NaN,0,0,0,0,-149.186556,-146.851035168879,0,0,0,0,0,0,0,0,0
6.3452722,0,0,NaN,NaN,NaN,NaN,0,0,0,0,-149.728068,-147.388141770065,0,0,0,0,0,0,0,0,0
6.3537493,742,1,1000,1000,1000,1000,0,0,0,0,-150.270561,-147.926229365957,0,0,0,0,0,0,1,0,1
6.3666386,0,0,NaN,NaN,NaN,NaN,0,0,0,0,-150.814035,-148.46529795673,0,0,0,0,0,0,0,0,0
6.37867,0,0,NaN,NaN,NaN,NaN,0,0,0,0,-151.35849,-149.005347542568,0,0,0,0,0,0,0,0,0
6.3872207,743,1,1000,1000,1000,1000,0,0,0,0,-151.903926,-149.54637812365,0,0,0,0,0,0,1,0,1
6.3998943,0,0,NaN,NaN,NaN,NaN,0,0,0,0,-152.450343,-150.088389700161,0,0,0,0,0,0,0,0,0
6.4121728,0,0,NaN,NaN,NaN,NaN,0,0,0,0,-152.997741,-150.631382272285,0,0,0,0,0,0,0,0,0
6.4204039,744,1,1000,1000,1000,1000,0,0,0,0,-153.54612,-151.175355840207,0,0,0,0,0,0,1,0,1
6.4333946,0,0,NaN,NaN,NaN,NaN,0,0,0,0,-154.09548,-151.720310404112,0,0,0,0,0,0,0,0,0
6.4466381,0,0,NaN,NaN,NaN,NaN,0,0,0,0,-154.645821,-152.266245964186,0,0,0,0,0,0,0,0,0
6.457923,745,1,1000,1000,1000,1000,0,0,0,0,-155.197143,-152.813162520614,0,0,0,0,0,0,1,0,1
6.4707802,0,0,NaN,NaN,NaN,NaN,0,0,0,0,-155.749446,-153.361060073579,0,0,0,0,0,0,0,0,0
6.4831096,0,0,NaN,NaN,NaN,NaN,0,0,0,0,-156.30273,-153.909938623265,0,0,0,0,0,0,0,0,0
6.4913283,746,1,1000,1000,1000,1000,0,0,0,0,-156.856995,-154.459798169854,0,0,0,0,0,0,1,0,1
6.5039525,0,0,NaN,NaN,NaN,NaN,0,0,0,0,-157.412241,-155.010638713527,0,0,0,0,0,0,0,0,0
6.5160909,0,0,NaN,NaN,NaN,NaN,0,0,0,0,-157.968468,-155.562460254461,0,0,0,0,0,0,0,0,0
6.5247629,747,1,1000,1000,1000,1000,0,0,0,0,-158.525676,-156.115262792834,0,0,0,0,0,0,1,0,1
6.5375155,0,0,NaN,NaN,NaN,NaN,0,0,0,0,-159.083865,-156.66904632882,0,0,0,0,0,0,0,0,0
6.5496077,0,0,NaN,NaN,NaN,NaN,0,0,0,0,-159.643035,-157.223810862591,0,0,0,0,0,0,0,0,0
6.5584408,748,1,1000,1000,1000,1000,0,0,0,0,-160.203186,-157.779556394316,0,0,0,0,0,0,1,0,1
6.5712233,0,0,NaN,NaN,NaN,NaN,0,0,0,0,-160.764318,-158.336282924162,0,0,0,0,0,0,0,0,0
6.5832781,0,0,NaN,NaN,NaN,NaN,0,0,0,0,-161.326431,-158.893990452291,0,0,0,0,0,0,0,0,0
6.5953528,0,0,NaN,NaN,NaN,NaN,0,0,0,0,-161.889525,-159.452678978866,0,0,0,0,0,0,0,0,0
6.608108,0,0,NaN,NaN,NaN,NaN,0,0,0,0,-162.4536,-160.012348504041,0,0,0,0,0,0,0,0,0
6.6203789,0,0,NaN,NaN,NaN,NaN,0,0,0,0,-163.018656,-160.57299902797,0,0,0,0,0,0,0,0,0
6.6287946,749,1,1000,1000,1000,1000,0,0,0,0,-163.584693,-161.134630550804,0,0,0,0,0,0,1,0,1
6.6419051,0,0,NaN,NaN,NaN,NaN,0,0,0,0,-164.151711,-161.697243072688,0,0,0,0,0,0,0,0,0
6.6540582,0,0,NaN,NaN,NaN,NaN,0,0,0,0,-164.71971,-162.260836593764,0,0,0,0,0,0,0,0,0
6.6619284,750,1,1000,1000,1000,1000,0,0,0,0,-165.28869,-162.82541111417,0,0,0,0,0,0,1,0,1
6.6748186,0,0,NaN,NaN,NaN,NaN,0,0,0,0,-165.858651,-163.39096663404,0,0,0,0,0,0,0,0,0
6.687101,0,0,NaN,NaN,NaN,NaN,0,0,0,0,-166.429593,-163.957503153504,0,0,0,0,0,0,0,0,0
6.6959277,751,1,1000,1000,1000,1000,0,0,0,0,-167.001516,-164.525020672688,0,0,0,0,0,0,1,0,1
6.7093483,0,0,NaN,NaN,NaN,NaN,0,0,0,0,-167.57442,-165.093519191713,0,0,0,0,0,0,0,0,0
6.7212272,0,0,NaN,NaN,NaN,NaN,0,0,0,0,-168.148305,-165.662998710697,0,0,0,0,0,0,0,0,0
6.7289028,752,1,1000,1000,1000,1000,0,0,0,0,-168.723171,-166.233459229751,0,0,0,0,0,0,1,0,1
6.7417212,0,0,NaN,NaN,NaN,NaN,0,0,0,0,-169.299018,-166.804900748985,0,0,0,0,0,0,0,0,0
6.7536605,0,0,NaN,NaN,NaN,NaN,0,0,0,0,-169.875846,-167.377323268503,0,0,0,0,0,0,0,0,0
6.765773,0,0,NaN,NaN,NaN,NaN,0,0,0,0,-170.453655,-167.950726788404,0,0,0,0,0,0,0,0,0
6.7784541,0,0,NaN,NaN,NaN,NaN,0,0,0,0,-171.032445,-168.525111308782,0,0,0,0,0,0,0,0,0
6.7907012,0,0,NaN,NaN,NaN,NaN,0,0,0,0,-171.612216,-169.10047682973,0,0,0,0,0,0,0,0,0
6.8030526,0,0,NaN,NaN,NaN,NaN,0,0,0,0,-172.192968,-169.676823351333,0,0,0,0,0,0,0,0,0
6.8161644,0,0,NaN,NaN,NaN,NaN,0,0,0,0,-172.774701,-170.254150873673,0,0,0,0,0,0,0,0,0
6.8285664,752,1,1000,1000,1000,1000,0,0,0,0,-173.357415,-170.832459396828,0,0,0,0,0,0,1,0,1
6.8370178,753,1,1000,1000,1000,1000,0,0,0,0,-173.94111,-171.411748920871,0,0,0,0,0,0,1,0,1
6.8498973,0,0,NaN,NaN,NaN,NaN,0,0,0,0,-174.525786,-171.992019445871,0,0,0,0,0,0,0,0,0
6.8620725,0,0,NaN,NaN,NaN,NaN,0,0,0,0,-175.111443,-172.573270971892,0,0,0,0,0,0,0,0,0
6.8704187,754,1,1000,1000,1000,1000,0,0,0,0,-175.698081,-173.155503498995,0,0,0,0,0,0,1,0,1
6.8833285,0,0,NaN,NaN,NaN,NaN,0,0,0,0,-176.2857,-173.738717027237,0,0,0,0,0,0,0,0,0
6.89586,0,0,NaN,NaN,NaN,NaN,0,0,0,0,-176.8743,-174.322911556669,0,0,0,0,0,0,0,0,0
6.9041043,755,1,1000,1000,1000,1000,0,0,0,0,-177.463881,-174.90808708734,0,0,0,0,0,0,1,0,1
6.9175285,0,0,NaN,NaN,NaN,NaN,0,0,0,0,-178.054443,-175.494243619293,0,0,0,0,0,0,0,0,0
6.9294588,0,0,NaN,NaN,NaN,NaN,0,0,0,0,-178.645986,-176.081381152571,0,0,0,0,0,0,0,0,0
6.9371735,756,1,1000,1000,1000,1000,0,0,0,0,-179.23851,-176.669499687207,0,0,0,0,0,0,1,0,1
6.9500944,0,0,NaN,NaN,NaN,NaN,0,0,0,0,-179.832015,-177.258599223237,0,0,0,0,0,0,0,0,0
6.9625278,0,0,NaN,NaN,NaN,NaN,0,0,0,0,-180.426501,-177.848679760688,0,0,0,0,0,0,0,0,0
6.9700378,757,1,1000,1000,1000,1000,0,0,0,0,-181.021968,-178.439741299587,0,0,0,0,0,0,1,0,1
6.9827952,0,0,NaN,NaN,NaN,NaN,0,0,0,0,-181.618416,-179.031783839955,0,0,0,0,0,0,0,0,0
6.9960373,0,0,NaN,NaN,NaN,NaN,0,0,0,0,-182.215845,-179.624807381811,0,0,0,0,0,0,0,0,0
7.0039111,758,1,1000,1000,1000,1000,0,0,0,0,-182.814255,-180.218811925172,0,0,0,0,0,0,1,0,1
7.016406,0,0,NaN,NaN,NaN,NaN,0,0,0,0,-183.413646,-180.813797470048,0,0,0,0,0,0,0,0,0
7.029024,0,0,NaN,NaN,NaN,NaN,0,0,0,0,-184.014018,-181.409764016449,0,0,0,0,0,0,0,0,0
7.037014,759,1,1000,1000,1000,1000,0,0,0,0,-184.615371,-182.006711564382,0,0,0,0,0,0,1,0,1
7.0497672,0,0,NaN,NaN,NaN,NaN,0,0,0,0,-185.217705,-182.60464011385,0,0,0,0,0,0,0,0,0
7.0621131,0,0,NaN,NaN,NaN,NaN,0,0,0,0,-185.82102,-183.203549664853,0,0,0,0,0,0,0,0,0
7.0700701,760,1,1000,1000,1000,1000,0,0,0,0,-186.425316,-183.803440217389,0,0,0,0,0,0,1,0,1
7.0830192,0,0,NaN,NaN,NaN,NaN,0,0,0,0,-187.030593,-184.404311771454,0,0,0,0,0,0,0,0,0
7.0953003,0,0,NaN,NaN,NaN,NaN,0,0,0,0,-187.636851,-185.00616432704,0,0,0,0,0,0,0,0,0
7.1039955,761,1,1000,1000,1000,1000,0,0,0,0,-188.24409,-185.608997884138,0,0,0,0,0,0,1,0,1
7.1173729,0,0,NaN,NaN,NaN,NaN,0,0,0,0,-188.85231,-186.212812442737,0,0,0,0,0,0,0,0,0
7.1291489,0,0,NaN,NaN,NaN,NaN,0,0,0,0,-189.461511,-186.817608002822,0,0,0,0,0,0,0,0,0
7.137456,762,1,1000,1000,1000,1000,0,0,0,0,-190.071693,-187.423384564377,0,0,0,0,0,0,1,0,1
7.1505647,0,0,NaN,NaN,NaN,NaN,0,0,0,0,-190.682856,-188.030142127384,0,0,0,0,0,0,0,0,0
7.1628661,0,0,NaN,NaN,NaN,NaN,0,0,0,0,-191.295,-188.637880691824,0,0,0,0,0,0,0,0,0
7.1743951,763,1,1000,1000,1000,1000,0,0,0,0,-191.908125,-189.246600257676,0,0,0,0,0,0,1,0,1
7.1874715,0,0,NaN,NaN,NaN,NaN,0,0,0,0,-192.522231,-189.856300824915,0,0,0,0,0,0,0,0,0
7.1997979,0,0,NaN,NaN,NaN,NaN,0,0,0,0,-193.137318,-190.466982393519,0,0,0,0,0,0,0,0,0
7.207981,764,1,1000,1000,1000,1000,0,0,0,0,-193.753386,-191.078644963459,0,0,0,0,0,0,1,0,1
7.2206623,0,0,NaN,NaN,NaN,NaN,0,0,0,0,-194.370435,-191.69128853471,0,0,0,0,0,0,0,0,0
7.2329312,0,0,NaN,NaN,NaN,NaN,0,0,0,0,-194.988465,-192.304913107243,0,0,0,0,0,0,0,0,0
7.2409949,765,1,1000,1000,1000,1000,0,0,0,0,-195.607476,-192.919518681027,0,0,0,0,0,0,1,0,1
7.2536838,0,0,NaN,NaN,NaN,NaN,0,0,0,0,-196.227468,-193.535105256033,0,0,0,0,0,0,0,0,0
7.2657383,0,0,NaN,NaN,NaN,NaN,0,0,0,0,-196.848441,-194.151672832228,0,0,0,0,0,0,0,0,0
7.2745241,766,1,1000,1000,1000,1000,0,0,0,0,-197.470395,-194.769221409579,0,0,0,0,0,0,1,0,1
7.287595,0,0,NaN,NaN,NaN,NaN,0,0,0,0,-198.09333,-195.387750988054,0,0,0,0,0,0,0,0,0
7.299674,0,0,NaN,NaN,NaN,NaN,0,0,0,0,-198.717246,-196.007261567619,0,0,0,0,0,0,0,0,0
7.3086798,767,1,1000,1000,1000,1000,0,0,0,0,-199.342143,-196.627753148238,0,0,0,0,0,0,1,0,1
7.3213829,0,0,NaN,NaN,NaN,NaN,0,0,0,0,-199.968021,-197.249225729877,0,0,0,0,0,0,0,0,0
7.3332876,0,0,NaN,NaN,NaN,NaN,0,0,0,0,-200.59488,-197.8716793125,0,0,0,0,0,0,0,0,0
7.3448826,768,1,1000,1000,1000,1000,0,0,0,0,-201.22272,-198.495113896071,0,0,0,0,0,0,1,0,1
7.3577961,0,0,NaN,NaN,NaN,NaN,0,0,0,0,-201.851541,-199.119529480554,0,0,0,0,0,0,0,0,0
7.370186,0,0,NaN,NaN,NaN,NaN,0,0,0,0,-202.481343,-199.744926065913,0,0,0,0,0,0,0,0,0
7.3779826,769,1,1000,1000,1000,1000,0,0,0,0,-203.112126,-200.371303652111,0,0,0,0,0,0,1,0,1
7.3911901,0,0,NaN,NaN,NaN,NaN,0,0,0,0,-203.74389,-200.998662239111,0,0,0,0,0,0,0,0,0
7.4054691,0,0,NaN,NaN,NaN,NaN,0,0,0,0,-204.376635,-201.627001826876,0,0,0,0,0,0,0,0,0
7.412142,770,1,1000,1000,1000,1000,0,0,0,0,-205.010361,-202.256322415371,0,0,0,0,0,0,1,0,1
7.4255342,0,0,NaN,NaN,NaN,NaN,0,0,0,0,-205.645068,-202.886624004559,0,0,0,0,0,0,0,0,0
7.4390061,0,0,NaN,NaN,NaN,NaN,0,0,0,0,-206.280756,-203.517906594403,0,0,0,0,0,0,0,0,0
7.445293,771,1,1000,1000,1000,1000,0,0,0,0,-206.917425,-204.150170184867,0,0,0,0,0,0,1,0,1
7.4582757,0,0,NaN,NaN,NaN,NaN,0,0,0,0,-207.555075,-204.783414775916,0,0,0,0,0,0,0,0,0
7.4724053,0,0,NaN,NaN,NaN,NaN,0,0,0,0,-208.193706000001,-205.417640367514,0,0,0,0,0,0,0,0,0
7.479567,772,1,1000,1000,1000,1000,0,0,0,0,-208.833318000001,-206.052846959626,0,0,0,0,0,0,1,0,1
7.4939989,0,0,NaN,NaN,NaN,NaN,0,0,0,0,-209.473911,-206.689034552218,0,0,0,0,0,0,0,0,0
7.5076988,0,0,NaN,NaN,NaN,NaN,0,0,0,0,-210.115485000001,-207.326203145255,0,0,0,0,0,0,0,0,0
7.5117893,773,1,1000,1000,1000,1000,0,0,0,0,-210.758040000001,-207.964352738704,0,0,0,0,0,0,1,0,1
7.5247636,0,0,NaN,NaN,NaN,NaN,0,0,0,0,-211.401576000001,-208.603483332533,0,0,0,0,0,0,0,0,0
7.5389012,0,0,NaN,NaN,NaN,NaN,0,0,0,0,-212.046093000001,-209.243594926707,0,0,0,0,0,0,0,0,0
7.545967,774,1,1000,1000,1000,1000,0,0,0,0,-212.691591000001,-209.884687521196,0,0,0,0,0,0,1,0,1
7.5591906,0,0,NaN,NaN,NaN,NaN,0,0,0,0,-213.338070000001,-210.526761115969,0,0,0,0,0,0,0,0,0
7.5714596,0,0,NaN,NaN,NaN,NaN,0,0,0,0,-213.985530000001,-211.169815710995,0,0,0,0,0,0,0,0,0
7.5832183,775,1,1000,1000,1000,1000,0,0,0,0,-214.633971000001,-211.813851306244,0,0,0,0,0,0,1,0,1
7.596128,0,0,NaN,NaN,NaN,NaN,0,0,0,0,-215.283393000001,-212.458867901687,0,0,0,0,0,0,0,0,0
7.609302,0,0,NaN,NaN,NaN,NaN,0,0,0,0,-215.933796000001,-213.104865497296,0,0,0,0,0,0,0,0,0
7.6204895,776,1,1000,1000,1000,1000,0,0,0,0,-216.585180000001,-213.751844093043,0,0,0,0,0,0,1,0,1
7.6334617,0,0,NaN,NaN,NaN,NaN,0,0,0,0,-217.237545000001,-214.399803688903,0,0,0,0,0,0,0,0,0
7.6454358,0,0,NaN,NaN,NaN,NaN,0,0,0,0,-217.890891000001,-215.048744284848,0,0,0,0,0,0,0,0,0
7.6542627,777,1,1000,1000,1000,1000,0,0,0,0,-218.545218000001,-215.698665880854,0,0,0,0,0,0,1,0,1
7.6687696,0,0,NaN,NaN,NaN,NaN,0,0,0,0,-219.200526000001,-216.349568476897,0,0,0,0,0,0,0,0,0
7.6816873,0,0,NaN,NaN,NaN,NaN,0,0,0,0,-219.856815000001,-217.001452072953,0,0,0,0,0,0,0,0,0
7.6869966,778,1,1000,1000,1000,1000,0,0,0,0,-220.514085000001,-217.654316669,0,0,0,0,0,0,1,0,1
7.7015082,0,0,NaN,NaN,NaN,NaN,0,0,0,0,-221.172336000001,-218.308162265016,0,0,0,0,0,0,0,0,0
7.7136859,0,0,NaN,NaN,NaN,NaN,0,0,0,0,-221.831568000001,-218.962988860981,0,0,0,0,0,0,0,0,0
