time_s,valid_rx_count,response_tx_count,mode,armed,frame_count,pwm_1_us,pwm_2_us,pwm_3_us,pwm_4_us,motor_1_radps,motor_2_radps,motor_3_radps,motor_4_radps,total_thrust_N,total_thrust_to_weight,altitude_m,vertical_speed_up_mps,roll_rad,pitch_rad,yaw_rad,quat_norm
0.0012154,0,0,,0,0,NaN,NaN,NaN,NaN,0,0,0,0,0,0,-0,-0.0981,0,0,0,1
0.0496474,0,0,,0,0,NaN,NaN,NaN,NaN,0,0,0,0,0,0,-0.000981,-0.1962,0,0,0,1
0.0656263,0,0,,0,0,NaN,NaN,NaN,NaN,0,0,0,0,0,0,-0.002943,-0.2943,0,0,0,1
0.0754653,1,1,STABILIZE,0,507,1000,1000,1000,1000,0,0,0,0,0,0,-0.005886,-0.3924,0,0,0,1
0.091978,1,1,STABILIZE,0,0,NaN,NaN,NaN,NaN,0,0,0,0,0,0,-0.00981,-0.4905,0,0,0,1
0.1336741,2,2,STABILIZE,0,508,1000,1000,1000,1000,0,0,0,0,0,0,-0.014715,-0.5886,0,0,0,1
0.1487946,2,2,STABILIZE,0,0,NaN,NaN,NaN,NaN,0,0,0,0,0,0,-0.020601,-0.6867,0,0,0,1
0.1628492,2,2,STABILIZE,0,0,NaN,NaN,NaN,NaN,0,0,0,0,0,0,-0.027468,-0.7848,0,0,0,1
0.1770494,2,2,STABILIZE,0,0,NaN,NaN,NaN,NaN,0,0,0,0,0,0,-0.035316,-0.8829,0,0,0,1
0.1910779,2,2,STABILIZE,0,0,NaN,NaN,NaN,NaN,0,0,0,0,0,0,-0.044145,-0.981,0,0,0,1
0.2051049,2,2,STABILIZE,0,0,NaN,NaN,NaN,NaN,0,0,0,0,0,0,-0.053955,-1.0791,0,0,0,1
0.2192555,2,2,STABILIZE,0,0,NaN,NaN,NaN,NaN,0,0,0,0,0,0,-0.064746,-1.1772,0,0,0,1
0.2334218,3,3,STABILIZE,0,508,1000,1000,1000,1000,0,0,0,0,0,0,-0.076518,-1.2753,0,0,0,1
0.2392037,4,4,STABILIZE,0,509,1000,1000,1000,1000,0,0,0,0,0,0,-0.089271,-1.3734,0,0,0,1
0.2525784,4,4,STABILIZE,0,0,NaN,NaN,NaN,NaN,0,0,0,0,0,0,-0.103005,-1.4715,0,0,0,1
0.2654389,4,4,STABILIZE,0,0,NaN,NaN,NaN,NaN,0,0,0,0,0,0,-0.11772,-1.5696,0,0,0,1
0.2794058,4,4,STABILIZE,0,0,NaN,NaN,NaN,NaN,0,0,0,0,0,0,-0.133416,-1.6677,0,0,0,1
0.2835203,5,5,STABILIZE,0,510,1000,1000,1000,1000,0,0,0,0,0,0,-0.150093,-1.7658,0,0,0,1
0.2975999,5,5,STABILIZE,0,0,NaN,NaN,NaN,NaN,0,0,0,0,0,0,-0.167751,-1.8639,0,0,0,1
0.3101578,5,5,STABILIZE,0,0,NaN,NaN,NaN,NaN,0,0,0,0,0,0,-0.18639,-1.962,0,0,0,1
0.3228758,5,5,STABILIZE,0,0,NaN,NaN,NaN,NaN,0,0,0,0,0,0,-0.20601,-2.0601,0,0,0,1
0.3305093,6,6,STABILIZE,0,511,1000,1000,1000,1000,0,0,0,0,0,0,-0.226611,-2.1582,0,0,0,1
0.3443465,6,6,STABILIZE,0,0,NaN,NaN,NaN,NaN,0,0,0,0,0,0,-0.248193,-2.2563,0,0,0,1
0.3578441,6,6,STABILIZE,0,0,NaN,NaN,NaN,NaN,0,0,0,0,0,0,-0.270756,-2.3544,0,0,0,1
0.3648445,7,7,STABILIZE,0,512,1000,1000,1000,1000,0,0,0,0,0,0,-0.2943,-2.4525,0,0,0,1
0.3787565,7,7,STABILIZE,0,0,NaN,NaN,NaN,NaN,0,0,0,0,0,0,-0.318825,-2.5506,0,0,0,1
0.3910317,7,7,STABILIZE,0,0,NaN,NaN,NaN,NaN,0,0,0,0,0,0,-0.344331,-2.6487,0,0,0,1
0.4015228,8,8,STABILIZE,0,513,1000,1000,1000,1000,0,0,0,0,0,0,-0.370818,-2.7468,0,0,0,1
0.4146435,8,8,STABILIZE,0,0,NaN,NaN,NaN,NaN,0,0,0,0,0,0,-0.398286,-2.8449,0,0,0,1
0.4270725,8,8,STABILIZE,0,0,NaN,NaN,NaN,NaN,0,0,0,0,0,0,-0.426735,-2.943,0,0,0,1
0.4346227,9,9,STABILIZE,0,514,1000,1000,1000,1000,0,0,0,0,0,0,-0.456165,-3.0411,0,0,0,1
0.4479775,9,9,STABILIZE,0,0,NaN,NaN,NaN,NaN,0,0,0,0,0,0,-0.486576,-3.1392,0,0,0,1
0.4602795,9,9,STABILIZE,0,0,NaN,NaN,NaN,NaN,0,0,0,0,0,0,-0.517968,-3.2373,0,0,0,1
0.4680383,10,10,STABILIZE,0,515,1000,1000,1000,1000,0,0,0,0,0,0,-0.550341,-3.3354,0,0,0,1
0.4812508,10,10,STABILIZE,0,0,NaN,NaN,NaN,NaN,0,0,0,0,0,0,-0.583695,-3.4335,0,0,0,1
0.4936391,10,10,STABILIZE,0,0,NaN,NaN,NaN,NaN,0,0,0,0,0,0,-0.61803,-3.5316,0,0,0,1
0.5015465,11,11,STABILIZE,0,516,1000,1000,1000,1000,0,0,0,0,0,0,-0.653346,-3.6297,0,0,0,1
0.5154044,11,11,STABILIZE,0,0,NaN,NaN,NaN,NaN,0,0,0,0,0,0,-0.689643,-3.7278,0,0,0,1
0.5281252,11,11,STABILIZE,0,0,NaN,NaN,NaN,NaN,0,0,0,0,0,0,-0.726921,-3.8259,0,0,0,1
0.5346963,12,12,STABILIZE,0,517,1000,1000,1000,1000,0,0,0,0,0,0,-0.76518,-3.924,0,0,0,1
0.5478317,12,12,STABILIZE,0,0,NaN,NaN,NaN,NaN,0,0,0,0,0,0,-0.80442,-4.0221,0,0,0,1
0.5600429,12,12,STABILIZE,0,0,NaN,NaN,NaN,NaN,0,0,0,0,0,0,-0.844641,-4.1202,0,0,0,1
0.5686373,13,13,STABILIZE,0,518,1000,1000,1000,1000,0,0,0,0,0,0,-0.885843,-4.2183,0,0,0,1
0.5818092,13,13,STABILIZE,0,0,NaN,NaN,NaN,NaN,0,0,0,0,0,0,-0.928026,-4.3164,0,0,0,1
0.5945146,13,13,STABILIZE,0,0,NaN,NaN,NaN,NaN,0,0,0,0,0,0,-0.97119,-4.4145,0,0,0,1
0.6047649,14,14,STABILIZE,0,519,1000,1000,1000,1000,0,0,0,0,0,0,-1.015335,-4.5126,0,0,0,1
0.6186209,14,14,STABILIZE,0,0,NaN,NaN,NaN,NaN,0,0,0,0,0,0,-1.060461,-4.6107,0,0,0,1
0.631049,14,14,STABILIZE,0,0,NaN,NaN,NaN,NaN,0,0,0,0,0,0,-1.106568,-4.7088,0,0,0,1
0.6389111,15,15,STABILIZE,0,520,1000,1000,1000,1000,0,0,0,0,0,0,-1.153656,-4.8069,0,0,0,1
0.6520046,15,15,STABILIZE,0,0,NaN,NaN,NaN,NaN,0,0,0,0,0,0,-1.201725,-4.905,0,0,0,1
0.664315,15,15,STABILIZE,0,0,NaN,NaN,NaN,NaN,0,0,0,0,0,0,-1.250775,-5.0031,0,0,0,1
0.6725469,16,16,STABILIZE,0,521,1000,1000,1000,1000,0,0,0,0,0,0,-1.300806,-5.1012,0,0,0,1
0.6859684,16,16,STABILIZE,0,0,NaN,NaN,NaN,NaN,0,0,0,0,0,0,-1.351818,-5.1993,0,0,0,1
0.6989255,16,16,STABILIZE,0,0,NaN,NaN,NaN,NaN,0,0,0,0,0,0,-1.403811,-5.2974,0,0,0,1
0.7089677,17,17,STABILIZE,0,522,1000,1000,1000,1000,0,0,0,0,0,0,-1.456785,-5.3955,0,0,0,1
0.722494,17,17,STABILIZE,0,0,NaN,NaN,NaN,NaN,0,0,0,0,0,0,-1.51074,-5.4936,0,0,0,1
0.7350569,17,17,STABILIZE,0,0,NaN,NaN,NaN,NaN,0,0,0,0,0,0,-1.565676,-5.5917,0,0,0,1
0.7475783,17,17,STABILIZE,0,0,NaN,NaN,NaN,NaN,0,0,0,0,0,0,-1.621593,-5.6898,0,0,0,1
0.7603811,17,17,STABILIZE,0,0,NaN,NaN,NaN,NaN,0,0,0,0,0,0,-1.678491,-5.7879,0,0,0,1
0.7726926,17,17,STABILIZE,0,0,NaN,NaN,NaN,NaN,0,0,0,0,0,0,-1.73637,-5.88599999999999,0,0,0,1
0.7841593,18,18,STABILIZE,0,523,1000,1000,1000,1000,0,0,0,0,0,0,-1.79523,-5.98409999999999,0,0,0,1
0.7975242,18,18,STABILIZE,0,0,NaN,NaN,NaN,NaN,0,0,0,0,0,0,-1.855071,-6.08219999999999,0,0,0,1
0.8099433,18,18,STABILIZE,0,0,NaN,NaN,NaN,NaN,0,0,0,0,0,0,-1.915893,-6.18029999999999,0,0,0,1
0.8176869,19,19,STABILIZE,0,524,1000,1000,1000,1000,0,0,0,0,0,0,-1.977696,-6.27839999999999,0,0,0,1
0.8320009,19,19,STABILIZE,0,0,NaN,NaN,NaN,NaN,0,0,0,0,0,0,-2.04048,-6.37649999999999,0,0,0,1
0.8445016,19,19,STABILIZE,0,0,NaN,NaN,NaN,NaN,0,0,0,0,0,0,-2.104245,-6.47459999999999,0,0,0,1
0.8568974,19,19,STABILIZE,0,0,NaN,NaN,NaN,NaN,0,0,0,0,0,0,-2.168991,-6.57269999999999,0,0,0,1
0.8695838,19,19,STABILIZE,0,0,NaN,NaN,NaN,NaN,0,0,0,0,0,0,-2.234718,-6.67079999999999,0,0,0,1
0.8819649,19,19,STABILIZE,0,0,NaN,NaN,NaN,NaN,0,0,0,0,0,0,-2.301426,-6.76889999999999,0,0,0,1
0.8933306,20,20,STABILIZE,0,525,1000,1000,1000,1000,0,0,0,0,0,0,-2.369115,-6.86699999999999,0,0,0,1
0.9074761,20,20,STABILIZE,0,0,NaN,NaN,NaN,NaN,0,0,0,0,0,0,-2.437785,-6.96509999999999,0,0,0,1
0.9200149,20,20,STABILIZE,0,0,NaN,NaN,NaN,NaN,0,0,0,0,0,0,-2.507436,-7.06319999999999,0,0,0,1
0.926108,21,21,STABILIZE,0,526,1000,1000,1000,1000,0,0,0,0,0,0,-2.578068,-7.16129999999999,0,0,0,1
0.9389236,21,21,STABILIZE,0,0,NaN,NaN,NaN,NaN,0,0,0,0,0,0,-2.649681,-7.25939999999999,0,0,0,1
0.9515475,21,21,STABILIZE,0,0,NaN,NaN,NaN,NaN,0,0,0,0,0,0,-2.722275,-7.35749999999999,0,0,0,1
0.9645338,21,21,STABILIZE,0,0,NaN,NaN,NaN,NaN,0,0,0,0,0,0,-2.79585,-7.45559999999999,0,0,0,1
0.9674971,22,22,STABILIZE,0,527,1000,1000,1000,1000,0,0,0,0,0,0,-2.870406,-7.55369999999999,0,0,0,1
0.9815432,22,22,STABILIZE,0,0,NaN,NaN,NaN,NaN,0,0,0,0,0,0,-2.945943,-7.65179999999999,0,0,0,1
0.9941713,22,22,STABILIZE,0,0,NaN,NaN,NaN,NaN,0,0,0,0,0,0,-3.022461,-7.74989999999999,0,0,0,1
1.0007872,23,23,STABILIZE,0,528,1000,1000,1000,1000,0,0,0,0,0,0,-3.09996,-7.84799999999999,0,0,0,1
1.0138606,23,23,STABILIZE,0,0,NaN,NaN,NaN,NaN,0,0,0,0,0,0,-3.17844,-7.94609999999999,0,0,0,1
1.0262904,23,23,STABILIZE,0,0,NaN,NaN,NaN,NaN,0,0,0,0,0,0,-3.257901,-8.04419999999999,0,0,0,1
1.0345855,24,24,STABILIZE,0,529,1000,1000,1000,1000,0,0,0,0,0,0,-3.338343,-8.14229999999999,0,0,0,1
1.0476481,24,24,STABILIZE,0,0,NaN,NaN,NaN,NaN,0,0,0,0,0,0,-3.419766,-8.24039999999999,0,0,0,1
1.0600718,24,24,STABILIZE,0,0,NaN,NaN,NaN,NaN,0,0,0,0,0,0,-3.50217,-8.33849999999999,0,0,0,1
1.0728286,24,24,STABILIZE,0,0,NaN,NaN,NaN,NaN,0,0,0,0,0,0,-3.585555,-8.43659999999999,0,0,0,1
1.0864357,24,24,STABILIZE,0,0,NaN,NaN,NaN,NaN,0,0,0,0,0,0,-3.669921,-8.53469999999999,0,0,0,1
1.0989562,24,24,STABILIZE,0,0,NaN,NaN,NaN,NaN,0,0,0,0,0,0,-3.755268,-8.63279999999999,0,0,0,1
1.1114526,24,24,STABILIZE,0,0,NaN,NaN,NaN,NaN,0,0,0,0,0,0,-3.841596,-8.73089999999999,0,0,0,1
1.1215195,25,25,STABILIZE,0,530,1000,1000,1000,1000,0,0,0,0,0,0,-3.928905,-8.82899999999999,0,0,0,1
1.1354073,25,25,STABILIZE,0,0,NaN,NaN,NaN,NaN,0,0,0,0,0,0,-4.017195,-8.92709999999999,0,0,0,1
1.14804,25,25,STABILIZE,0,0,NaN,NaN,NaN,NaN,0,0,0,0,0,0,-4.106466,-9.02519999999999,0,0,0,1
1.1604641,25,25,STABILIZE,0,0,NaN,NaN,NaN,NaN,0,0,0,0,0,0,-4.196718,-9.12329999999999,0,0,0,1
1.1679026,26,26,STABILIZE,0,531,1000,1000,1000,1000,0,0,0,0,0,0,-4.287951,-9.22139999999999,0,0,0,1
1.1827354,26,26,STABILIZE,0,0,NaN,NaN,NaN,NaN,0,0,0,0,0,0,-4.380165,-9.31949999999999,0,0,0,1
1.195656,26,26,STABILIZE,0,0,NaN,NaN,NaN,NaN,0,0,0,0,0,0,-4.47336,-9.41759999999999,0,0,0,1
1.2014001,27,27,STABILIZE,0,532,1000,1000,1000,1000,0,0,0,0,0,0,-4.567536,-9.5157,0,0,0,1
1.2142883,27,27,STABILIZE,0,0,NaN,NaN,NaN,NaN,0,0,0,0,0,0,-4.662693,-9.6138,0,0,0,1
1.2268124,27,27,STABILIZE,0,0,NaN,NaN,NaN,NaN,0,0,0,0,0,0,-4.758831,-9.7119,0,0,0,1
1.2354133,28,28,STABILIZE,0,533,1000,1000,1000,1000,0,0,0,0,0,0,-4.85595,-9.81,0,0,0,1
1.2486397,28,28,STABILIZE,0,0,NaN,NaN,NaN,NaN,0,0,0,0,0,0,-4.95405,-9.9081,0,0,0,1
1.2611524,28,28,STABILIZE,0,0,NaN,NaN,NaN,NaN,0,0,0,0,0,0,-5.053131,-10.0062,0,0,0,1
1.2716808,29,29,STABILIZE,0,534,1000,1000,1000,1000,0,0,0,0,0,0,-5.153193,-10.1043,0,0,0,1
1.2856428,29,29,STABILIZE,0,0,NaN,NaN,NaN,NaN,0,0,0,0,0,0,-5.254236,-10.2024,0,0,0,1
1.2983614,29,29,STABILIZE,0,0,NaN,NaN,NaN,NaN,0,0,0,0,0,0,-5.35626,-10.3005,0,0,0,1
1.3048368,30,30,STABILIZE,0,535,1000,1000,1000,1000,0,0,0,0,0,0,-5.459265,-10.3986,0,0,0,1
1.3185446,30,30,STABILIZE,0,0,NaN,NaN,NaN,NaN,0,0,0,0,0,0,-5.563251,-10.4967,0,0,0,1
1.3311341,30,30,STABILIZE,0,0,NaN,NaN,NaN,NaN,0,0,0,0,0,0,-5.668218,-10.5948,0,0,0,1
1.3381949,31,31,STABILIZE,0,536,1000,1000,1000,1000,0,0,0,0,0,0,-5.774166,-10.6929,0,0,0,1
1.3525272,31,31,STABILIZE,0,0,NaN,NaN,NaN,NaN,0,0,0,0,0,0,-5.881095,-10.791,0,0,0,1
1.3649264,31,31,STABILIZE,0,0,NaN,NaN,NaN,NaN,0,0,0,0,0,0,-5.989005,-10.8891,0,0,0,1
1.3766983,32,32,STABILIZE,0,537,1000,1000,1000,1000,0,0,0,0,0,0,-6.097896,-10.9872,0,0,0,1
1.3904698,32,32,STABILIZE,0,0,NaN,NaN,NaN,NaN,0,0,0,0,0,0,-6.207768,-11.0853,0,0,0,1
1.403146,32,32,STABILIZE,0,0,NaN,NaN,NaN,NaN,0,0,0,0,0,0,-6.318621,-11.1834,0,0,0,1
1.4106625,33,33,STABILIZE,0,538,1000,1000,1000,1000,0,0,0,0,0,0,-6.430455,-11.2815,0,0,0,1
1.4239054,33,33,STABILIZE,0,0,NaN,NaN,NaN,NaN,0,0,0,0,0,0,-6.54327,-11.3796,0,0,0,1
1.4367385,33,33,STABILIZE,0,0,NaN,NaN,NaN,NaN,0,0,0,0,0,0,-6.657066,-11.4777,0,0,0,1
1.4472269,34,34,STABILIZE,0,539,1000,1000,1000,1000,0,0,0,0,0,0,-6.771843,-11.5758,0,0,0,1
1.4622344,34,34,STABILIZE,0,0,NaN,NaN,NaN,NaN,0,0,0,0,0,0,-6.887601,-11.6739,0,0,0,1
1.4760242,34,34,STABILIZE,0,0,NaN,NaN,NaN,NaN,0,0,0,0,0,0,-7.00434,-11.772,0,0,0,1
1.4807256,35,35,STABILIZE,0,540,1000,1000,1000,1000,0,0,0,0,0,0,-7.12206,-11.8701,0,0,0,1
1.4936874,35,35,STABILIZE,0,0,NaN,NaN,NaN,NaN,0,0,0,0,0,0,-7.240761,-11.9682,0,0,0,1
1.5059141,35,35,STABILIZE,0,0,NaN,NaN,NaN,NaN,0,0,0,0,0,0,-7.360443,-12.0663,0,0,0,1
1.5141268,36,36,STABILIZE,0,541,1000,1000,1000,1000,0,0,0,0,0,0,-7.481106,-12.1644,0,0,0,1
1.5274176,36,36,STABILIZE,0,0,NaN,NaN,NaN,NaN,0,0,0,0,0,0,-7.60275,-12.2625,0,0,0,1
1.5399147,36,36,STABILIZE,0,0,NaN,NaN,NaN,NaN,0,0,0,0,0,0,-7.725375,-12.3606,0,0,0,1
1.5526177,36,36,STABILIZE,0,0,NaN,NaN,NaN,NaN,0,0,0,0,0,0,-7.848981,-12.4587,0,0,0,1
1.5555314,37,37,STABILIZE,0,542,1000,1000,1000,1000,0,0,0,0,0,0,-7.973568,-12.5568,0,0,0,1
1.5684774,37,37,STABILIZE,0,0,NaN,NaN,NaN,NaN,0,0,0,0,0,0,-8.099136,-12.6549,0,0,0,1
1.5814346,37,37,STABILIZE,0,0,NaN,NaN,NaN,NaN,0,0,0,0,0,0,-8.225685,-12.753,0,0,0,1
1.5888014,38,38,STABILIZE,0,543,1000,1000,1000,1000,0,0,0,0,0,0,-8.353215,-12.8511,0,0,0,1
1.6018308,38,38,STABILIZE,0,0,NaN,NaN,NaN,NaN,0,0,0,0,0,0,-8.481726,-12.9492,0,0,0,1
1.6143654,38,38,STABILIZE,0,0,NaN,NaN,NaN,NaN,0,0,0,0,0,0,-8.611218,-13.0473,0,0,0,1
1.6237349,39,39,STABILIZE,0,544,1000,1000,1000,1000,0,0,0,0,0,0,-8.741691,-13.1454,0,0,0,1
1.6369235,39,39,STABILIZE,0,0,NaN,NaN,NaN,NaN,0,0,0,0,0,0,-8.873145,-13.2435,0,0,0,1
1.6494687,39,39,STABILIZE,0,0,NaN,NaN,NaN,NaN,0,0,0,0,0,0,-9.00558,-13.3416,0,0,0,1
1.6602949,40,40,STABILIZE,0,545,1000,1000,1000,1000,0,0,0,0,0,0,-9.138996,-13.4397,0,0,0,1
1.6737112,40,40,STABILIZE,0,0,NaN,NaN,NaN,NaN,0,0,0,0,0,0,-9.273393,-13.5378,0,0,0,1
1.6866559,40,40,STABILIZE,0,0,NaN,NaN,NaN,NaN,0,0,0,0,0,0,-9.408771,-13.6359,0,0,0,1
1.6934353,41,41,STABILIZE,0,546,1000,1000,1000,1000,0,0,0,0,0,0,-9.54513,-13.734,0,0,0,1
1.7069914,41,41,STABILIZE,0,0,NaN,NaN,NaN,NaN,0,0,0,0,0,0,-9.68247,-13.8321,0,0,0,1
1.7195693,41,41,STABILIZE,0,0,NaN,NaN,NaN,NaN,0,0,0,0,0,0,-9.820791,-13.9302,0,0,0,1
1.7320868,41,41,STABILIZE,0,0,NaN,NaN,NaN,NaN,0,0,0,0,0,0,-9.960093,-14.0283,0,0,0,1
1.7445481,41,41,STABILIZE,0,0,NaN,NaN,NaN,NaN,0,0,0,0,0,0,-10.100376,-14.1264,0,0,0,1
1.7571768,41,41,STABILIZE,1,0,NaN,NaN,NaN,NaN,0,0,0,0,0,0,-10.24164,-14.2245,0,0,0,1
1.7673232,42,42,STABILIZE,1,547,1000,1000,1000,1000,0,0,0,0,0,0,-10.383885,-14.3226,0,0,0,1
1.7806643,42,42,STABILIZE,1,0,NaN,NaN,NaN,NaN,0,0,0,0,0,0,-10.527111,-14.4207,0,0,0,1
1.7937689,42,42,STABILIZE,1,0,NaN,NaN,NaN,NaN,0,0,0,0,0,0,-10.671318,-14.5188,0,0,0,1
1.800411,43,43,STABILIZE,1,548,1000,1000,1000,1000,0,0,0,0,0,0,-10.816506,-14.6169,0,0,0,1
1.813734,43,43,STABILIZE,1,0,NaN,NaN,NaN,NaN,0,0,0,0,0,0,-10.962675,-14.715,0,0,0,1
1.8263722,43,43,STABILIZE,1,0,NaN,NaN,NaN,NaN,0,0,0,0,0,0,-11.109825,-14.8131,0,0,0,1
1.8388459,43,43,STABILIZE,1,0,NaN,NaN,NaN,NaN,0,0,0,0,0,0,-11.257956,-14.9112,0,0,0,1
1.8420473,44,44,STABILIZE,1,549,1000,1000,1000,1000,0,0,0,0,0,0,-11.407068,-15.0093,0,0,0,1
1.8552373,44,44,STABILIZE,1,0,NaN,NaN,NaN,NaN,0,0,0,0,0,0,-11.557161,-15.1074,0,0,0,1
1.8680661,44,44,STABILIZE,1,0,NaN,NaN,NaN,NaN,0,0,0,0,0,0,-11.708235,-15.2055,0,0,0,1
1.8764494,45,45,STABILIZE,1,550,1000,1000,1000,1000,0,0,0,0,0,0,-11.86029,-15.3036,0,0,0,1
1.8901436,45,45,STABILIZE,1,0,NaN,NaN,NaN,NaN,0,0,0,0,0,0,-12.013326,-15.4017,0,0,0,1
1.9025294,45,45,STABILIZE,1,0,NaN,NaN,NaN,NaN,0,0,0,0,0,0,-12.167343,-15.4998,0,0,0,1
1.9102238,46,46,STABILIZE,1,551,1000,1000,1000,1000,0,0,0,0,0,0,-12.322341,-15.5979,0,0,0,1
1.9237481,46,46,STABILIZE,1,0,NaN,NaN,NaN,NaN,0,0,0,0,0,0,-12.47832,-15.696,0,0,0,1
1.9366945,46,46,STABILIZE,1,0,NaN,NaN,NaN,NaN,0,0,0,0,0,0,-12.63528,-15.7941,0,0,0,1
1.9492254,46,46,STABILIZE,1,0,NaN,NaN,NaN,NaN,0,0,0,0,0,0,-12.793221,-15.8922,0,0,0,1
1.9616332,46,46,STABILIZE,1,0,NaN,NaN,NaN,NaN,0,0,0,0,0,0,-12.952143,-15.9903,0,0,0,1
1.9739904,46,46,STABILIZE,1,0,NaN,NaN,NaN,NaN,0,0,0,0,0,0,-13.112046,-16.0884,0,0,0,1
1.985742,47,47,STABILIZE,1,552,1000,1000,1000,1000,0,0,0,0,0,0,-13.27293,-16.1865,0,0,0,1
1.9990767,47,47,STABILIZE,1,0,NaN,NaN,NaN,NaN,0,0,0,0,0,0,-13.434795,-16.2846,0,0,0,1
2.01228,47,47,STABILIZE,1,0,NaN,NaN,NaN,NaN,0,0,0,0,0,0,-13.597641,-16.3827,0,0,0,1
2.0223168,48,48,STABILIZE,1,553,1000,1000,1000,1000,0,0,0,0,0,0,-13.761468,-16.4808,0,0,0,1
2.0354302,48,48,STABILIZE,1,0,NaN,NaN,NaN,NaN,0,0,0,0,0,0,-13.926276,-16.5789,0,0,0,1
2.0475984,48,48,STABILIZE,1,0,NaN,NaN,NaN,NaN,0,0,0,0,0,0,-14.092065,-16.677,0,0,0,1
2.0599306,49,49,STABILIZE,1,554,1000,1000,1000,1000,0,0,0,0,0,0,-14.258835,-16.7751,0,0,0,1
2.0733692,49,49,STABILIZE,1,0,NaN,NaN,NaN,NaN,0,0,0,0,0,0,-14.426586,-16.8732,0,0,0,1
2.0864779,49,49,STABILIZE,1,0,NaN,NaN,NaN,NaN,0,0,0,0,0,0,-14.595318,-16.9713,0,0,0,1
2.0932653,50,50,STABILIZE,1,555,1000,1000,1000,1000,0,0,0,0,0,0,-14.765031,-17.0694,0,0,0,1
2.1068048,50,50,STABILIZE,1,0,NaN,NaN,NaN,NaN,0,0,0,0,0,0,-14.935725,-17.1675,0,0,0,1
2.1191621,50,50,STABILIZE,1,0,NaN,NaN,NaN,NaN,0,0,0,0,0,0,-15.1074,-17.2656,0,0,0,1
2.126568,51,51,STABILIZE,1,556,1000,1000,1000,1000,0,0,0,0,0,0,-15.280056,-17.3637,0,0,0,1
2.1405629,51,51,STABILIZE,1,0,NaN,NaN,NaN,NaN,0,0,0,0,0,0,-15.453693,-17.4618,0,0,0,1
2.1530665,51,51,STABILIZE,1,0,NaN,NaN,NaN,NaN,0,0,0,0,0,0,-15.628311,-17.5599,0,0,0,1
2.1660102,51,51,STABILIZE,1,0,NaN,NaN,NaN,NaN,0,0,0,0,0,0,-15.80391,-17.658,0,0,0,1
2.1715465,52,52,STABILIZE,1,557,1000,1000,1000,1000,0,0,0,0,0,0,-15.98049,-17.7561,0,0,0,1
2.1847979,52,52,STABILIZE,1,0,NaN,NaN,NaN,NaN,0,0,0,0,0,0,-16.158051,-17.8542,0,0,0,1
2.197268,52,52,STABILIZE,1,0,NaN,NaN,NaN,NaN,0,0,0,0,0,0,-16.336593,-17.9523,0,0,0,1
2.2046217,53,53,STABILIZE,1,558,1000,1000,1000,1000,0,0,0,0,0,0,-16.516116,-18.0504,0,0,0,1
2.2179152,53,53,STABILIZE,1,0,NaN,NaN,NaN,NaN,0,0,0,0,0,0,-16.69662,-18.1485,0,0,0,1
2.2306343,53,53,STABILIZE,1,0,NaN,NaN,NaN,NaN,0,0,0,0,0,0,-16.878105,-18.2466,0,0,0,1
2.2392735,54,54,STABILIZE,1,559,1000,1000,1000,1000,0,0,0,0,0,0,-17.060571,-18.3447,0,0,0,1
2.2525157,54,54,STABILIZE,1,0,NaN,NaN,NaN,NaN,0,0,0,0,0,0,-17.244018,-18.4428,0,0,0,1
2.2654469,54,54,STABILIZE,1,0,NaN,NaN,NaN,NaN,0,0,0,0,0,0,-17.428446,-18.5409,0,0,0,1
2.278032,54,54,STABILIZE,1,0,NaN,NaN,NaN,NaN,0,0,0,0,0,0,-17.613855,-18.639,0,0,0,1
2.2909734,54,54,STABILIZE,1,0,NaN,NaN,NaN,NaN,0,0,0,0,0,0,-17.800245,-18.7371,0,0,0,1
2.303691,54,54,STABILIZE,1,0,NaN,NaN,NaN,NaN,0,0,0,0,0,0,-17.987616,-18.8352,0,0,0,1
2.3129511,55,55,STABILIZE,1,560,1000,1000,1000,1000,0,0,0,0,0,0,-18.175968,-18.9333,0,0,0,1
2.325878,55,55,STABILIZE,1,0,NaN,NaN,NaN,NaN,0,0,0,0,0,0,-18.365301,-19.0314,0,0,0,1
2.338375,55,55,STABILIZE,1,0,NaN,NaN,NaN,NaN,0,0,0,0,0,0,-18.555615,-19.1295,0,0,0,1
2.3463248,56,56,STABILIZE,1,561,1000,1000,1000,1000,0,0,0,0,0,0,-18.74691,-19.2276,0,0,0,1
2.3591776,56,56,STABILIZE,1,0,NaN,NaN,NaN,NaN,0,0,0,0,0,0,-18.939186,-19.3257,0,0,0,1
2.3719521,56,56,STABILIZE,1,0,NaN,NaN,NaN,NaN,0,0,0,0,0,0,-19.132443,-19.4238,0,0,0,1
2.3852124,56,56,STABILIZE,1,0,NaN,NaN,NaN,NaN,0,0,0,0,0,0,-19.326681,-19.5219,0,0,0,1
2.3977574,56,56,STABILIZE,1,0,NaN,NaN,NaN,NaN,0,0,0,0,0,0,-19.5219,-19.62,0,0,0,1
2.4101534,56,56,STABILIZE,1,0,NaN,NaN,NaN,NaN,0,0,0,0,0,0,-19.7181,-19.7181,0,0,0,1
2.4223417,57,57,STABILIZE,1,562,1000,1000,1000,1000,0,0,0,0,0,0,-19.915281,-19.8162,0,0,0,1
2.4357473,57,57,STABILIZE,1,0,NaN,NaN,NaN,NaN,0,0,0,0,0,0,-20.113443,-19.9143,0,0,0,1
2.4482417,57,57,STABILIZE,1,0,NaN,NaN,NaN,NaN,0,0,0,0,0,0,-20.312586,-20.0124,0,0,0,1
2.459171,58,58,STABILIZE,1,563,1000,1000,1000,1000,0,0,0,0,0,0,-20.51271,-20.1105,0,0,0,1
2.4732383,58,58,STABILIZE,1,0,NaN,NaN,NaN,NaN,0,0,0,0,0,0,-20.713815,-20.2086,0,0,0,1
2.4857692,58,58,STABILIZE,1,0,NaN,NaN,NaN,NaN,0,0,0,0,0,0,-20.915901,-20.3067,0,0,0,1
2.4983646,58,58,STABILIZE,1,0,NaN,NaN,NaN,NaN,0,0,0,0,0,0,-21.118968,-20.4048,0,0,0,1
2.5114892,58,58,STABILIZE,1,0,NaN,NaN,NaN,NaN,0,0,0,0,0,0,-21.323016,-20.5029,0,0,0,1
2.5240346,58,58,STABILIZE,1,0,NaN,NaN,NaN,NaN,0,0,0,0,0,0,-21.528045,-20.601,0,0,0,1
2.5339955,59,59,STABILIZE,1,564,1000,1000,1000,1000,0,0,0,0,0,0,-21.734055,-20.6991,0,0,0,1
2.5470964,59,59,STABILIZE,1,0,NaN,NaN,NaN,NaN,0,0,0,0,0,0,-21.941046,-20.7972,0,0,0,1
2.5598292,59,59,STABILIZE,1,0,NaN,NaN,NaN,NaN,0,0,0,0,0,0,-22.149018,-20.8953,0,0,0,1
2.567394,60,60,STABILIZE,1,565,1000,1000,1000,1000,0,0,0,0,0,0,-22.357971,-20.9934,0,0,0,1
2.5805574,60,60,STABILIZE,1,0,NaN,NaN,NaN,NaN,0,0,0,0,0,0,-22.567905,-21.0915,0,0,0,1
2.5932656,60,60,STABILIZE,1,0,NaN,NaN,NaN,NaN,0,0,0,0,0,0,-22.77882,-21.1896,0,0,0,1
2.6063159,60,60,STABILIZE,1,0,NaN,NaN,NaN,NaN,0,0,0,0,0,0,-22.990716,-21.2877,0,0,0,1
2.6199548,60,60,STABILIZE,1,0,NaN,NaN,NaN,NaN,0,0,0,0,0,0,-23.203593,-21.3858,0,0,0,1
2.6336202,60,60,STABILIZE,1,0,NaN,NaN,NaN,NaN,0,0,0,0,0,0,-23.417451,-21.4839,0,0,0,1
2.642393,61,61,STABILIZE,1,566,1000,1000,1000,1000,0,0,0,0,0,0,-23.63229,-21.582,0,0,0,1
2.6560517,61,61,STABILIZE,1,0,NaN,NaN,NaN,NaN,0,0,0,0,0,0,-23.84811,-21.6801,0,0,0,1
2.6684218,61,61,STABILIZE,1,0,NaN,NaN,NaN,NaN,0,0,0,0,0,0,-24.064911,-21.7782,0,0,0,1
2.67639,62,62,STABILIZE,1,567,1000,1000,1000,1000,0,0,0,0,0,0,-24.282693,-21.8763,0,0,0,1
2.6895925,62,62,STABILIZE,1,0,NaN,NaN,NaN,NaN,0,0,0,0,0,0,-24.501456,-21.9744,0,0,0,1
2.7019973,62,62,STABILIZE,1,0,NaN,NaN,NaN,NaN,0,0,0,0,0,0,-24.7212,-22.0725,0,0,0,1
2.7145027,62,62,STABILIZE,1,0,NaN,NaN,NaN,NaN,0,0,0,0,0,0,-24.941925,-22.1706,0,0,0,1
2.7171568,63,63,STABILIZE,1,568,1000,1000,1000,1000,0,0,0,0,0,0,-25.163631,-22.2686999999999,0,0,0,1
2.7303303,63,63,STABILIZE,1,0,NaN,NaN,NaN,NaN,0,0,0,0,0,0,-25.386318,-22.3667999999999,0,0,0,1
2.7434998,63,63,STABILIZE,1,0,NaN,NaN,NaN,NaN,0,0,0,0,0,0,-25.609986,-22.4648999999999,0,0,0,1
2.7512155,64,64,STABILIZE,1,569,1000,1000,1000,1000,0,0,0,0,0,0,-25.834635,-22.5629999999999,0,0,0,1
2.7647071,64,64,STABILIZE,1,0,NaN,NaN,NaN,NaN,0,0,0,0,0,0,-26.060265,-22.6610999999999,0,0,0,1
2.7769657,64,64,STABILIZE,1,0,NaN,NaN,NaN,NaN,0,0,0,0,0,0,-26.286876,-22.7591999999999,0,0,0,1
2.7848287,65,65,STABILIZE,1,570,1009,1009,1009,1009,8.1,8.1,8.1,8.1,0.00209952,0.000214018348623853,-26.514468,-22.8572999999999,0,0,0,1
2.7978176,65,65,STABILIZE,1,0,NaN,NaN,NaN,NaN,8.1,8.1,8.1,8.1,0.00209952,0.000214018348623853,-26.743041,-22.9553991601919,0,0,0,1
2.8124909,65,65,STABILIZE,1,0,NaN,NaN,NaN,NaN,8.1,8.1,8.1,8.1,0.00209952,0.000214018348623853,-26.9725949916019,-23.053496439214,0,0,0,1
2.8247634,66,66,STABILIZE,1,571,1018,1018,1018,1018,16.2,16.2,16.2,16.2,0.00839808,0.000856073394495413,-27.2031299559941,-23.1515914393331,0,0,0,1
2.838623,66,66,STABILIZE,1,0,NaN,NaN,NaN,NaN,16.2,16.2,16.2,16.2,0.00839808,0.000856073394495413,-27.4346458703874,-23.2496783229565,0,0,0,1
2.8513988,66,66,STABILIZE,1,0,NaN,NaN,NaN,NaN,16.2,16.2,16.2,16.2,0.00839808,0.000856073394495413,-27.667142653617,-23.3477559486955,0,0,0,1
2.8591837,67,67,STABILIZE,1,572,1027,1027,1027,1027,24.3,24.3,24.3,24.3,0.01889568,0.00192616513761468,-27.9006202131039,-23.445824398727,0,0,0,1
2.8729086,67,67,STABILIZE,1,0,NaN,NaN,NaN,NaN,24.3,24.3,24.3,24.3,0.01889568,0.00192616513761468,-28.1350784570912,-23.5438719408669,0,0,0,1
2.8858166,67,67,STABILIZE,1,0,NaN,NaN,NaN,NaN,24.3,24.3,24.3,24.3,0.01889568,0.00192616513761468,-28.3705171764998,-23.6418989502427,0,0,0,1
2.8922923,68,68,STABILIZE,1,573,1036,1036,1036,1036,32.4,32.4,32.4,32.4,0.03359232,0.00342429357798165,-28.6069361660023,-23.7399070972786,0,0,0,1
2.9071036,68,68,STABILIZE,1,0,NaN,NaN,NaN,NaN,32.4,32.4,32.4,32.4,0.03359232,0.00342429357798165,-28.8443352369751,-23.8378786640679,0,0,0,1
2.9197846,68,68,STABILIZE,1,0,NaN,NaN,NaN,NaN,32.4,32.4,32.4,32.4,0.03359232,0.00342429357798165,-29.0827140236157,-23.9358165624916,0,0,0,1
2.932194,68,68,STABILIZE,1,0,NaN,NaN,NaN,NaN,32.4,32.4,32.4,32.4,0.03359232,0.00342429357798165,-29.3220721892407,-24.0337247075553,0,0,0,1
2.9381907,69,69,STABILIZE,1,574,1048,1048,1048,1048,43.2,43.2,43.2,43.2,0.05971968,0.00608763302752294,-29.5624094363162,-24.1316072459836,0,0,0,1
2.951832,69,69,STABILIZE,1,0,NaN,NaN,NaN,NaN,43.2,43.2,43.2,43.2,0.05971968,0.00608763302752294,-29.803725508776,-24.2294288639427,0,0,0,1
2.9642338,69,69,STABILIZE,1,0,NaN,NaN,NaN,NaN,43.2,43.2,43.2,43.2,0.05971968,0.00608763302752294,-30.0460197974155,-24.3271963359588,0,0,0,1
2.9712996,70,70,STABILIZE,1,575,1057,1057,1057,1057,51.3,51.3,51.3,51.3,0.08421408,0.00858451376146789,-30.2892917607751,-24.4249170290974,0,0,0,1
2.9845781,70,70,STABILIZE,1,0,NaN,NaN,NaN,NaN,51.3,51.3,51.3,51.3,0.08421408,0.00858451376146789,-30.533540931066,-24.5225597290915,0,0,0,1
2.9970808,70,70,STABILIZE,1,0,NaN,NaN,NaN,NaN,51.3,51.3,51.3,51.3,0.08421408,0.00858451376146789,-30.778766528357,-24.6201347880585,0,0,0,1
3.0047304,71,71,STABILIZE,1,576,1066,1066,1066,1066,59.4,59.4,59.4,59.4,0.11290752,0.0115094311926606,-31.0249678762375,-24.7176523764364,0,0,0,1
3.0177678,71,71,STABILIZE,1,0,NaN,NaN,NaN,NaN,59.4,59.4,59.4,59.4,0.11290752,0.0115094311926606,-31.2721444000019,-24.815074976523,0,0,0,1
3.0302343,71,71,STABILIZE,1,0,NaN,NaN,NaN,NaN,59.4,59.4,59.4,59.4,0.11290752,0.0115094311926606,-31.5202951497671,-24.9124164219839,0,0,0,1
3.0430878,71,71,STABILIZE,1,0,NaN,NaN,NaN,NaN,59.4,59.4,59.4,59.4,0.11290752,0.0115094311926606,-31.769419313987,-25.0096896387888,0,0,0,1
3.0464853,72,72,STABILIZE,1,577,1078,1078,1078,1078,70.2,70.2,70.2,70.2,0.15769728,0.0160751559633028,-32.0195162103749,-25.1069061574976,0,0,0,1
3.0601441,72,72,STABILIZE,1,0,NaN,NaN,NaN,NaN,70.2,70.2,70.2,70.2,0.15769728,0.0160751559633028,-32.2705852719498,-25.2039999385804,0,0,0,1
3.0725959,72,72,STABILIZE,1,0,NaN,NaN,NaN,NaN,70.2,70.2,70.2,70.2,0.15769728,0.0160751559633028,-32.5226252713356,-25.3009897837192,0,0,0,1
3.0799263,73,73,STABILIZE,1,578,1087,1087,1087,1087,78.3,78.3,78.3,78.3,0.19618848,0.0199988256880734,-32.7756351691728,-25.3978928027631,0,0,0,1
3.0941428,73,73,STABILIZE,1,0,NaN,NaN,NaN,NaN,78.3,78.3,78.3,78.3,0.19618848,0.0199988256880734,-33.0296140972005,-25.4946578822684,0,0,0,1
3.1070267,73,73,STABILIZE,1,0,NaN,NaN,NaN,NaN,78.3,78.3,78.3,78.3,0.19618848,0.0199988256880734,-33.2845606760231,-25.5913071952999,0,0,0,1
3.1141132,74,74,STABILIZE,1,579,1096,1096,1096,1096,86.4,86.4,86.4,86.4,0.23887872,0.0243505321100917,-33.5404737479761,-25.687860429653,0,0,0,1
3.1281582,74,74,STABILIZE,1,0,NaN,NaN,NaN,NaN,86.4,86.4,86.4,86.4,0.23887872,0.0243505321100917,-33.7973523522727,-25.7842598407267,0,0,0,1
3.1412702,74,74,STABILIZE,1,0,NaN,NaN,NaN,NaN,86.4,86.4,86.4,86.4,0.23887872,0.0243505321100917,-34.0551949506799,-25.8805309440056,0,0,0,1
3.1550724,75,75,STABILIZE,1,580,1100,1100,1100,1100,90,90,90,90,0.2592,0.0264220183486239,-34.31400026012,-25.9766960415791,0,0,0,1
3.16863,75,75,STABILIZE,1,0,NaN,NaN,NaN,NaN,90,90,90,90,0.2592,0.0264220183486239,-34.5737672205358,-26.072737390682,0,0,0,1
3.1816897,75,75,STABILIZE,1,0,NaN,NaN,NaN,NaN,90,90,90,90,0.2592,0.0264220183486239,-34.8344945944426,-26.1686769794325,0,0,0,1
3.1890112,76,76,STABILIZE,1,581,1100,1100,1100,1100,90,90,90,90,0.2592,0.0264220183486239,-35.0961813642369,-26.2645333924926,0,0,0,1
3.202014,76,76,STABILIZE,1,0,NaN,NaN,NaN,NaN,90,90,90,90,0.2592,0.0264220183486239,-35.3588266981618,-26.3603221338589,0,0,0,1
3.21462,76,76,STABILIZE,1,0,NaN,NaN,NaN,NaN,90,90,90,90,0.2592,0.0264220183486239,-35.6224299195004,-26.4560560139395,0,0,0,1
3.2255304,77,77,STABILIZE,1,582,1100,1100,1100,1100,90,90,90,90,0.2592,0.0264220183486239,-35.8869904796398,-26.5517455416761,0,0,0,1
3.2393658,77,77,STABILIZE,1,0,NaN,NaN,NaN,NaN,90,90,90,90,0.2592,0.0264220183486239,-36.1525079350566,-26.6473992910155,0,0,0,1
3.2520863,77,77,STABILIZE,1,0,NaN,NaN,NaN,NaN,90,90,90,90,0.2592,0.0264220183486239,-36.4189819279668,-26.7430242278631,0,0,0,1
3.2620281,78,78,STABILIZE,1,583,1100,1100,1100,1100,90,90,90,90,0.2592,0.0264220183486239,-36.6864121702454,-26.8386259932619,0,0,0,1
3.2761873,78,78,STABILIZE,1,0,NaN,NaN,NaN,NaN,90,90,90,90,0.2592,0.0264220183486239,-36.954798430178,-26.9342091437701,0,0,0,1
3.2888814,78,78,STABILIZE,1,0,NaN,NaN,NaN,NaN,90,90,90,90,0.2592,0.0264220183486239,-37.2241405216157,-27.0297773526179,0,0,0,1
3.3008687,79,79,STABILIZE,1,584,1100,1100,1100,1100,90,90,90,90,0.2592,0.0264220183486239,-37.4944382951419,-27.1253335762984,0,0,0,1
3.3153181,79,79,STABILIZE,1,0,NaN,NaN,NaN,NaN,90,90,90,90,0.2592,0.0264220183486239,-37.7656916309049,-27.2208801914683,0,0,0,1
3.3282626,79,79,STABILIZE,1,0,NaN,NaN,NaN,NaN,90,90,90,90,0.2592,0.0264220183486239,-38.0379004328195,-27.3164191067885,0,0,0,1
3.33397,80,80,STABILIZE,1,585,1100,1100,1100,1100,90,90,90,90,0.2592,0.0264220183486239,-38.3110646238874,-27.4119518538826,0,0,0,1
3.3479563,80,80,STABILIZE,1,0,NaN,NaN,NaN,NaN,90,90,90,90,0.2592,0.0264220183486239,-38.5851841424263,-27.5074796610542,0,0,0,1
3.3604002,80,80,STABILIZE,1,0,NaN,NaN,NaN,NaN,90,90,90,90,0.2592,0.0264220183486239,-38.8602589390368,-27.6030035128691,0,0,0,1
3.3717117,81,81,STABILIZE,1,586,1100,1100,1100,1100,90,90,90,90,0.2592,0.0264220183486239,-39.1362889741655,-27.6985241982107,0,0,0,1
3.3859066,81,81,STABILIZE,1,0,NaN,NaN,NaN,NaN,90,90,90,90,0.2592,0.0264220183486239,-39.4132742161476,-27.7940423489734,0,0,0,1
3.3984159,81,81,STABILIZE,1,0,NaN,NaN,NaN,NaN,90,90,90,90,0.2592,0.0264220183486239,-39.6912146396373,-27.8895584711767,0,0,0,1
3.4056506,82,82,STABILIZE,1,587,1100,1100,1100,1100,90,90,90,90,0.2592,0.0264220183486239,-39.9701102243491,-27.9850729699591,0,0,0,1
3.4188273,82,82,STABILIZE,1,0,NaN,NaN,NaN,NaN,90,90,90,90,0.2592,0.0264220183486239,-40.2499609540487,-28.0805861696375,0,0,0,1
3.4311622,82,82,STABILIZE,1,0,NaN,NaN,NaN,NaN,90,90,90,90,0.2592,0.0264220183486239,-40.5307668157451,-28.176098329798,0,0,0,1
3.4394637,83,83,STABILIZE,1,588,1100,1100,1100,1100,90,90,90,90,0.2592,0.0264220183486239,-40.812527799043,-28.2716096581936,0,0,0,1
3.4527069,83,83,STABILIZE,1,0,NaN,NaN,NaN,NaN,90,90,90,90,0.2592,0.0264220183486239,-41.095243895625,-28.3671203210812,0,0,0,1
3.4652728,83,83,STABILIZE,1,0,NaN,NaN,NaN,NaN,90,90,90,90,0.2592,0.0264220183486239,-41.3789150988358,-28.4626304515007,0,0,0,1
3.4781931,83,83,STABILIZE,1,0,NaN,NaN,NaN,NaN,90,90,90,90,0.2592,0.0264220183486239,-41.6635414033508,-28.5581401559064,0,0,0,1
3.4908175,83,83,STABILIZE,1,0,NaN,NaN,NaN,NaN,90,90,90,90,0.2592,0.0264220183486239,-41.9491228049099,-28.6536495194758,0,0,0,1
3.5032353,83,83,STABILIZE,1,0,NaN,NaN,NaN,NaN,90,90,90,90,0.2592,0.0264220183486239,-42.2356593001046,-28.74915861036,0,0,0,1
3.5159408,83,83,STABILIZE,1,0,NaN,NaN,NaN,NaN,90,90,90,90,0.2592,0.0264220183486239,-42.5231508862082,-28.8446674830858,0,0,0,1
3.5295401,83,83,STABILIZE,1,0,NaN,NaN,NaN,NaN,90,90,90,90,0.2592,0.0264220183486239,-42.8115975610391,-28.9401761812782,0,0,0,1
3.5422369,84,84,STABILIZE,1,588,1100,1100,1100,1100,90,90,90,90,0.2592,0.0264220183486239,-43.1009993228519,-29.0356847398396,0,0,0,1
3.5548432,85,85,STABILIZE,1,589,1100,1100,1100,1100,90,90,90,90,0.2592,0.0264220183486239,-43.3913561702502,-29.1311931866935,0,0,0,1
3.5689427,85,85,STABILIZE,1,0,NaN,NaN,NaN,NaN,90,90,90,90,0.2592,0.0264220183486239,-43.6826681021172,-29.2267015441797,0,0,0,1
3.5812909,85,85,STABILIZE,1,0,NaN,NaN,NaN,NaN,90,90,90,90,0.2592,0.0264220183486239,-43.974935117559,-29.3222098301707,0,0,0,1
3.5932526,86,86,STABILIZE,1,590,1100,1100,1100,1100,90,90,90,90,0.2592,0.0264220183486239,-44.2681572158607,-29.4177180589647,0,0,0,1
3.6063956,86,86,STABILIZE,1,0,NaN,NaN,NaN,NaN,90,90,90,90,0.2592,0.0264220183486239,-44.5623343964503,-29.5132262420008,0,0,0,1
3.6188882,86,86,STABILIZE,1,0,NaN,NaN,NaN,NaN,90,90,90,90,0.2592,0.0264220183486239,-44.8574666588703,-29.6087343884301,0,0,0,1
3.6265016,87,87,STABILIZE,1,591,1100,1100,1100,1100,90,90,90,90,0.2592,0.0264220183486239,-45.1535540027546,-29.7042425055739,0,0,0,1
3.6401463,87,87,STABILIZE,1,0,NaN,NaN,NaN,NaN,90,90,90,90,0.2592,0.0264220183486239,-45.4505964278104,-29.7997505992892,0,0,0,1
3.6529811,87,87,STABILIZE,1,0,NaN,NaN,NaN,NaN,90,90,90,90,0.2592,0.0264220183486239,-45.7485939338033,-29.8952586742615,0,0,0,1
3.6659433,87,87,STABILIZE,1,0,NaN,NaN,NaN,NaN,90,90,90,90,0.2592,0.0264220183486239,-46.0475465205459,-29.9907667342395,0,0,0,1
3.6691035,88,88,STABILIZE,1,592,1100,1100,1100,1100,90,90,90,90,0.2592,0.0264220183486239,-46.3474541878883,-30.0862747822219,0,0,0,1
3.6825549,88,88,STABILIZE,1,0,NaN,NaN,NaN,NaN,90,90,90,90,0.2592,0.0264220183486239,-46.6483169357105,-30.1817828206079,0,0,0,1
3.6953112,88,88,STABILIZE,1,0,NaN,NaN,NaN,NaN,90,90,90,90,0.2592,0.0264220183486239,-46.9501347639166,-30.2772908513167,0,0,0,1
3.7090491,89,89,STABILIZE,1,593,1100,1100,1100,1100,90,90,90,90,0.2592,0.0264220183486239,-47.2529076724297,-30.3727988758837,0,0,0,1
3.7227369,89,89,STABILIZE,1,0,NaN,NaN,NaN,NaN,90,90,90,90,0.2592,0.0264220183486239,-47.5566356611886,-30.4683068955374,0,0,0,1
3.7352899,89,89,STABILIZE,1,0,NaN,NaN,NaN,NaN,90,90,90,90,0.2592,0.0264220183486239,-47.861318730144,-30.5638149112603,0,0,0,1
3.7423263,90,90,STABILIZE,1,594,1100,1100,1100,1100,90,90,90,90,0.2592,0.0264220183486239,-48.1669568792566,-30.6593229238386,0,0,0,1
3.7556455,90,90,STABILIZE,1,0,NaN,NaN,NaN,NaN,90,90,90,90,0.2592,0.0264220183486239,-48.4735501084949,-30.7548309339013,0,0,0,1
3.7683041,90,90,STABILIZE,1,0,NaN,NaN,NaN,NaN,90,90,90,90,0.2592,0.0264220183486239,-48.781098417834,-30.8503389419515,0,0,0,1
3.7757963,91,91,STABILIZE,1,595,1100,1100,1100,1100,90,90,90,90,0.2592,0.0264220183486239,-49.0896018072535,-30.9458469483916,0,0,0,1
3.7896505,91,91,STABILIZE,1,0,NaN,NaN,NaN,NaN,90,90,90,90,0.2592,0.0264220183486239,-49.3990602767374,-31.0413549535437,0,0,0,1
3.802542,91,91,STABILIZE,1,0,NaN,NaN,NaN,NaN,90,90,90,90,0.2592,0.0264220183486239,-49.7094738262728,-31.1368629576654,0,0,0,1
3.8104221,92,92,STABILIZE,1,596,1100,1100,1100,1100,90,90,90,90,0.2592,0.0264220183486239,-50.0208424558495,-31.2323709609627,0,0,0,1
3.8242745,92,92,STABILIZE,1,0,NaN,NaN,NaN,NaN,90,90,90,90,0.2592,0.0264220183486239,-50.3331661654591,-31.3278789636006,0,0,0,1
3.8368571,92,92,STABILIZE,1,0,NaN,NaN,NaN,NaN,90,90,90,90,0.2592,0.0264220183486239,-50.6464449550951,-31.4233869657109,0,0,0,1
3.843218,93,93,STABILIZE,1,597,1100,1100,1100,1100,90,90,90,90,0.2592,0.0264220183486239,-50.9606788247522,-31.5188949673991,0,0,0,1
3.8562966,93,93,STABILIZE,1,0,NaN,NaN,NaN,NaN,90,90,90,90,0.2592,0.0264220183486239,-51.2758677744262,-31.6144029687497,0,0,0,1
3.8689057,93,93,STABILIZE,1,0,NaN,NaN,NaN,NaN,90,90,90,90,0.2592,0.0264220183486239,-51.5920118041137,-31.7099109698302,0,0,0,1
3.8765196,94,94,STABILIZE,1,598,1100,1100,1100,1100,90,90,90,90,0.2592,0.0264220183486239,-51.909110913812,-31.8054189706946,0,0,0,1
3.8897082,94,94,STABILIZE,1,0,NaN,NaN,NaN,NaN,90,90,90,90,0.2592,0.0264220183486239,-52.227165103519,-31.9009269713861,0,0,0,1
3.9019724,94,94,STABILIZE,1,0,NaN,NaN,NaN,NaN,90,90,90,90,0.2592,0.0264220183486239,-52.5461743732328,-31.9964349719393,0,0,0,1
3.914945,94,94,STABILIZE,1,0,NaN,NaN,NaN,NaN,90,90,90,90,0.2592,0.0264220183486239,-52.8661387229522,-32.0919429723818,0,0,0,1
3.9216406,95,95,STABILIZE,1,599,1100,1100,1100,1100,90,90,90,90,0.2592,0.0264220183486239,-53.187058152676,-32.1874509727359,0,0,0,1
3.9353462,95,95,STABILIZE,1,0,NaN,NaN,NaN,NaN,90,90,90,90,0.2592,0.0264220183486239,-53.5089326624034,-32.2829589730191,0,0,0,1
3.9477756,95,95,STABILIZE,1,0,NaN,NaN,NaN,NaN,90,90,90,90,0.2592,0.0264220183486239,-53.8317622521336,-32.3784669732457,0,0,0,1
3.9589059,96,96,STABILIZE,1,600,1100,1100,1100,1100,90,90,90,90,0.2592,0.0264220183486239,-54.155546921866,-32.473974973427,0,0,0,1
3.9728263,96,96,STABILIZE,1,0,NaN,NaN,NaN,NaN,90,90,90,90,0.2592,0.0264220183486239,-54.4802866716003,-32.569482973572,0,0,0,1
3.9853103,96,96,STABILIZE,1,0,NaN,NaN,NaN,NaN,90,90,90,90,0.2592,0.0264220183486239,-54.805981501336,-32.664990973688,0,0,0,1
3.9932071,97,97,STABILIZE,1,601,1100,1100,1100,1100,90,90,90,90,0.2592,0.0264220183486239,-55.1326314110729,-32.7604989737808,0,0,0,1
4.0061857,97,97,STABILIZE,1,0,NaN,NaN,NaN,NaN,90,90,90,90,0.2592,0.0264220183486239,-55.4602364008107,-32.8560069738551,0,0,0,1
4.0185737,97,97,STABILIZE,1,0,NaN,NaN,NaN,NaN,90,90,90,90,0.2592,0.0264220183486239,-55.7887964705493,-32.9515149739145,0,0,0,1
4.0297588,98,98,STABILIZE,1,602,1100,1100,1100,1100,90,90,90,90,0.2592,0.0264220183486239,-56.1183116202884,-33.047022973962,0,0,0,1
4.0431339,98,98,STABILIZE,1,0,NaN,NaN,NaN,NaN,90,90,90,90,0.2592,0.0264220183486239,-56.448781850028,-33.142530974,0,0,0,1
4.0560269,98,98,STABILIZE,1,0,NaN,NaN,NaN,NaN,90,90,90,90,0.2592,0.0264220183486239,-56.780207159768,-33.2380389740304,0,0,0,1
4.0628326,99,99,STABILIZE,1,603,1100,1100,1100,1100,90,90,90,90,0.2592,0.0264220183486239,-57.1125875495083,-33.3335469740547,0,0,0,1
4.0755918,99,99,STABILIZE,1,0,NaN,NaN,NaN,NaN,90,90,90,90,0.2592,0.0264220183486239,-57.4459230192489,-33.4290549740742,0,0,0,1
4.0883035,99,99,STABILIZE,1,0,NaN,NaN,NaN,NaN,90,90,90,90,0.2592,0.0264220183486239,-57.7802135689896,-33.5245629740898,0,0,0,1
4.096623,100,100,STABILIZE,1,604,1100,1100,1100,1100,90,90,90,90,0.2592,0.0264220183486239,-58.1154591987305,-33.6200709741022,0,0,0,1
4.1096493,100,100,STABILIZE,1,0,NaN,NaN,NaN,NaN,90,90,90,90,0.2592,0.0264220183486239,-58.4516599084715,-33.7155789741122,0,0,0,1
4.1221832,100,100,STABILIZE,1,0,NaN,NaN,NaN,NaN,90,90,90,90,0.2592,0.0264220183486239,-58.7888156982127,-33.8110869741202,0,0,0,1
4.1350413,100,100,STABILIZE,1,0,NaN,NaN,NaN,NaN,90,90,90,90,0.2592,0.0264220183486239,-59.1269265679539,-33.9065949741266,0,0,0,1
4.1480985,100,100,STABILIZE,1,0,NaN,NaN,NaN,NaN,90,90,90,90,0.2592,0.0264220183486239,-59.4659925176951,-34.0021029741317,0,0,0,1
4.1603501,100,100,STABILIZE,1,0,NaN,NaN,NaN,NaN,90,90,90,90,0.2592,0.0264220183486239,-59.8060135474364,-34.0976109741357,0,0,0,1
4.1730809,101,101,STABILIZE,1,605,1100,1100,1100,1100,90,90,90,90,0.2592,0.0264220183486239,-60.1469896571778,-34.193118974139,0,0,0,1
4.1871364,101,101,STABILIZE,1,0,NaN,NaN,NaN,NaN,90,90,90,90,0.2592,0.0264220183486239,-60.4889208469192,-34.2886269741416,0,0,0,1
4.2001986,101,101,STABILIZE,1,0,NaN,NaN,NaN,NaN,90,90,90,90,0.2592,0.0264220183486239,-60.8318071166606,-34.3841349741437,0,0,0,1
4.2092153,102,102,STABILIZE,1,606,1100,1100,1100,1100,90,90,90,90,0.2592,0.0264220183486239,-61.175648466402,-34.4796429741454,0,0,0,1
4.2229153,102,102,STABILIZE,1,0,NaN,NaN,NaN,NaN,90,90,90,90,0.2592,0.0264220183486239,-61.5204448961435,-34.5751509741467,0,0,0,1
4.235723,102,102,STABILIZE,1,0,NaN,NaN,NaN,NaN,90,90,90,90,0.2592,0.0264220183486239,-61.866196405885,-34.6706589741478,0,0,0,1
4.2457273,103,103,STABILIZE,1,607,1100,1100,1100,1100,90,90,90,90,0.2592,0.0264220183486239,-62.2129029956264,-34.7661669741486,0,0,0,1
4.2592174,103,103,STABILIZE,1,0,NaN,NaN,NaN,NaN,90,90,90,90,0.2592,0.0264220183486239,-62.5605646653679,-34.8616749741493,0,0,0,1
4.2717353,103,103,STABILIZE,1,0,NaN,NaN,NaN,NaN,90,90,90,90,0.2592,0.0264220183486239,-62.9091814151094,-34.9571829741499,0,0,0,1
4.2795716,104,104,STABILIZE,1,608,1100,1100,1100,1100,90,90,90,90,0.2592,0.0264220183486239,-63.2587532448509,-35.0526909741503,0,0,0,1
4.293323,104,104,STABILIZE,1,0,NaN,NaN,NaN,NaN,90,90,90,90,0.2592,0.0264220183486239,-63.6092801545924,-35.1481989741507,0,0,0,1
4.305868,104,104,STABILIZE,1,0,NaN,NaN,NaN,NaN,90,90,90,90,0.2592,0.0264220183486239,-63.9607621443339,-35.2437069741509,0,0,0,1
4.3128222,105,105,STABILIZE,1,609,1100,1100,1100,1100,90,90,90,90,0.2592,0.0264220183486239,-64.3131992140754,-35.3392149741512,0,0,0,1
4.3258707,105,105,STABILIZE,1,0,NaN,NaN,NaN,NaN,90,90,90,90,0.2592,0.0264220183486239,-64.6665913638169,-35.4347229741513,0,0,0,1
4.3383445,105,105,STABILIZE,1,0,NaN,NaN,NaN,NaN,90,90,90,90,0.2592,0.0264220183486239,-65.0209385935585,-35.5302309741515,0,0,0,1
4.3513833,105,105,STABILIZE,1,0,NaN,NaN,NaN,NaN,90,90,90,90,0.2592,0.0264220183486239,-65.3762409033,-35.6257389741516,0,0,0,1
4.3550661,106,106,STABILIZE,1,610,1100,1100,1100,1100,90,90,90,90,0.2592,0.0264220183486239,-65.7324982930415,-35.7212469741517,0,0,0,1
4.3685334,106,106,STABILIZE,1,0,NaN,NaN,NaN,NaN,90,90,90,90,0.2592,0.0264220183486239,-66.089710762783,-35.8167549741518,0,0,0,1
4.3812711,106,106,STABILIZE,1,0,NaN,NaN,NaN,NaN,90,90,90,90,0.2592,0.0264220183486239,-66.4478783125245,-35.9122629741518,0,0,0,1
4.3892944,107,107,STABILIZE,1,611,1100,1100,1100,1100,90,90,90,90,0.2592,0.0264220183486239,-66.807000942266,-36.0077709741519,0,0,0,1
4.4025419,107,107,STABILIZE,1,0,NaN,NaN,NaN,NaN,90,90,90,90,0.2592,0.0264220183486239,-67.1670786520076,-36.1032789741519,0,0,0,1
4.415583,107,107,STABILIZE,1,0,NaN,NaN,NaN,NaN,90,90,90,90,0.2592,0.0264220183486239,-67.5281114417491,-36.1987869741519,0,0,0,1
4.4222589,108,108,STABILIZE,1,612,1100,1100,1100,1100,90,90,90,90,0.2592,0.0264220183486239,-67.8900993114906,-36.294294974152,0,0,0,1
4.4357577,108,108,STABILIZE,1,0,NaN,NaN,NaN,NaN,90,90,90,90,0.2592,0.0264220183486239,-68.2530422612321,-36.389802974152,0,0,0,1
4.4484972,108,108,STABILIZE,1,0,NaN,NaN,NaN,NaN,90,90,90,90,0.2592,0.0264220183486239,-68.6169402909736,-36.485310974152,0,0,0,1
4.4611427,108,108,STABILIZE,1,0,NaN,NaN,NaN,NaN,90,90,90,90,0.2592,0.0264220183486239,-68.9817934007152,-36.580818974152,0,0,0,1
4.4674413,109,109,STABILIZE,1,613,1100,1100,1100,1100,90,90,90,90,0.2592,0.0264220183486239,-69.3476015904567,-36.676326974152,0,0,0,1
4.481052,109,109,STABILIZE,1,0,NaN,NaN,NaN,NaN,90,90,90,90,0.2592,0.0264220183486239,-69.7143648601982,-36.771834974152,0,0,0,1
4.4938547,109,109,STABILIZE,1,0,NaN,NaN,NaN,NaN,90,90,90,90,0.2592,0.0264220183486239,-70.0820832099397,-36.867342974152,0,0,0,1
4.5010959,110,110,STABILIZE,1,614,1100,1100,1100,1100,90,90,90,90,0.2592,0.0264220183486239,-70.4507566396812,-36.962850974152,0,0,0,1
4.5151688,110,110,STABILIZE,1,0,NaN,NaN,NaN,NaN,90,90,90,90,0.2592,0.0264220183486239,-70.8203851494228,-37.058358974152,0,0,0,1
4.5281413,110,110,STABILIZE,1,0,NaN,NaN,NaN,NaN,90,90,90,90,0.2592,0.0264220183486239,-71.1909687391643,-37.153866974152,0,0,0,1
4.5338027,111,111,STABILIZE,1,615,1100,1100,1100,1100,90,90,90,90,0.2592,0.0264220183486239,-71.5625074089058,-37.249374974152,0,0,0,1
4.5468367,111,111,STABILIZE,1,0,NaN,NaN,NaN,NaN,90,90,90,90,0.2592,0.0264220183486239,-71.9350011586473,-37.344882974152,0,0,0,1
4.5595372,111,111,STABILIZE,1,0,NaN,NaN,NaN,NaN,90,90,90,90,0.2592,0.0264220183486239,-72.3084499883888,-37.4403909741521,0,0,0,1
4.5720104,111,111,STABILIZE,1,0,NaN,NaN,NaN,NaN,90,90,90,90,0.2592,0.0264220183486239,-72.6828538981304,-37.5358989741521,0,0,0,1
4.5850009,111,111,STABILIZE,1,0,NaN,NaN,NaN,NaN,90,90,90,90,0.2592,0.0264220183486239,-73.0582128878719,-37.6314069741521,0,0,0,1
4.5975315,111,111,STABILIZE,1,0,NaN,NaN,NaN,NaN,90,90,90,90,0.2592,0.0264220183486239,-73.4345269576134,-37.7269149741521,0,0,0,1
4.608666,112,112,STABILIZE,1,616,1100,1100,1100,1100,90,90,90,90,0.2592,0.0264220183486239,-73.8117961073549,-37.8224229741521,0,0,0,1
4.6217162,112,112,STABILIZE,1,0,NaN,NaN,NaN,NaN,90,90,90,90,0.2592,0.0264220183486239,-74.1900203370964,-37.9179309741521,0,0,0,1
4.634189,112,112,STABILIZE,1,0,NaN,NaN,NaN,NaN,90,90,90,90,0.2592,0.0264220183486239,-74.569199646838,-38.0134389741521,0,0,0,1
4.6426467,113,113,STABILIZE,1,617,1100,1100,1100,1100,90,90,90,90,0.2592,0.0264220183486239,-74.9493340365795,-38.1089469741521,0,0,0,1
4.6561049,113,113,STABILIZE,1,0,NaN,NaN,NaN,NaN,90,90,90,90,0.2592,0.0264220183486239,-75.330423506321,-38.2044549741521,0,0,0,1
4.6688098,113,113,STABILIZE,1,0,NaN,NaN,NaN,NaN,90,90,90,90,0.2592,0.0264220183486239,-75.7124680560625,-38.2999629741521,0,0,0,1
4.6817736,113,113,STABILIZE,1,0,NaN,NaN,NaN,NaN,90,90,90,90,0.2592,0.0264220183486239,-76.095467685804,-38.3954709741521,0,0,0,1
4.6847013,114,114,STABILIZE,1,618,1100,1100,1100,1100,90,90,90,90,0.2592,0.0264220183486239,-76.4794223955456,-38.4909789741521,0,0,0,1
4.6975072,114,114,STABILIZE,1,0,NaN,NaN,NaN,NaN,90,90,90,90,0.2592,0.0264220183486239,-76.8643321852871,-38.5864869741521,0,0,0,1
4.709911,114,114,STABILIZE,1,0,NaN,NaN,NaN,NaN,90,90,90,90,0.2592,0.0264220183486239,-77.2501970550286,-38.6819949741521,0,0,0,1
4.7182134,115,115,STABILIZE,1,619,1100,1100,1100,1100,90,90,90,90,0.2592,0.0264220183486239,-77.6370170047701,-38.7775029741521,0,0,0,1
4.7312864,115,115,STABILIZE,1,0,NaN,NaN,NaN,NaN,90,90,90,90,0.2592,0.0264220183486239,-78.0247920345116,-38.8730109741521,0,0,0,1
4.7438734,115,115,STABILIZE,1,0,NaN,NaN,NaN,NaN,90,90,90,90,0.2592,0.0264220183486239,-78.4135221442532,-38.9685189741521,0,0,0,1
4.7512856,116,116,STABILIZE,1,620,1100,1100,1100,1100,90,90,90,90,0.2592,0.0264220183486239,-78.8032073339947,-39.0640269741521,0,0,0,1
4.7648783,116,116,STABILIZE,1,0,NaN,NaN,NaN,NaN,90,90,90,90,0.2592,0.0264220183486239,-79.1938476037362,-39.1595349741521,0,0,0,1
4.7775639,116,116,STABILIZE,1,0,NaN,NaN,NaN,NaN,90,90,90,90,0.2592,0.0264220183486239,-79.5854429534777,-39.2550429741521,0,0,0,1
4.790197,116,116,STABILIZE,1,0,NaN,NaN,NaN,NaN,90,90,90,90,0.2592,0.0264220183486239,-79.9779933832193,-39.3505509741521,0,0,0,1
4.7965749,117,117,STABILIZE,1,621,1100,1100,1100,1100,90,90,90,90,0.2592,0.0264220183486239,-80.3714988929608,-39.4460589741521,0,0,0,1
4.8103887,117,117,STABILIZE,1,0,NaN,NaN,NaN,NaN,90,90,90,90,0.2592,0.0264220183486239,-80.7659594827023,-39.5415669741521,0,0,0,1
4.8226988,117,117,STABILIZE,1,0,NaN,NaN,NaN,NaN,90,90,90,90,0.2592,0.0264220183486239,-81.1613751524438,-39.6370749741521,0,0,0,1
4.8341498,118,118,STABILIZE,1,622,1100,1100,1100,1100,90,90,90,90,0.2592,0.0264220183486239,-81.5577459021853,-39.7325829741521,0,0,0,1
4.8472428,118,118,STABILIZE,1,0,NaN,NaN,NaN,NaN,90,90,90,90,0.2592,0.0264220183486239,-81.9550717319269,-39.8280909741521,0,0,0,1
4.8596328,118,118,STABILIZE,1,0,NaN,NaN,NaN,NaN,90,90,90,90,0.2592,0.0264220183486239,-82.3533526416684,-39.9235989741521,0,0,0,1
4.8696688,119,119,STABILIZE,1,623,1100,1100,1100,1100,90,90,90,90,0.2592,0.0264220183486239,-82.7525886314099,-40.0191069741521,0,0,0,1
4.8826287,119,119,STABILIZE,1,0,NaN,NaN,NaN,NaN,90,90,90,90,0.2592,0.0264220183486239,-83.1527797011514,-40.1146149741521,0,0,0,1
4.8950605,119,119,STABILIZE,1,0,NaN,NaN,NaN,NaN,90,90,90,90,0.2592,0.0264220183486239,-83.553925850893,-40.2101229741521,0,0,0,1
4.9049356,120,120,STABILIZE,1,624,1100,1100,1100,1100,90,90,90,90,0.2592,0.0264220183486239,-83.9560270806345,-40.3056309741521,0,0,0,1
4.918775,120,120,STABILIZE,1,0,NaN,NaN,NaN,NaN,90,90,90,90,0.2592,0.0264220183486239,-84.359083390376,-40.4011389741521,0,0,0,1
4.9313028,120,120,STABILIZE,1,0,NaN,NaN,NaN,NaN,90,90,90,90,0.2592,0.0264220183486239,-84.7630947801175,-40.4966469741521,0,0,0,1
4.9382599,121,121,STABILIZE,1,625,1100,1100,1100,1100,90,90,90,90,0.2592,0.0264220183486239,-85.168061249859,-40.5921549741521,0,0,0,1
4.9514795,121,121,STABILIZE,1,0,NaN,NaN,NaN,NaN,90,90,90,90,0.2592,0.0264220183486239,-85.5739827996006,-40.6876629741521,0,0,0,1
4.9638959,121,121,STABILIZE,1,0,NaN,NaN,NaN,NaN,90,90,90,90,0.2592,0.0264220183486239,-85.9808594293421,-40.7831709741521,0,0,0,1
4.9713103,122,122,STABILIZE,1,626,1100,1100,1100,1100,90,90,90,90,0.2592,0.0264220183486239,-86.3886911390836,-40.8786789741521,0,0,0,1
4.9845295,122,122,STABILIZE,1,0,NaN,NaN,NaN,NaN,90,90,90,90,0.2592,0.0264220183486239,-86.7974779288251,-40.9741869741521,0,0,0,1
4.9969679,122,122,STABILIZE,1,0,NaN,NaN,NaN,NaN,90,90,90,90,0.2592,0.0264220183486239,-87.2072197985666,-41.0696949741521,0,0,0,1
5.0096078,122,122,STABILIZE,1,0,NaN,NaN,NaN,NaN,90,90,90,90,0.2592,0.0264220183486239,-87.6179167483082,-41.1652029741521,0,0,0,1
5.0140869,123,123,STABILIZE,1,627,1100,1100,1100,1100,90,90,90,90,0.2592,0.0264220183486239,-88.0295687780497,-41.2607109741521,0,0,0,1
5.0269656,123,123,STABILIZE,1,0,NaN,NaN,NaN,NaN,90,90,90,90,0.2592,0.0264220183486239,-88.4421758877912,-41.3562189741521,0,0,0,1
5.039823,123,123,STABILIZE,1,0,NaN,NaN,NaN,NaN,90,90,90,90,0.2592,0.0264220183486239,-88.8557380775327,-41.4517269741522,0,0,0,1
5.0474629,124,124,STABILIZE,1,628,1100,1100,1100,1100,90,90,90,90,0.2592,0.0264220183486239,-89.2702553472742,-41.5472349741522,0,0,0,1
5.0608655,124,124,STABILIZE,1,0,NaN,NaN,NaN,NaN,90,90,90,90,0.2592,0.0264220183486239,-89.6857276970158,-41.6427429741522,0,0,0,1
5.0731196,124,124,STABILIZE,1,0,NaN,NaN,NaN,NaN,90,90,90,90,0.2592,0.0264220183486239,-90.1021551267573,-41.7382509741522,0,0,0,1
5.0844389,125,125,STABILIZE,1,629,1100,1100,1100,1100,90,90,90,90,0.2592,0.0264220183486239,-90.5195376364988,-41.8337589741522,0,0,0,1
5.0990299,125,125,STABILIZE,1,0,NaN,NaN,NaN,NaN,90,90,90,90,0.2592,0.0264220183486239,-90.9378752262403,-41.9292669741522,0,0,0,1
5.1115453,125,125,STABILIZE,1,0,NaN,NaN,NaN,NaN,90,90,90,90,0.2592,0.0264220183486239,-91.3571678959818,-42.0247749741522,0,0,0,1
5.121584,126,126,STABILIZE,1,630,1100,1100,1100,1100,90,90,90,90,0.2592,0.0264220183486239,-91.7774156457234,-42.1202829741522,0,0,0,1
5.1359186,126,126,STABILIZE,1,0,NaN,NaN,NaN,NaN,90,90,90,90,0.2592,0.0264220183486239,-92.1986184754649,-42.2157909741522,0,0,0,1
5.1485149,126,126,STABILIZE,1,0,NaN,NaN,NaN,NaN,90,90,90,90,0.2592,0.0264220183486239,-92.6207763852064,-42.3112989741522,0,0,0,1
5.1611551,126,126,STABILIZE,1,0,NaN,NaN,NaN,NaN,90,90,90,90,0.2592,0.0264220183486239,-93.0438893749479,-42.4068069741522,0,0,0,1
5.169379,127,127,STABILIZE,1,631,1100,1100,1100,1100,90,90,90,90,0.2592,0.0264220183486239,-93.4679574446895,-42.5023149741522,0,0,0,1
5.1827786,127,127,STABILIZE,1,0,NaN,NaN,NaN,NaN,90,90,90,90,0.2592,0.0264220183486239,-93.892980594431,-42.5978229741522,0,0,0,1
5.1949814,127,127,STABILIZE,1,0,NaN,NaN,NaN,NaN,90,90,90,90,0.2592,0.0264220183486239,-94.3189588241725,-42.6933309741522,0,0,0,1
5.2047858,128,128,STABILIZE,1,632,1100,1100,1100,1100,90,90,90,90,0.2592,0.0264220183486239,-94.745892133914,-42.7888389741522,0,0,0,1
5.2189703,128,128,STABILIZE,1,0,NaN,NaN,NaN,NaN,90,90,90,90,0.2592,0.0264220183486239,-95.1737805236556,-42.8843469741522,0,0,0,1
5.2312361,128,128,STABILIZE,1,0,NaN,NaN,NaN,NaN,90,90,90,90,0.2592,0.0264220183486239,-95.6026239933971,-42.9798549741522,0,0,0,1
5.2436472,128,128,STABILIZE,1,0,NaN,NaN,NaN,NaN,90,90,90,90,0.2592,0.0264220183486239,-96.0324225431386,-43.0753629741522,0,0,0,1
5.2461953,129,129,STABILIZE,1,633,1100,1100,1100,1100,90,90,90,90,0.2592,0.0264220183486239,-96.4631761728801,-43.1708709741522,0,0,0,1
5.2605733,129,129,STABILIZE,1,0,NaN,NaN,NaN,NaN,90,90,90,90,0.2592,0.0264220183486239,-96.8948848826216,-43.2663789741522,0,0,0,1
5.27301,129,129,STABILIZE,1,0,NaN,NaN,NaN,NaN,90,90,90,90,0.2592,0.0264220183486239,-97.3275486723632,-43.3618869741522,0,0,0,1
5.280935,130,130,STABILIZE,1,634,1100,1100,1100,1100,90,90,90,90,0.2592,0.0264220183486239,-97.7611675421047,-43.4573949741522,0,0,0,1
5.2949475,130,130,STABILIZE,1,0,NaN,NaN,NaN,NaN,90,90,90,90,0.2592,0.0264220183486239,-98.1957414918462,-43.5529029741522,0,0,0,1
5.3075833,130,130,STABILIZE,1,0,NaN,NaN,NaN,NaN,90,90,90,90,0.2592,0.0264220183486239,-98.6312705215877,-43.6484109741522,0,0,0,1
5.3199495,130,130,STABILIZE,1,0,NaN,NaN,NaN,NaN,90,90,90,90,0.2592,0.0264220183486239,-99.0677546313293,-43.7439189741522,0,0,0,1
5.3250328,131,131,STABILIZE,1,635,1100,1100,1100,1100,90,90,90,90,0.2592,0.0264220183486239,-99.5051938210708,-43.8394269741522,0,0,0,1
5.3384128,131,131,STABILIZE,1,0,NaN,NaN,NaN,NaN,90,90,90,90,0.2592,0.0264220183486239,-99.9435880908123,-43.9349349741522,0,0,0,1
5.3511477,131,131,STABILIZE,1,0,NaN,NaN,NaN,NaN,90,90,90,90,0.2592,0.0264220183486239,-100.382937440554,-44.0304429741522,0,0,0,1
5.3587808,132,132,STABILIZE,1,636,1100,1100,1100,1100,90,90,90,90,0.2592,0.0264220183486239,-100.823241870295,-44.1259509741522,0,0,0,1
5.3722713,132,132,STABILIZE,1,0,NaN,NaN,NaN,NaN,90,90,90,90,0.2592,0.0264220183486239,-101.264501380037,-44.2214589741522,0,0,0,1
5.3854163,132,132,STABILIZE,1,0,NaN,NaN,NaN,NaN,90,90,90,90,0.2592,0.0264220183486239,-101.706715969778,-44.3169669741522,0,0,0,1
5.3933103,133,133,STABILIZE,1,637,1100,1100,1100,1100,90,90,90,90,0.2592,0.0264220183486239,-102.14988563952,-44.4124749741522,0,0,0,1
5.4068614,133,133,STABILIZE,1,0,NaN,NaN,NaN,NaN,90,90,90,90,0.2592,0.0264220183486239,-102.594010389261,-44.5079829741522,0,0,0,1
5.4192124,133,133,STABILIZE,1,0,NaN,NaN,NaN,NaN,90,90,90,90,0.2592,0.0264220183486239,-103.039090219003,-44.6034909741522,0,0,0,1
5.4272053,134,134,STABILIZE,1,638,1100,1100,1100,1100,90,90,90,90,0.2592,0.0264220183486239,-103.485125128744,-44.6989989741522,0,0,0,1
5.4412507,134,134,STABILIZE,1,0,NaN,NaN,NaN,NaN,90,90,90,90,0.2592,0.0264220183486239,-103.932115118486,-44.7945069741522,0,0,0,1
5.4536479,134,134,STABILIZE,1,0,NaN,NaN,NaN,NaN,90,90,90,90,0.2592,0.0264220183486239,-104.380060188228,-44.8900149741522,0,0,0,1
5.4629047,135,135,STABILIZE,1,639,1100,1100,1100,1100,90,90,90,90,0.2592,0.0264220183486239,-104.828960337969,-44.9855229741522,0,0,0,1
5.4764178,135,135,STABILIZE,1,0,NaN,NaN,NaN,NaN,90,90,90,90,0.2592,0.0264220183486239,-105.278815567711,-45.0810309741522,0,0,0,1
5.4894665,135,135,STABILIZE,1,0,NaN,NaN,NaN,NaN,90,90,90,90,0.2592,0.0264220183486239,-105.729625877452,-45.1765389741522,0,0,0,1
5.5007935,136,136,STABILIZE,1,640,1100,1100,1100,1100,90,90,90,90,0.2592,0.0264220183486239,-106.181391267194,-45.2720469741522,0,0,0,1
5.5145143,136,136,STABILIZE,1,0,NaN,NaN,NaN,NaN,90,90,90,90,0.2592,0.0264220183486239,-106.634111736935,-45.3675549741522,0,0,0,1
5.5269375,136,136,STABILIZE,1,0,NaN,NaN,NaN,NaN,90,90,90,90,0.2592,0.0264220183486239,-107.087787286677,-45.4630629741523,0,0,0,1
5.5347284,137,137,STABILIZE,1,641,1100,1100,1100,1100,90,90,90,90,0.2592,0.0264220183486239,-107.542417916418,-45.5585709741523,0,0,0,1
5.5479922,137,137,STABILIZE,1,0,NaN,NaN,NaN,NaN,90,90,90,90,0.2592,0.0264220183486239,-107.99800362616,-45.6540789741523,0,0,0,1
5.5603798,137,137,STABILIZE,1,0,NaN,NaN,NaN,NaN,90,90,90,90,0.2592,0.0264220183486239,-108.454544415901,-45.7495869741523,0,0,0,1
5.5682716,138,138,STABILIZE,1,642,1100,1100,1100,1100,90,90,90,90,0.2592,0.0264220183486239,-108.912040285643,-45.8450949741523,0,0,0,1
5.5825868,138,138,STABILIZE,1,0,NaN,NaN,NaN,NaN,90,90,90,90,0.2592,0.0264220183486239,-109.370491235384,-45.9406029741523,0,0,0,1
5.5966902,138,138,STABILIZE,1,0,NaN,NaN,NaN,NaN,90,90,90,90,0.2592,0.0264220183486239,-109.829897265126,-46.0361109741523,0,0,0,1
5.6096161,138,138,STABILIZE,1,0,NaN,NaN,NaN,NaN,90,90,90,90,0.2592,0.0264220183486239,-110.290258374867,-46.1316189741523,0,0,0,1
5.6137361,139,139,STABILIZE,1,643,1100,1100,1100,1100,90,90,90,90,0.2592,0.0264220183486239,-110.751574564609,-46.2271269741523,0,0,0,1
5.6267423,139,139,STABILIZE,1,0,NaN,NaN,NaN,NaN,90,90,90,90,0.2592,0.0264220183486239,-111.21384583435,-46.3226349741523,0,0,0,1
5.6390992,139,139,STABILIZE,1,0,NaN,NaN,NaN,NaN,90,90,90,90,0.2592,0.0264220183486239,-111.677072184092,-46.4181429741523,0,0,0,1
5.6474399,140,140,STABILIZE,1,644,1100,1100,1100,1100,90,90,90,90,0.2592,0.0264220183486239,-112.141253613833,-46.5136509741523,0,0,0,1
5.6604657,140,140,STABILIZE,1,0,NaN,NaN,NaN,NaN,90,90,90,90,0.2592,0.0264220183486239,-112.606390123575,-46.6091589741523,0,0,0,1
5.6727453,140,140,STABILIZE,1,0,NaN,NaN,NaN,NaN,90,90,90,90,0.2592,0.0264220183486239,-113.072481713316,-46.7046669741523,0,0,0,1
5.6805932,141,141,STABILIZE,1,645,1100,1100,1100,1100,90,90,90,90,0.2592,0.0264220183486239,-113.539528383058,-46.8001749741523,0,0,0,1
5.6943393,141,141,STABILIZE,1,0,NaN,NaN,NaN,NaN,90,90,90,90,0.2592,0.0264220183486239,-114.007530132799,-46.8956829741523,0,0,0,1
5.7067213,141,141,STABILIZE,1,0,NaN,NaN,NaN,NaN,90,90,90,90,0.2592,0.0264220183486239,-114.476486962541,-46.9911909741523,0,0,0,1
5.7142993,142,142,STABILIZE,1,646,1100,1100,1100,1100,90,90,90,90,0.2592,0.0264220183486239,-114.946398872283,-47.0866989741523,0,0,0,1
5.72725,142,142,STABILIZE,1,0,NaN,NaN,NaN,NaN,90,90,90,90,0.2592,0.0264220183486239,-115.417265862024,-47.1822069741523,0,0,0,1
5.7399132,142,142,STABILIZE,1,0,NaN,NaN,NaN,NaN,90,90,90,90,0.2592,0.0264220183486239,-115.889087931766,-47.2777149741523,0,0,0,1
5.7505596,143,143,STABILIZE,1,647,1100,1100,1100,1100,90,90,90,90,0.2592,0.0264220183486239,-116.361865081507,-47.3732229741523,0,0,0,1
5.7636135,143,143,STABILIZE,1,0,NaN,NaN,NaN,NaN,90,90,90,90,0.2592,0.0264220183486239,-116.835597311249,-47.4687309741523,0,0,0,1
5.776187,143,143,STABILIZE,1,0,NaN,NaN,NaN,NaN,90,90,90,90,0.2592,0.0264220183486239,-117.31028462099,-47.5642389741523,0,0,0,1
5.7839912,144,144,STABILIZE,1,648,1100,1100,1100,1100,90,90,90,90,0.2592,0.0264220183486239,-117.785927010732,-47.6597469741523,0,0,0,1
5.7976573,144,144,STABILIZE,1,0,NaN,NaN,NaN,NaN,90,90,90,90,0.2592,0.0264220183486239,-118.262524480473,-47.7552549741523,0,0,0,1
5.8102574,144,144,STABILIZE,1,0,NaN,NaN,NaN,NaN,90,90,90,90,0.2592,0.0264220183486239,-118.740077030215,-47.8507629741523,0,0,0,1
5.8184257,145,145,STABILIZE,1,649,1100,1100,1100,1100,90,90,90,90,0.2592,0.0264220183486239,-119.218584659956,-47.9462709741523,0,0,0,1
5.8316073,145,145,STABILIZE,1,0,NaN,NaN,NaN,NaN,90,90,90,90,0.2592,0.0264220183486239,-119.698047369698,-48.0417789741523,0,0,0,1
5.8444161,145,145,STABILIZE,1,0,NaN,NaN,NaN,NaN,90,90,90,90,0.2592,0.0264220183486239,-120.178465159439,-48.1372869741523,0,0,0,1
5.8513588,146,146,STABILIZE,1,650,1100,1100,1100,1100,90,90,90,90,0.2592,0.0264220183486239,-120.659838029181,-48.2327949741523,0,0,0,1
5.8647262,146,146,STABILIZE,1,0,NaN,NaN,NaN,NaN,90,90,90,90,0.2592,0.0264220183486239,-121.142165978922,-48.3283029741523,0,0,0,1
5.877212,146,146,STABILIZE,1,0,NaN,NaN,NaN,NaN,90,90,90,90,0.2592,0.0264220183486239,-121.625449008664,-48.4238109741523,0,0,0,1
5.8883827,147,147,STABILIZE,1,651,1100,1100,1100,1100,90,90,90,90,0.2592,0.0264220183486239,-122.109687118405,-48.5193189741523,0,0,0,1
5.9032325,147,147,STABILIZE,1,0,NaN,NaN,NaN,NaN,90,90,90,90,0.2592,0.0264220183486239,-122.594880308147,-48.6148269741523,0,0,0,1
5.9167332,147,147,STABILIZE,1,0,NaN,NaN,NaN,NaN,90,90,90,90,0.2592,0.0264220183486239,-123.081028577888,-48.7103349741523,0,0,0,1
5.9224073,148,148,STABILIZE,1,652,1100,1100,1100,1100,90,90,90,90,0.2592,0.0264220183486239,-123.56813192763,-48.8058429741523,0,0,0,1
5.9355196,148,148,STABILIZE,1,0,NaN,NaN,NaN,NaN,90,90,90,90,0.2592,0.0264220183486239,-124.056190357371,-48.9013509741523,0,0,0,1
5.9479822,148,148,STABILIZE,1,0,NaN,NaN,NaN,NaN,90,90,90,90,0.2592,0.0264220183486239,-124.545203867113,-48.9968589741523,0,0,0,1
5.9596703,149,149,STABILIZE,1,653,1100,1100,1100,1100,90,90,90,90,0.2592,0.0264220183486239,-125.035172456855,-49.0923669741523,0,0,0,1
5.9729593,149,149,STABILIZE,1,0,NaN,NaN,NaN,NaN,90,90,90,90,0.2592,0.0264220183486239,-125.526096126596,-49.1878749741523,0,0,0,1
5.9855596,149,149,STABILIZE,1,0,NaN,NaN,NaN,NaN,90,90,90,90,0.2592,0.0264220183486239,-126.017974876338,-49.2833829741523,0,0,0,1
5.9980264,149,149,STABILIZE,1,0,NaN,NaN,NaN,NaN,90,90,90,90,0.2592,0.0264220183486239,-126.510808706079,-49.3788909741523,0,0,0,1
6.0007342,150,150,STABILIZE,1,654,1100,1100,1100,1100,90,90,90,90,0.2592,0.0264220183486239,-127.004597615821,-49.4743989741524,0,0,0,1
6.0141507,150,150,STABILIZE,1,0,NaN,NaN,NaN,NaN,90,90,90,90,0.2592,0.0264220183486239,-127.499341605562,-49.5699069741524,0,0,0,1
6.02656,150,150,STABILIZE,1,0,NaN,NaN,NaN,NaN,90,90,90,90,0.2592,0.0264220183486239,-127.995040675304,-49.6654149741524,0,0,0,1
6.0353877,151,151,STABILIZE,1,655,1100,1100,1100,1100,90,90,90,90,0.2592,0.0264220183486239,-128.491694825045,-49.7609229741524,0,0,0,1
6.0488644,151,151,STABILIZE,1,0,NaN,NaN,NaN,NaN,90,90,90,90,0.2592,0.0264220183486239,-128.989304054787,-49.8564309741524,0,0,0,1
6.0612478,151,151,STABILIZE,1,0,NaN,NaN,NaN,NaN,90,90,90,90,0.2592,0.0264220183486239,-129.487868364528,-49.9519389741524,0,0,0,1
6.0685809,152,152,STABILIZE,1,656,1100,1100,1100,1100,90,90,90,90,0.2592,0.0264220183486239,-129.98738775427,-50.0474469741524,0,0,0,1
6.0819792,152,152,STABILIZE,1,0,NaN,NaN,NaN,NaN,90,90,90,90,0.2592,0.0264220183486239,-130.487862224011,-50.1429549741524,0,0,0,1
6.0945756,152,152,STABILIZE,1,0,NaN,NaN,NaN,NaN,90,90,90,90,0.2592,0.0264220183486239,-130.989291773753,-50.2384629741524,0,0,0,1
6.1073324,152,152,STABILIZE,1,0,NaN,NaN,NaN,NaN,90,90,90,90,0.2592,0.0264220183486239,-131.491676403494,-50.3339709741524,0,0,0,1
6.11997,152,152,STABILIZE,1,0,NaN,NaN,NaN,NaN,90,90,90,90,0.2592,0.0264220183486239,-131.995016113236,-50.4294789741524,0,0,0,1
6.1324589,152,152,STABILIZE,1,0,NaN,NaN,NaN,NaN,90,90,90,90,0.2592,0.0264220183486239,-132.499310902977,-50.5249869741524,0,0,0,1
6.1422493,153,153,STABILIZE,1,657,1100,1100,1100,1100,90,90,90,90,0.2592,0.0264220183486239,-133.004560772719,-50.6204949741524,0,0,0,1
6.1554756,153,153,STABILIZE,1,0,NaN,NaN,NaN,NaN,90,90,90,90,0.2592,0.0264220183486239,-133.51076572246,-50.7160029741524,0,0,0,1
6.1681046,153,153,STABILIZE,1,0,NaN,NaN,NaN,NaN,90,90,90,90,0.2592,0.0264220183486239,-134.017925752202,-50.8115109741524,0,0,0,1
6.1754438,154,154,STABILIZE,1,658,1100,1100,1100,1100,90,90,90,90,0.2592,0.0264220183486239,-134.526040861943,-50.9070189741524,0,0,0,1
6.1898035,154,154,STABILIZE,1,0,NaN,NaN,NaN,NaN,90,90,90,90,0.2592,0.0264220183486239,-135.035111051685,-51.0025269741524,0,0,0,1
6.2021743,154,154,STABILIZE,1,0,NaN,NaN,NaN,NaN,90,90,90,90,0.2592,0.0264220183486239,-135.545136321426,-51.0980349741524,0,0,0,1
6.2098521,155,155,STABILIZE,1,659,1100,1100,1100,1100,90,90,90,90,0.2592,0.0264220183486239,-136.056116671168,-51.1935429741524,0,0,0,1
6.2230711,155,155,STABILIZE,1,0,NaN,NaN,NaN,NaN,90,90,90,90,0.2592,0.0264220183486239,-136.56805210091,-51.2890509741524,0,0,0,1
