time_s,valid_rx_count,response_tx_count,mode,armed,throttle_target_us,frame_count,pwm_1_us,pwm_2_us,pwm_3_us,pwm_4_us,motor_1_radps,motor_2_radps,motor_3_radps,motor_4_radps,total_thrust_N,total_thrust_to_weight,altitude_m,vertical_speed_up_mps,roll_rad,pitch_rad,yaw_rad,quat_norm
0.0008819,0,0,,0,0,0,NaN,NaN,NaN,NaN,0,0,0,0,0,0,-0,-0.0981,0,0,0,1
0.0300021,0,0,,0,0,0,NaN,NaN,NaN,NaN,0,0,0,0,0,0,-0.000981,-0.1962,0,0,0,1
0.0459312,0,0,,0,0,0,NaN,NaN,NaN,NaN,0,0,0,0,0,0,-0.002943,-0.2943,0,0,0,1
0.0590497,0,0,STABILIZE,0,0,0,NaN,NaN,NaN,NaN,0,0,0,0,0,0,-0.005886,-0.3924,0,0,0,1
0.0667976,1,1,STABILIZE,0,0,503,1000,1000,1000,1000,0,0,0,0,0,0,-0.00981,-0.4905,0,0,0,1
0.0820526,1,1,STABILIZE,0,0,0,NaN,NaN,NaN,NaN,0,0,0,0,0,0,-0.014715,-0.5886,0,0,0,1
0.0953986,1,1,STABILIZE,0,0,0,NaN,NaN,NaN,NaN,0,0,0,0,0,0,-0.020601,-0.6867,0,0,0,1
0.1009407,2,2,STABILIZE,0,0,504,1000,1000,1000,1000,0,0,0,0,0,0,-0.027468,-0.7848,0,0,0,1
0.1139941,2,2,STABILIZE,0,0,0,NaN,NaN,NaN,NaN,0,0,0,0,0,0,-0.035316,-0.8829,0,0,0,1
0.1269806,2,2,STABILIZE,0,0,0,NaN,NaN,NaN,NaN,0,0,0,0,0,0,-0.044145,-0.981,0,0,0,1
0.1456108,2,2,STABILIZE,0,0,0,NaN,NaN,NaN,NaN,0,0,0,0,0,0,-0.053955,-1.0791,0,0,0,1
0.1487471,3,3,STABILIZE,0,0,505,1000,1000,1000,1000,0,0,0,0,0,0,-0.064746,-1.1772,0,0,0,1
0.1630584,3,3,STABILIZE,0,0,0,NaN,NaN,NaN,NaN,0,0,0,0,0,0,-0.076518,-1.2753,0,0,0,1
0.176891,3,3,STABILIZE,0,0,0,NaN,NaN,NaN,NaN,0,0,0,0,0,0,-0.089271,-1.3734,0,0,0,1
0.1901136,3,3,STABILIZE,0,0,0,NaN,NaN,NaN,NaN,0,0,0,0,0,0,-0.103005,-1.4715,0,0,0,1
0.2035081,4,4,STABILIZE,0,0,506,1000,1000,1000,1000,0,0,0,0,0,0,-0.11772,-1.5696,0,0,0,1
0.2178379,4,4,STABILIZE,0,0,0,NaN,NaN,NaN,NaN,0,0,0,0,0,0,-0.133416,-1.6677,0,0,0,1
0.2244479,5,5,STABILIZE,0,0,507,1000,1000,1000,1000,0,0,0,0,0,0,-0.150093,-1.7658,0,0,0,1
0.2392533,5,5,STABILIZE,0,0,0,NaN,NaN,NaN,NaN,0,0,0,0,0,0,-0.167751,-1.8639,0,0,0,1
0.2530535,5,5,STABILIZE,0,0,0,NaN,NaN,NaN,NaN,0,0,0,0,0,0,-0.18639,-1.962,0,0,0,1
0.2584859,6,6,STABILIZE,0,0,508,1000,1000,1000,1000,0,0,0,0,0,0,-0.20601,-2.0601,0,0,0,1
0.2724814,6,6,STABILIZE,0,0,0,NaN,NaN,NaN,NaN,0,0,0,0,0,0,-0.226611,-2.1582,0,0,0,1
0.2847617,6,6,STABILIZE,0,0,0,NaN,NaN,NaN,NaN,0,0,0,0,0,0,-0.248193,-2.2563,0,0,0,1
0.2932063,7,7,STABILIZE,0,0,509,1000,1000,1000,1000,0,0,0,0,0,0,-0.270756,-2.3544,0,0,0,1
0.3067845,7,7,STABILIZE,0,0,0,NaN,NaN,NaN,NaN,0,0,0,0,0,0,-0.2943,-2.4525,0,0,0,1
0.3192478,7,7,STABILIZE,0,0,0,NaN,NaN,NaN,NaN,0,0,0,0,0,0,-0.318825,-2.5506,0,0,0,1
0.3291563,8,8,STABILIZE,0,0,510,1000,1000,1000,1000,0,0,0,0,0,0,-0.344331,-2.6487,0,0,0,1
0.3420317,8,8,STABILIZE,0,0,0,NaN,NaN,NaN,NaN,0,0,0,0,0,0,-0.370818,-2.7468,0,0,0,1
0.3541329,8,8,STABILIZE,0,0,0,NaN,NaN,NaN,NaN,0,0,0,0,0,0,-0.398286,-2.8449,0,0,0,1
0.3626705,9,9,STABILIZE,0,0,511,1000,1000,1000,1000,0,0,0,0,0,0,-0.426735,-2.943,0,0,0,1
0.3760044,9,9,STABILIZE,0,0,0,NaN,NaN,NaN,NaN,0,0,0,0,0,0,-0.456165,-3.0411,0,0,0,1
0.389373,9,9,STABILIZE,0,0,0,NaN,NaN,NaN,NaN,0,0,0,0,0,0,-0.486576,-3.1392,0,0,0,1
0.3970085,10,10,STABILIZE,0,0,512,1000,1000,1000,1000,0,0,0,0,0,0,-0.517968,-3.2373,0,0,0,1
0.4101114,10,10,STABILIZE,0,0,0,NaN,NaN,NaN,NaN,0,0,0,0,0,0,-0.550341,-3.3354,0,0,0,1
0.4227458,10,10,STABILIZE,0,0,0,NaN,NaN,NaN,NaN,0,0,0,0,0,0,-0.583695,-3.4335,0,0,0,1
0.4300523,11,11,STABILIZE,0,0,513,1000,1000,1000,1000,0,0,0,0,0,0,-0.61803,-3.5316,0,0,0,1
0.4430404,11,11,STABILIZE,0,0,0,NaN,NaN,NaN,NaN,0,0,0,0,0,0,-0.653346,-3.6297,0,0,0,1
0.4553863,11,11,STABILIZE,0,0,0,NaN,NaN,NaN,NaN,0,0,0,0,0,0,-0.689643,-3.7278,0,0,0,1
0.4683095,11,11,STABILIZE,0,0,0,NaN,NaN,NaN,NaN,0,0,0,0,0,0,-0.726921,-3.8259,0,0,0,1
0.4807463,11,11,STABILIZE,0,0,0,NaN,NaN,NaN,NaN,0,0,0,0,0,0,-0.76518,-3.924,0,0,0,1
0.4930994,11,11,STABILIZE,0,0,0,NaN,NaN,NaN,NaN,0,0,0,0,0,0,-0.80442,-4.0221,0,0,0,1
0.5051756,12,12,STABILIZE,0,0,514,1000,1000,1000,1000,0,0,0,0,0,0,-0.844641,-4.1202,0,0,0,1
0.5181929,12,12,STABILIZE,0,0,0,NaN,NaN,NaN,NaN,0,0,0,0,0,0,-0.885843,-4.2183,0,0,0,1
0.5304626,12,12,STABILIZE,0,0,0,NaN,NaN,NaN,NaN,0,0,0,0,0,0,-0.928026,-4.3164,0,0,0,1
0.5384508,13,13,STABILIZE,0,0,515,1000,1000,1000,1000,0,0,0,0,0,0,-0.97119,-4.4145,0,0,0,1
0.5514492,13,13,STABILIZE,0,0,0,NaN,NaN,NaN,NaN,0,0,0,0,0,0,-1.015335,-4.5126,0,0,0,1
0.5637121,13,13,STABILIZE,0,0,0,NaN,NaN,NaN,NaN,0,0,0,0,0,0,-1.060461,-4.6107,0,0,0,1
0.5757376,14,14,STABILIZE,0,0,516,1000,1000,1000,1000,0,0,0,0,0,0,-1.106568,-4.7088,0,0,0,1
0.5900158,14,14,STABILIZE,0,0,0,NaN,NaN,NaN,NaN,0,0,0,0,0,0,-1.153656,-4.8069,0,0,0,1
0.6024938,14,14,STABILIZE,0,0,0,NaN,NaN,NaN,NaN,0,0,0,0,0,0,-1.201725,-4.905,0,0,0,1
0.6094138,15,15,STABILIZE,0,0,517,1000,1000,1000,1000,0,0,0,0,0,0,-1.250775,-5.0031,0,0,0,1
0.6227044,15,15,STABILIZE,0,0,0,NaN,NaN,NaN,NaN,0,0,0,0,0,0,-1.300806,-5.1012,0,0,0,1
0.6348914,15,15,STABILIZE,0,0,0,NaN,NaN,NaN,NaN,0,0,0,0,0,0,-1.351818,-5.1993,0,0,0,1
0.6429094,16,16,STABILIZE,0,0,518,1000,1000,1000,1000,0,0,0,0,0,0,-1.403811,-5.2974,0,0,0,1
0.6562382,16,16,STABILIZE,0,0,0,NaN,NaN,NaN,NaN,0,0,0,0,0,0,-1.456785,-5.3955,0,0,0,1
0.668986,16,16,STABILIZE,0,0,0,NaN,NaN,NaN,NaN,0,0,0,0,0,0,-1.51074,-5.4936,0,0,0,1
0.6762131,17,17,STABILIZE,0,0,519,1000,1000,1000,1000,0,0,0,0,0,0,-1.565676,-5.5917,0,0,0,1
0.6894221,17,17,STABILIZE,0,0,0,NaN,NaN,NaN,NaN,0,0,0,0,0,0,-1.621593,-5.6898,0,0,0,1
0.7018699,17,17,STABILIZE,0,0,0,NaN,NaN,NaN,NaN,0,0,0,0,0,0,-1.678491,-5.7879,0,0,0,1
0.7143411,17,17,STABILIZE,0,0,0,NaN,NaN,NaN,NaN,0,0,0,0,0,0,-1.73637,-5.88599999999999,0,0,0,1
0.7211487,18,18,STABILIZE,0,0,520,1000,1000,1000,1000,0,0,0,0,0,0,-1.79523,-5.98409999999999,0,0,0,1
0.7351541,18,18,STABILIZE,0,0,0,NaN,NaN,NaN,NaN,0,0,0,0,0,0,-1.855071,-6.08219999999999,0,0,0,1
0.7477929,18,18,STABILIZE,0,0,0,NaN,NaN,NaN,NaN,0,0,0,0,0,0,-1.915893,-6.18029999999999,0,0,0,1
0.7556464,19,19,STABILIZE,0,0,521,1000,1000,1000,1000,0,0,0,0,0,0,-1.977696,-6.27839999999999,0,0,0,1
0.7686069,19,19,STABILIZE,0,0,0,NaN,NaN,NaN,NaN,0,0,0,0,0,0,-2.04048,-6.37649999999999,0,0,0,1
0.7815771,19,19,STABILIZE,0,0,0,NaN,NaN,NaN,NaN,0,0,0,0,0,0,-2.104245,-6.47459999999999,0,0,0,1
0.788459,20,20,STABILIZE,0,0,522,1000,1000,1000,1000,0,0,0,0,0,0,-2.168991,-6.57269999999999,0,0,0,1
0.8013305,20,20,STABILIZE,0,0,0,NaN,NaN,NaN,NaN,0,0,0,0,0,0,-2.234718,-6.67079999999999,0,0,0,1
0.8137992,20,20,STABILIZE,0,0,0,NaN,NaN,NaN,NaN,0,0,0,0,0,0,-2.301426,-6.76889999999999,0,0,0,1
0.8265876,20,20,STABILIZE,0,0,0,NaN,NaN,NaN,NaN,0,0,0,0,0,0,-2.369115,-6.86699999999999,0,0,0,1
0.8289646,21,21,STABILIZE,0,0,523,1000,1000,1000,1000,0,0,0,0,0,0,-2.437785,-6.96509999999999,0,0,0,1
0.8415029,21,21,STABILIZE,0,0,0,NaN,NaN,NaN,NaN,0,0,0,0,0,0,-2.507436,-7.06319999999999,0,0,0,1
0.8537381,21,21,STABILIZE,0,0,0,NaN,NaN,NaN,NaN,0,0,0,0,0,0,-2.578068,-7.16129999999999,0,0,0,1
0.8660453,21,21,STABILIZE,0,0,0,NaN,NaN,NaN,NaN,0,0,0,0,0,0,-2.649681,-7.25939999999999,0,0,0,1
0.8793096,21,21,STABILIZE,0,0,0,NaN,NaN,NaN,NaN,0,0,0,0,0,0,-2.722275,-7.35749999999999,0,0,0,1
0.8915664,21,21,STABILIZE,0,0,0,NaN,NaN,NaN,NaN,0,0,0,0,0,0,-2.79585,-7.45559999999999,0,0,0,1
0.9008857,22,22,STABILIZE,0,0,524,1000,1000,1000,1000,0,0,0,0,0,0,-2.870406,-7.55369999999999,0,0,0,1
0.9140764,22,22,STABILIZE,0,0,0,NaN,NaN,NaN,NaN,0,0,0,0,0,0,-2.945943,-7.65179999999999,0,0,0,1
0.9263126,22,22,STABILIZE,0,0,0,NaN,NaN,NaN,NaN,0,0,0,0,0,0,-3.022461,-7.74989999999999,0,0,0,1
0.9359304,23,23,STABILIZE,0,0,525,1000,1000,1000,1000,0,0,0,0,0,0,-3.09996,-7.84799999999999,0,0,0,1
0.9488238,23,23,STABILIZE,0,0,0,NaN,NaN,NaN,NaN,0,0,0,0,0,0,-3.17844,-7.94609999999999,0,0,0,1
0.9611973,23,23,STABILIZE,0,0,0,NaN,NaN,NaN,NaN,0,0,0,0,0,0,-3.257901,-8.04419999999999,0,0,0,1
0.9730854,24,24,STABILIZE,0,0,526,1000,1000,1000,1000,0,0,0,0,0,0,-3.338343,-8.14229999999999,0,0,0,1
0.9861536,24,24,STABILIZE,0,0,0,NaN,NaN,NaN,NaN,0,0,0,0,0,0,-3.419766,-8.24039999999999,0,0,0,1
0.9989871,24,24,STABILIZE,0,0,0,NaN,NaN,NaN,NaN,0,0,0,0,0,0,-3.50217,-8.33849999999999,0,0,0,1
1.0092062,25,25,STABILIZE,0,0,527,1000,1000,1000,1000,0,0,0,0,0,0,-3.585555,-8.43659999999999,0,0,0,1
1.0225794,25,25,STABILIZE,0,0,0,NaN,NaN,NaN,NaN,0,0,0,0,0,0,-3.669921,-8.53469999999999,0,0,0,1
1.0357826,25,25,STABILIZE,0,0,0,NaN,NaN,NaN,NaN,0,0,0,0,0,0,-3.755268,-8.63279999999999,0,0,0,1
1.044466,26,26,STABILIZE,0,0,528,1000,1000,1000,1000,0,0,0,0,0,0,-3.841596,-8.73089999999999,0,0,0,1
1.0589626,26,26,STABILIZE,0,0,0,NaN,NaN,NaN,NaN,0,0,0,0,0,0,-3.928905,-8.82899999999999,0,0,0,1
1.071966,26,26,STABILIZE,0,0,0,NaN,NaN,NaN,NaN,0,0,0,0,0,0,-4.017195,-8.92709999999999,0,0,0,1
1.0792138,27,27,STABILIZE,0,0,529,1000,1000,1000,1000,0,0,0,0,0,0,-4.106466,-9.02519999999999,0,0,0,1
1.092292,27,27,STABILIZE,0,0,0,NaN,NaN,NaN,NaN,0,0,0,0,0,0,-4.196718,-9.12329999999999,0,0,0,1
1.1053989,27,27,STABILIZE,0,0,0,NaN,NaN,NaN,NaN,0,0,0,0,0,0,-4.287951,-9.22139999999999,0,0,0,1
1.1127667,28,28,STABILIZE,0,0,530,1000,1000,1000,1000,0,0,0,0,0,0,-4.380165,-9.31949999999999,0,0,0,1
1.1272702,28,28,STABILIZE,0,0,0,NaN,NaN,NaN,NaN,0,0,0,0,0,0,-4.47336,-9.41759999999999,0,0,0,1
1.1400769,28,28,STABILIZE,0,0,0,NaN,NaN,NaN,NaN,0,0,0,0,0,0,-4.567536,-9.5157,0,0,0,1
1.1526787,28,28,STABILIZE,0,0,0,NaN,NaN,NaN,NaN,0,0,0,0,0,0,-4.662693,-9.6138,0,0,0,1
1.1651142,28,28,STABILIZE,0,0,0,NaN,NaN,NaN,NaN,0,0,0,0,0,0,-4.758831,-9.7119,0,0,0,1
1.1778678,28,28,STABILIZE,0,0,0,NaN,NaN,NaN,NaN,0,0,0,0,0,0,-4.85595,-9.81,0,0,0,1
1.1886912,29,29,STABILIZE,0,0,531,1000,1000,1000,1000,0,0,0,0,0,0,-4.95405,-9.9081,0,0,0,1
1.2016902,29,29,STABILIZE,0,0,0,NaN,NaN,NaN,NaN,0,0,0,0,0,0,-5.053131,-10.0062,0,0,0,1
1.2143306,29,29,STABILIZE,0,0,0,NaN,NaN,NaN,NaN,0,0,0,0,0,0,-5.153193,-10.1043,0,0,0,1
1.2222664,30,30,STABILIZE,0,0,532,1000,1000,1000,1000,0,0,0,0,0,0,-5.254236,-10.2024,0,0,0,1
1.2351058,30,30,STABILIZE,0,0,0,NaN,NaN,NaN,NaN,0,0,0,0,0,0,-5.35626,-10.3005,0,0,0,1
1.247468,30,30,STABILIZE,0,0,0,NaN,NaN,NaN,NaN,0,0,0,0,0,0,-5.459265,-10.3986,0,0,0,1
1.2600065,30,30,STABILIZE,0,0,0,NaN,NaN,NaN,NaN,0,0,0,0,0,0,-5.563251,-10.4967,0,0,0,1
1.2642692,31,31,STABILIZE,0,0,533,1000,1000,1000,1000,0,0,0,0,0,0,-5.668218,-10.5948,0,0,0,1
1.2773265,31,31,STABILIZE,0,0,0,NaN,NaN,NaN,NaN,0,0,0,0,0,0,-5.774166,-10.6929,0,0,0,1
1.2897686,31,31,STABILIZE,0,0,0,NaN,NaN,NaN,NaN,0,0,0,0,0,0,-5.881095,-10.791,0,0,0,1
1.2982203,32,32,STABILIZE,0,0,534,1000,1000,1000,1000,0,0,0,0,0,0,-5.989005,-10.8891,0,0,0,1
1.3110112,32,32,STABILIZE,0,0,0,NaN,NaN,NaN,NaN,0,0,0,0,0,0,-6.097896,-10.9872,0,0,0,1
1.3233252,32,32,STABILIZE,0,0,0,NaN,NaN,NaN,NaN,0,0,0,0,0,0,-6.207768,-11.0853,0,0,0,1
1.3335912,33,33,STABILIZE,0,0,535,1000,1000,1000,1000,0,0,0,0,0,0,-6.318621,-11.1834,0,0,0,1
1.347444,33,33,STABILIZE,0,0,0,NaN,NaN,NaN,NaN,0,0,0,0,0,0,-6.430455,-11.2815,0,0,0,1
1.3600267,33,33,STABILIZE,0,0,0,NaN,NaN,NaN,NaN,0,0,0,0,0,0,-6.54327,-11.3796,0,0,0,1
1.373013,33,33,STABILIZE,0,0,0,NaN,NaN,NaN,NaN,0,0,0,0,0,0,-6.657066,-11.4777,0,0,0,1
1.3859895,33,33,STABILIZE,0,0,0,NaN,NaN,NaN,NaN,0,0,0,0,0,0,-6.771843,-11.5758,0,0,0,1
1.3987865,33,33,STABILIZE,0,0,0,NaN,NaN,NaN,NaN,0,0,0,0,0,0,-6.887601,-11.6739,0,0,0,1
1.4087133,34,34,STABILIZE,0,0,536,1000,1000,1000,1000,0,0,0,0,0,0,-7.00434,-11.772,0,0,0,1
1.4223209,34,34,STABILIZE,0,0,0,NaN,NaN,NaN,NaN,0,0,0,0,0,0,-7.12206,-11.8701,0,0,0,1
1.4346891,34,34,STABILIZE,0,0,0,NaN,NaN,NaN,NaN,0,0,0,0,0,0,-7.240761,-11.9682,0,0,0,1
1.4473496,34,34,STABILIZE,0,0,0,NaN,NaN,NaN,NaN,0,0,0,0,0,0,-7.360443,-12.0663,0,0,0,1
1.4539886,35,35,STABILIZE,0,0,537,1000,1000,1000,1000,0,0,0,0,0,0,-7.481106,-12.1644,0,0,0,1
1.4679136,35,35,STABILIZE,0,0,0,NaN,NaN,NaN,NaN,0,0,0,0,0,0,-7.60275,-12.2625,0,0,0,1
1.4804277,35,35,STABILIZE,0,0,0,NaN,NaN,NaN,NaN,0,0,0,0,0,0,-7.725375,-12.3606,0,0,0,1
1.4873709,36,36,STABILIZE,0,0,538,1000,1000,1000,1000,0,0,0,0,0,0,-7.848981,-12.4587,0,0,0,1
1.5015528,36,36,STABILIZE,0,0,0,NaN,NaN,NaN,NaN,0,0,0,0,0,0,-7.973568,-12.5568,0,0,0,1
1.513989,36,36,STABILIZE,0,0,0,NaN,NaN,NaN,NaN,0,0,0,0,0,0,-8.099136,-12.6549,0,0,0,1
1.5207174,37,37,STABILIZE,0,0,539,1000,1000,1000,1000,0,0,0,0,0,0,-8.225685,-12.753,0,0,0,1
1.5340129,37,37,STABILIZE,0,0,0,NaN,NaN,NaN,NaN,0,0,0,0,0,0,-8.353215,-12.8511,0,0,0,1
1.5463273,37,37,STABILIZE,0,0,0,NaN,NaN,NaN,NaN,0,0,0,0,0,0,-8.481726,-12.9492,0,0,0,1
1.5555415,38,38,STABILIZE,0,0,540,1000,1000,1000,1000,0,0,0,0,0,0,-8.611218,-13.0473,0,0,0,1
1.5688713,38,38,STABILIZE,0,0,0,NaN,NaN,NaN,NaN,0,0,0,0,0,0,-8.741691,-13.1454,0,0,0,1
1.5815323,38,38,STABILIZE,0,0,0,NaN,NaN,NaN,NaN,0,0,0,0,0,0,-8.873145,-13.2435,0,0,0,1
1.5938309,38,38,STABILIZE,0,0,0,NaN,NaN,NaN,NaN,0,0,0,0,0,0,-9.00558,-13.3416,0,0,0,1
1.6063892,38,38,STABILIZE,0,0,0,NaN,NaN,NaN,NaN,0,0,0,0,0,0,-9.138996,-13.4397,0,0,0,1
1.6186679,38,38,STABILIZE,0,0,0,NaN,NaN,NaN,NaN,0,0,0,0,0,0,-9.273393,-13.5378,0,0,0,1
1.6293511,39,39,STABILIZE,0,0,541,1000,1000,1000,1000,0,0,0,0,0,0,-9.408771,-13.6359,0,0,0,1
1.6422703,39,39,STABILIZE,0,0,0,NaN,NaN,NaN,NaN,0,0,0,0,0,0,-9.54513,-13.734,0,0,0,1
1.654621,39,39,STABILIZE,0,0,0,NaN,NaN,NaN,NaN,0,0,0,0,0,0,-9.68247,-13.8321,0,0,0,1
1.6625887,40,40,STABILIZE,0,0,542,1000,1000,1000,1000,0,0,0,0,0,0,-9.820791,-13.9302,0,0,0,1
1.6762277,40,40,STABILIZE,0,0,0,NaN,NaN,NaN,NaN,0,0,0,0,0,0,-9.960093,-14.0283,0,0,0,1
1.6886829,40,40,STABILIZE,0,0,0,NaN,NaN,NaN,NaN,0,0,0,0,0,0,-10.100376,-14.1264,0,0,0,1
1.7013881,40,40,STABILIZE,0,0,0,NaN,NaN,NaN,NaN,0,0,0,0,0,0,-10.24164,-14.2245,0,0,0,1
1.7041154,41,41,STABILIZE,0,0,543,1000,1000,1000,1000,0,0,0,0,0,0,-10.383885,-14.3226,0,0,0,1
1.7171798,41,41,STABILIZE,0,0,0,NaN,NaN,NaN,NaN,0,0,0,0,0,0,-10.527111,-14.4207,0,0,0,1
1.730105,41,41,STABILIZE,0,0,0,NaN,NaN,NaN,NaN,0,0,0,0,0,0,-10.671318,-14.5188,0,0,0,1
1.7421703,42,42,STABILIZE,0,0,544,1000,1000,1000,1000,0,0,0,0,0,0,-10.816506,-14.6169,0,0,0,1
1.7557665,42,42,STABILIZE,0,0,0,NaN,NaN,NaN,NaN,0,0,0,0,0,0,-10.962675,-14.715,0,0,0,1
1.7682846,42,42,STABILIZE,0,0,0,NaN,NaN,NaN,NaN,0,0,0,0,0,0,-11.109825,-14.8131,0,0,0,1
1.7758627,43,43,STABILIZE,0,0,545,1000,1000,1000,1000,0,0,0,0,0,0,-11.257956,-14.9112,0,0,0,1
1.7891929,43,43,STABILIZE,0,0,0,NaN,NaN,NaN,NaN,0,0,0,0,0,0,-11.407068,-15.0093,0,0,0,1
1.8019571,43,43,STABILIZE,0,0,0,NaN,NaN,NaN,NaN,0,0,0,0,0,0,-11.557161,-15.1074,0,0,0,1
1.8127197,44,44,STABILIZE,0,0,546,1000,1000,1000,1000,0,0,0,0,0,0,-11.708235,-15.2055,0,0,0,1
1.8267114,44,44,STABILIZE,0,0,0,NaN,NaN,NaN,NaN,0,0,0,0,0,0,-11.86029,-15.3036,0,0,0,1
1.8394585,44,44,STABILIZE,0,0,0,NaN,NaN,NaN,NaN,0,0,0,0,0,0,-12.013326,-15.4017,0,0,0,1
1.8469011,45,45,STABILIZE,0,0,547,1000,1000,1000,1000,0,0,0,0,0,0,-12.167343,-15.4998,0,0,0,1
1.8600828,45,45,STABILIZE,0,0,0,NaN,NaN,NaN,NaN,0,0,0,0,0,0,-12.322341,-15.5979,0,0,0,1
1.8725353,45,45,STABILIZE,0,0,0,NaN,NaN,NaN,NaN,0,0,0,0,0,0,-12.47832,-15.696,0,0,0,1
1.8807819,46,46,STABILIZE,0,0,548,1000,1000,1000,1000,0,0,0,0,0,0,-12.63528,-15.7941,0,0,0,1
1.8946659,46,46,STABILIZE,0,0,0,NaN,NaN,NaN,NaN,0,0,0,0,0,0,-12.793221,-15.8922,0,0,0,1
1.9071962,46,46,STABILIZE,0,0,0,NaN,NaN,NaN,NaN,0,0,0,0,0,0,-12.952143,-15.9903,0,0,0,1
1.9196922,46,46,STABILIZE,0,0,0,NaN,NaN,NaN,NaN,0,0,0,0,0,0,-13.112046,-16.0884,0,0,0,1
1.9251815,47,47,STABILIZE,0,0,549,1000,1000,1000,1000,0,0,0,0,0,0,-13.27293,-16.1865,0,0,0,1
1.938485,47,47,STABILIZE,0,0,0,NaN,NaN,NaN,NaN,0,0,0,0,0,0,-13.434795,-16.2846,0,0,0,1
1.9509645,47,47,STABILIZE,0,0,0,NaN,NaN,NaN,NaN,0,0,0,0,0,0,-13.597641,-16.3827,0,0,0,1
1.9586465,48,48,STABILIZE,0,0,550,1000,1000,1000,1000,0,0,0,0,0,0,-13.761468,-16.4808,0,0,0,1
1.9722498,48,48,STABILIZE,0,0,0,NaN,NaN,NaN,NaN,0,0,0,0,0,0,-13.926276,-16.5789,0,0,0,1
1.9845046,48,48,STABILIZE,0,0,0,NaN,NaN,NaN,NaN,0,0,0,0,0,0,-14.092065,-16.677,0,0,0,1
1.9913073,49,49,STABILIZE,0,0,551,1000,1000,1000,1000,0,0,0,0,0,0,-14.258835,-16.7751,0,0,0,1
2.0040172,49,49,STABILIZE,0,0,0,NaN,NaN,NaN,NaN,0,0,0,0,0,0,-14.426586,-16.8732,0,0,0,1
2.0161688,49,49,STABILIZE,0,0,0,NaN,NaN,NaN,NaN,0,0,0,0,0,0,-14.595318,-16.9713,0,0,0,1
2.0253335,50,50,STABILIZE,0,0,552,1000,1000,1000,1000,0,0,0,0,0,0,-14.765031,-17.0694,0,0,0,1
2.0384887,50,50,STABILIZE,0,0,0,NaN,NaN,NaN,NaN,0,0,0,0,0,0,-14.935725,-17.1675,0,0,0,1
2.0507019,50,50,STABILIZE,0,0,0,NaN,NaN,NaN,NaN,0,0,0,0,0,0,-15.1074,-17.2656,0,0,0,1
2.0590084,51,51,STABILIZE,0,0,553,1000,1000,1000,1000,0,0,0,0,0,0,-15.280056,-17.3637,0,0,0,1
2.0717681,51,51,STABILIZE,0,0,0,NaN,NaN,NaN,NaN,0,0,0,0,0,0,-15.453693,-17.4618,0,0,0,1
2.0842152,51,51,STABILIZE,0,0,0,NaN,NaN,NaN,NaN,0,0,0,0,0,0,-15.628311,-17.5599,0,0,0,1
2.0925105,52,52,STABILIZE,0,0,554,1000,1000,1000,1000,0,0,0,0,0,0,-15.80391,-17.658,0,0,0,1
2.1054896,52,52,STABILIZE,0,0,0,NaN,NaN,NaN,NaN,0,0,0,0,0,0,-15.98049,-17.7561,0,0,0,1
2.117758,52,52,STABILIZE,0,0,0,NaN,NaN,NaN,NaN,0,0,0,0,0,0,-16.158051,-17.8542,0,0,0,1
2.1301848,52,52,STABILIZE,0,0,0,NaN,NaN,NaN,NaN,0,0,0,0,0,0,-16.336593,-17.9523,0,0,0,1
2.1416838,53,53,STABILIZE,0,0,555,1000,1000,1000,1000,0,0,0,0,0,0,-16.516116,-18.0504,0,0,0,1
2.1555288,53,53,STABILIZE,0,0,0,NaN,NaN,NaN,NaN,0,0,0,0,0,0,-16.69662,-18.1485,0,0,0,1
2.1680555,53,53,STABILIZE,0,0,0,NaN,NaN,NaN,NaN,0,0,0,0,0,0,-16.878105,-18.2466,0,0,0,1
2.1749944,54,54,STABILIZE,0,0,556,1000,1000,1000,1000,0,0,0,0,0,0,-17.060571,-18.3447,0,0,0,1
2.1881897,54,54,STABILIZE,0,0,0,NaN,NaN,NaN,NaN,0,0,0,0,0,0,-17.244018,-18.4428,0,0,0,1
2.2010102,54,54,STABILIZE,0,0,0,NaN,NaN,NaN,NaN,0,0,0,0,0,0,-17.428446,-18.5409,0,0,0,1
2.2084544,55,55,STABILIZE,0,0,557,1000,1000,1000,1000,0,0,0,0,0,0,-17.613855,-18.639,0,0,0,1
2.2215283,55,55,STABILIZE,0,0,0,NaN,NaN,NaN,NaN,0,0,0,0,0,0,-17.800245,-18.7371,0,0,0,1
2.2338864,55,55,STABILIZE,0,0,0,NaN,NaN,NaN,NaN,0,0,0,0,0,0,-17.987616,-18.8352,0,0,0,1
2.2461281,55,55,STABILIZE,0,0,0,NaN,NaN,NaN,NaN,0,0,0,0,0,0,-18.175968,-18.9333,0,0,0,1
2.2505138,56,56,STABILIZE,0,0,558,1000,1000,1000,1000,0,0,0,0,0,0,-18.365301,-19.0314,0,0,0,1
2.2637044,56,56,STABILIZE,0,0,0,NaN,NaN,NaN,NaN,0,0,0,0,0,0,-18.555615,-19.1295,0,0,0,1
2.2764319,56,56,STABILIZE,0,0,0,NaN,NaN,NaN,NaN,0,0,0,0,0,0,-18.74691,-19.2276,0,0,0,1
2.2833078,57,57,STABILIZE,0,0,559,1000,1000,1000,1000,0,0,0,0,0,0,-18.939186,-19.3257,0,0,0,1
2.2970319,57,57,STABILIZE,0,0,0,NaN,NaN,NaN,NaN,0,0,0,0,0,0,-19.132443,-19.4238,0,0,0,1
2.3098954,57,57,STABILIZE,0,0,0,NaN,NaN,NaN,NaN,0,0,0,0,0,0,-19.326681,-19.5219,0,0,0,1
2.3176751,58,58,STABILIZE,0,0,560,1000,1000,1000,1000,0,0,0,0,0,0,-19.5219,-19.62,0,0,0,1
2.330936,58,58,STABILIZE,0,0,0,NaN,NaN,NaN,NaN,0,0,0,0,0,0,-19.7181,-19.7181,0,0,0,1
2.3433059,58,58,STABILIZE,0,0,0,NaN,NaN,NaN,NaN,0,0,0,0,0,0,-19.915281,-19.8162,0,0,0,1
2.3556076,58,58,STABILIZE,0,0,0,NaN,NaN,NaN,NaN,0,0,0,0,0,0,-20.113443,-19.9143,0,0,0,1
2.3582001,59,59,STABILIZE,0,0,561,1000,1000,1000,1000,0,0,0,0,0,0,-20.312586,-20.0124,0,0,0,1
2.3722688,59,59,STABILIZE,0,0,0,NaN,NaN,NaN,NaN,0,0,0,0,0,0,-20.51271,-20.1105,0,0,0,1
2.3852835,59,59,STABILIZE,0,0,0,NaN,NaN,NaN,NaN,0,0,0,0,0,0,-20.713815,-20.2086,0,0,0,1
2.3926197,60,60,STABILIZE,0,0,562,1000,1000,1000,1000,0,0,0,0,0,0,-20.915901,-20.3067,0,0,0,1
2.4058079,60,60,STABILIZE,0,0,0,NaN,NaN,NaN,NaN,0,0,0,0,0,0,-21.118968,-20.4048,0,0,0,1
2.4192158,60,60,STABILIZE,0,0,0,NaN,NaN,NaN,NaN,0,0,0,0,0,0,-21.323016,-20.5029,0,0,0,1
2.4261239,61,61,STABILIZE,0,0,563,1000,1000,1000,1000,0,0,0,0,0,0,-21.528045,-20.601,0,0,0,1
2.4391895,61,61,STABILIZE,0,0,0,NaN,NaN,NaN,NaN,0,0,0,0,0,0,-21.734055,-20.6991,0,0,0,1
2.4517409,61,61,STABILIZE,0,0,0,NaN,NaN,NaN,NaN,0,0,0,0,0,0,-21.941046,-20.7972,0,0,0,1
2.4645484,61,61,STABILIZE,0,0,0,NaN,NaN,NaN,NaN,0,0,0,0,0,0,-22.149018,-20.8953,0,0,0,1
2.4685461,62,62,STABILIZE,0,0,564,1000,1000,1000,1000,0,0,0,0,0,0,-22.357971,-20.9934,0,0,0,1
2.4813309,62,62,STABILIZE,0,0,0,NaN,NaN,NaN,NaN,0,0,0,0,0,0,-22.567905,-21.0915,0,0,0,1
2.4940274,62,62,STABILIZE,0,0,0,NaN,NaN,NaN,NaN,0,0,0,0,0,0,-22.77882,-21.1896,0,0,0,1
2.5016025,63,63,STABILIZE,0,0,565,1000,1000,1000,1000,0,0,0,0,0,0,-22.990716,-21.2877,0,0,0,1
2.5144196,63,63,STABILIZE,0,0,0,NaN,NaN,NaN,NaN,0,0,0,0,0,0,-23.203593,-21.3858,0,0,0,1
2.5271347,63,63,STABILIZE,0,0,0,NaN,NaN,NaN,NaN,0,0,0,0,0,0,-23.417451,-21.4839,0,0,0,1
2.5379504,64,64,STABILIZE,0,0,566,1000,1000,1000,1000,0,0,0,0,0,0,-23.63229,-21.582,0,0,0,1
2.5512736,64,64,STABILIZE,0,0,0,NaN,NaN,NaN,NaN,0,0,0,0,0,0,-23.84811,-21.6801,0,0,0,1
2.5647504,64,64,STABILIZE,0,0,0,NaN,NaN,NaN,NaN,0,0,0,0,0,0,-24.064911,-21.7782,0,0,0,1
2.5757591,65,65,STABILIZE,0,0,567,1000,1000,1000,1000,0,0,0,0,0,0,-24.282693,-21.8763,0,0,0,1
2.5889209,65,65,STABILIZE,0,0,0,NaN,NaN,NaN,NaN,0,0,0,0,0,0,-24.501456,-21.9744,0,0,0,1
2.6015984,65,65,STABILIZE,0,0,0,NaN,NaN,NaN,NaN,0,0,0,0,0,0,-24.7212,-22.0725,0,0,0,1
2.6092496,66,66,STABILIZE,0,0,568,1000,1000,1000,1000,0,0,0,0,0,0,-24.941925,-22.1706,0,0,0,1
2.6222041,66,66,STABILIZE,0,0,0,NaN,NaN,NaN,NaN,0,0,0,0,0,0,-25.163631,-22.2686999999999,0,0,0,1
2.6345353,66,66,STABILIZE,0,0,0,NaN,NaN,NaN,NaN,0,0,0,0,0,0,-25.386318,-22.3667999999999,0,0,0,1
2.6427861,67,67,STABILIZE,0,0,569,1000,1000,1000,1000,0,0,0,0,0,0,-25.609986,-22.4648999999999,0,0,0,1
2.6559205,67,67,STABILIZE,0,0,0,NaN,NaN,NaN,NaN,0,0,0,0,0,0,-25.834635,-22.5629999999999,0,0,0,1
2.6687755,67,67,STABILIZE,0,0,0,NaN,NaN,NaN,NaN,0,0,0,0,0,0,-26.060265,-22.6610999999999,0,0,0,1
2.6811397,67,67,STABILIZE,0,0,0,NaN,NaN,NaN,NaN,0,0,0,0,0,0,-26.286876,-22.7591999999999,0,0,0,1
2.6887686,68,68,STABILIZE,0,0,570,1000,1000,1000,1000,0,0,0,0,0,0,-26.514468,-22.8572999999999,0,0,0,1
2.701938,68,68,STABILIZE,0,0,0,NaN,NaN,NaN,NaN,0,0,0,0,0,0,-26.743041,-22.9553999999999,0,0,0,1
2.7142778,68,68,STABILIZE,0,0,0,NaN,NaN,NaN,NaN,0,0,0,0,0,0,-26.972595,-23.0534999999999,0,0,0,1
2.72183,69,69,STABILIZE,0,0,571,1000,1000,1000,1000,0,0,0,0,0,0,-27.20313,-23.1515999999999,0,0,0,1
2.7348509,69,69,STABILIZE,0,0,0,NaN,NaN,NaN,NaN,0,0,0,0,0,0,-27.434646,-23.2496999999999,0,0,0,1
2.7471403,69,69,STABILIZE,0,0,0,NaN,NaN,NaN,NaN,0,0,0,0,0,0,-27.667143,-23.3477999999999,0,0,0,1
2.7597294,70,70,STABILIZE,0,0,572,1000,1000,1000,1000,0,0,0,0,0,0,-27.900621,-23.4458999999999,0,0,0,1
2.772811,70,70,STABILIZE,0,0,0,NaN,NaN,NaN,NaN,0,0,0,0,0,0,-28.13508,-23.5439999999999,0,0,0,1
2.7851174,70,70,STABILIZE,0,0,0,NaN,NaN,NaN,NaN,0,0,0,0,0,0,-28.37052,-23.6420999999999,0,0,0,1
2.7966825,71,71,STABILIZE,0,0,573,1000,1000,1000,1000,0,0,0,0,0,0,-28.606941,-23.7401999999999,0,0,0,1
2.8100106,71,71,STABILIZE,0,0,0,NaN,NaN,NaN,NaN,0,0,0,0,0,0,-28.844343,-23.8382999999999,0,0,0,1
2.8222438,71,71,STABILIZE,0,0,0,NaN,NaN,NaN,NaN,0,0,0,0,0,0,-29.082726,-23.9363999999999,0,0,0,1
2.8307012,72,72,STABILIZE,0,0,574,1000,1000,1000,1000,0,0,0,0,0,0,-29.32209,-24.0344999999999,0,0,0,1
2.8439532,72,72,STABILIZE,0,0,0,NaN,NaN,NaN,NaN,0,0,0,0,0,0,-29.562435,-24.1325999999999,0,0,0,1
2.8563203,72,72,STABILIZE,0,0,0,NaN,NaN,NaN,NaN,0,0,0,0,0,0,-29.803761,-24.2306999999999,0,0,0,1
2.8667481,73,73,STABILIZE,0,0,575,1000,1000,1000,1000,0,0,0,0,0,0,-30.046068,-24.3287999999999,0,0,0,1
2.8804757,73,73,STABILIZE,0,0,0,NaN,NaN,NaN,NaN,0,0,0,0,0,0,-30.289356,-24.4268999999999,0,0,0,1
2.892741,73,73,STABILIZE,0,0,0,NaN,NaN,NaN,NaN,0,0,0,0,0,0,-30.533625,-24.5249999999999,0,0,0,1
2.9053388,73,73,STABILIZE,0,0,0,NaN,NaN,NaN,NaN,0,0,0,0,0,0,-30.778875,-24.6230999999999,0,0,0,1
2.9185568,73,73,STABILIZE,0,0,0,NaN,NaN,NaN,NaN,0,0,0,0,0,0,-31.025106,-24.7211999999999,0,0,0,1
2.9309453,73,73,STABILIZE,0,0,0,NaN,NaN,NaN,NaN,0,0,0,0,0,0,-31.272318,-24.8192999999999,0,0,0,1
2.942833,74,74,STABILIZE,0,0,576,1000,1000,1000,1000,0,0,0,0,0,0,-31.520511,-24.9173999999999,0,0,0,1
2.9558533,74,74,STABILIZE,0,0,0,NaN,NaN,NaN,NaN,0,0,0,0,0,0,-31.769685,-25.0154999999999,0,0,0,1
2.968364,74,74,STABILIZE,0,0,0,NaN,NaN,NaN,NaN,0,0,0,0,0,0,-32.01984,-25.1135999999999,0,0,0,1
2.9759065,75,75,STABILIZE,0,0,577,1000,1000,1000,1000,0,0,0,0,0,0,-32.270976,-25.2116999999999,0,0,0,1
2.9897416,75,75,STABILIZE,0,0,0,NaN,NaN,NaN,NaN,0,0,0,0,0,0,-32.523093,-25.3097999999999,0,0,0,1
3.0020295,75,75,STABILIZE,0,0,0,NaN,NaN,NaN,NaN,0,0,0,0,0,0,-32.776191,-25.4078999999999,0,0,0,1
3.0144229,75,75,STABILIZE,0,0,0,NaN,NaN,NaN,NaN,0,0,0,0,0,0,-33.03027,-25.5059999999999,0,0,0,1
3.016729,76,76,STABILIZE,0,0,578,1000,1000,1000,1000,0,0,0,0,0,0,-33.28533,-25.6040999999999,0,0,0,1
3.0301222,76,76,STABILIZE,0,0,0,NaN,NaN,NaN,NaN,0,0,0,0,0,0,-33.541371,-25.7021999999999,0,0,0,1
3.0433882,76,76,STABILIZE,0,0,0,NaN,NaN,NaN,NaN,0,0,0,0,0,0,-33.798393,-25.8002999999999,0,0,0,1
3.0520857,77,77,STABILIZE,0,0,579,1000,1000,1000,1000,0,0,0,0,0,0,-34.056396,-25.8983999999999,0,0,0,1
3.0651346,77,77,STABILIZE,0,0,0,NaN,NaN,NaN,NaN,0,0,0,0,0,0,-34.31538,-25.9964999999999,0,0,0,1
3.0774699,77,77,STABILIZE,0,0,0,NaN,NaN,NaN,NaN,0,0,0,0,0,0,-34.575345,-26.0945999999999,0,0,0,1
3.0874439,78,78,STABILIZE,0,0,580,1000,1000,1000,1000,0,0,0,0,0,0,-34.836291,-26.1926999999999,0,0,0,1
3.1009518,78,78,STABILIZE,0,0,0,NaN,NaN,NaN,NaN,0,0,0,0,0,0,-35.098218,-26.2907999999999,0,0,0,1
3.1132666,78,78,STABILIZE,0,0,0,NaN,NaN,NaN,NaN,0,0,0,0,0,0,-35.361126,-26.3888999999999,0,0,0,1
3.1256428,79,79,STABILIZE,0,0,581,1000,1000,1000,1000,0,0,0,0,0,0,-35.625015,-26.4869999999999,0,0,0,1
3.1390263,79,79,STABILIZE,0,0,0,NaN,NaN,NaN,NaN,0,0,0,0,0,0,-35.889885,-26.5850999999999,0,0,0,1
3.15134,79,79,STABILIZE,0,0,0,NaN,NaN,NaN,NaN,0,0,0,0,0,0,-36.155736,-26.6831999999999,0,0,0,1
3.1589448,80,80,STABILIZE,0,0,582,1000,1000,1000,1000,0,0,0,0,0,0,-36.422568,-26.7812999999999,0,0,0,1
3.1718784,80,80,STABILIZE,0,0,0,NaN,NaN,NaN,NaN,0,0,0,0,0,0,-36.690381,-26.8793999999999,0,0,0,1
3.1842719,80,80,STABILIZE,0,0,0,NaN,NaN,NaN,NaN,0,0,0,0,0,0,-36.959175,-26.9774999999999,0,0,0,1
3.1931291,81,81,STABILIZE,0,0,583,1000,1000,1000,1000,0,0,0,0,0,0,-37.22895,-27.0755999999999,0,0,0,1
3.2060461,81,81,STABILIZE,0,0,0,NaN,NaN,NaN,NaN,0,0,0,0,0,0,-37.499706,-27.1736999999999,0,0,0,1
3.2182646,81,81,STABILIZE,0,0,0,NaN,NaN,NaN,NaN,0,0,0,0,0,0,-37.771443,-27.2717999999999,0,0,0,1
3.2307018,81,81,STABILIZE,0,0,0,NaN,NaN,NaN,NaN,0,0,0,0,0,0,-38.044161,-27.3698999999999,0,0,0,1
3.233894,82,82,STABILIZE,0,0,584,1000,1000,1000,1000,0,0,0,0,0,0,-38.31786,-27.4679999999999,0,0,0,1
3.2475618,82,82,STABILIZE,0,0,0,NaN,NaN,NaN,NaN,0,0,0,0,0,0,-38.59254,-27.5660999999999,0,0,0,1
3.2602687,82,82,STABILIZE,0,0,0,NaN,NaN,NaN,NaN,0,0,0,0,0,0,-38.868201,-27.6641999999999,0,0,0,1
3.2676202,83,83,STABILIZE,0,0,585,1000,1000,1000,1000,0,0,0,0,0,0,-39.144843,-27.7622999999999,0,0,0,1
3.2805327,83,83,STABILIZE,0,0,0,NaN,NaN,NaN,NaN,0,0,0,0,0,0,-39.422466,-27.8603999999999,0,0,0,1
3.293245,83,83,STABILIZE,0,0,0,NaN,NaN,NaN,NaN,0,0,0,0,0,0,-39.70107,-27.9584999999999,0,0,0,1
3.3011176,84,84,STABILIZE,0,0,586,1000,1000,1000,1000,0,0,0,0,0,0,-39.9806549999999,-28.0565999999999,0,0,0,1
3.3141098,84,84,STABILIZE,0,0,0,NaN,NaN,NaN,NaN,0,0,0,0,0,0,-40.2612209999999,-28.1546999999999,0,0,0,1
3.3263188,84,84,STABILIZE,0,0,0,NaN,NaN,NaN,NaN,0,0,0,0,0,0,-40.5427679999999,-28.2527999999999,0,0,0,1
3.3386742,84,84,STABILIZE,0,0,0,NaN,NaN,NaN,NaN,0,0,0,0,0,0,-40.8252959999999,-28.3508999999999,0,0,0,1
3.3424485,85,85,STABILIZE,0,0,587,1000,1000,1000,1000,0,0,0,0,0,0,-41.1088049999999,-28.4489999999999,0,0,0,1
3.3552376,85,85,STABILIZE,0,0,0,NaN,NaN,NaN,NaN,0,0,0,0,0,0,-41.3932949999999,-28.5470999999999,0,0,0,1
3.3676531,85,85,STABILIZE,0,0,0,NaN,NaN,NaN,NaN,0,0,0,0,0,0,-41.6787659999999,-28.6451999999999,0,0,0,1
3.3794927,86,86,STABILIZE,0,0,588,1000,1000,1000,1000,0,0,0,0,0,0,-41.9652179999999,-28.7432999999999,0,0,0,1
3.3934894,86,86,STABILIZE,0,0,0,NaN,NaN,NaN,NaN,0,0,0,0,0,0,-42.2526509999999,-28.8413999999999,0,0,0,1
3.4060758,86,86,ALT_HOLD,0,0,0,NaN,NaN,NaN,NaN,0,0,0,0,0,0,-42.5410649999999,-28.9394999999999,0,0,0,1
3.4130424,87,87,ALT_HOLD,0,0,589,1000,1000,1000,1000,0,0,0,0,0,0,-42.8304599999999,-29.0375999999999,0,0,0,1
3.4262602,87,87,ALT_HOLD,0,0,0,NaN,NaN,NaN,NaN,0,0,0,0,0,0,-43.1208359999999,-29.1356999999999,0,0,0,1
3.4385986,87,87,ALT_HOLD,0,0,0,NaN,NaN,NaN,NaN,0,0,0,0,0,0,-43.4121929999999,-29.2337999999999,0,0,0,1
3.4508678,87,87,ALT_HOLD,0,0,0,NaN,NaN,NaN,NaN,0,0,0,0,0,0,-43.7045309999999,-29.3318999999999,0,0,0,1
3.4539845,88,88,ALT_HOLD,0,0,590,1000,1000,1000,1000,0,0,0,0,0,0,-43.9978499999999,-29.4299999999999,0,0,0,1
3.4677411,88,88,ALT_HOLD,0,0,0,NaN,NaN,NaN,NaN,0,0,0,0,0,0,-44.2921499999999,-29.5280999999999,0,0,0,1
3.4802103,88,88,ALT_HOLD,0,0,0,NaN,NaN,NaN,NaN,0,0,0,0,0,0,-44.5874309999999,-29.6261999999999,0,0,0,1
3.4921291,89,89,ALT_HOLD,0,0,591,1000,1000,1000,1000,0,0,0,0,0,0,-44.8836929999999,-29.7242999999999,0,0,0,1
3.5061429,89,89,ALT_HOLD,0,0,0,NaN,NaN,NaN,NaN,0,0,0,0,0,0,-45.1809359999999,-29.8223999999999,0,0,0,1
3.5190703,89,89,ALT_HOLD,0,0,0,NaN,NaN,NaN,NaN,0,0,0,0,0,0,-45.4791599999999,-29.9204999999999,0,0,0,1
3.5264711,90,90,ALT_HOLD,0,0,592,1000,1000,1000,1000,0,0,0,0,0,0,-45.7783649999999,-30.0185999999999,0,0,0,1
3.5394416,90,90,ALT_HOLD,0,0,0,NaN,NaN,NaN,NaN,0,0,0,0,0,0,-46.0785509999999,-30.1166999999998,0,0,0,1
3.5521958,90,90,ALT_HOLD,0,0,0,NaN,NaN,NaN,NaN,0,0,0,0,0,0,-46.3797179999999,-30.2147999999998,0,0,0,1
3.5596658,91,91,ALT_HOLD,0,0,593,1000,1000,1000,1000,0,0,0,0,0,0,-46.6818659999999,-30.3128999999998,0,0,0,1
3.5727207,91,91,ALT_HOLD,0,0,0,NaN,NaN,NaN,NaN,0,0,0,0,0,0,-46.9849949999999,-30.4109999999998,0,0,0,1
3.5854923,91,91,ALT_HOLD,0,0,0,NaN,NaN,NaN,NaN,0,0,0,0,0,0,-47.2891049999999,-30.5090999999998,0,0,0,1
3.5934576,92,92,ALT_HOLD,0,0,594,1000,1000,1000,1000,0,0,0,0,0,0,-47.5941959999999,-30.6071999999998,0,0,0,1
3.6065232,92,92,ALT_HOLD,0,0,0,NaN,NaN,NaN,NaN,0,0,0,0,0,0,-47.9002679999999,-30.7052999999998,0,0,0,1
3.6187249,92,92,ALT_HOLD,0,0,0,NaN,NaN,NaN,NaN,0,0,0,0,0,0,-48.2073209999999,-30.8033999999998,0,0,0,1
3.6302808,93,93,ALT_HOLD,0,0,595,1000,1000,1000,1000,0,0,0,0,0,0,-48.5153549999999,-30.9014999999998,0,0,0,1
3.6433954,93,93,ALT_HOLD,0,0,0,NaN,NaN,NaN,NaN,0,0,0,0,0,0,-48.8243699999999,-30.9995999999998,0,0,0,1
3.656114,93,93,ALT_HOLD,0,0,0,NaN,NaN,NaN,NaN,0,0,0,0,0,0,-49.1343659999999,-31.0976999999998,0,0,0,1
3.6670533,94,94,ALT_HOLD,0,0,596,1000,1000,1000,1000,0,0,0,0,0,0,-49.4453429999999,-31.1957999999998,0,0,0,1
3.6802217,94,94,ALT_HOLD,0,0,0,NaN,NaN,NaN,NaN,0,0,0,0,0,0,-49.7573009999999,-31.2938999999998,0,0,0,1
3.6929358,94,94,ALT_HOLD,0,0,0,NaN,NaN,NaN,NaN,0,0,0,0,0,0,-50.0702399999999,-31.3919999999998,0,0,0,1
3.7046023,95,95,ALT_HOLD,0,0,597,1000,1000,1000,1000,0,0,0,0,0,0,-50.3841599999999,-31.4900999999998,0,0,0,1
3.7175649,95,95,ALT_HOLD,0,0,0,NaN,NaN,NaN,NaN,0,0,0,0,0,0,-50.6990609999999,-31.5881999999998,0,0,0,1
3.729949,95,95,ALT_HOLD,0,0,0,NaN,NaN,NaN,NaN,0,0,0,0,0,0,-51.0149429999999,-31.6862999999998,0,0,0,1
3.7417684,96,96,ALT_HOLD,0,0,598,1000,1000,1000,1000,0,0,0,0,0,0,-51.3318059999999,-31.7843999999998,0,0,0,1
3.7554211,96,96,ALT_HOLD,0,0,0,NaN,NaN,NaN,NaN,0,0,0,0,0,0,-51.6496499999999,-31.8824999999998,0,0,0,1
3.7680335,96,96,ALT_HOLD,0,0,0,NaN,NaN,NaN,NaN,0,0,0,0,0,0,-51.9684749999999,-31.9805999999998,0,0,0,1
3.7817776,97,97,ALT_HOLD,0,0,599,1000,1000,1000,1000,0,0,0,0,0,0,-52.2882809999999,-32.0786999999998,0,0,0,1
3.7948701,97,97,ALT_HOLD,0,0,0,NaN,NaN,NaN,NaN,0,0,0,0,0,0,-52.6090679999999,-32.1767999999998,0,0,0,1
3.8089261,97,97,ALT_HOLD,0,0,0,NaN,NaN,NaN,NaN,0,0,0,0,0,0,-52.9308359999999,-32.2748999999998,0,0,0,1
3.8166687,98,98,ALT_HOLD,0,0,600,1000,1000,1000,1000,0,0,0,0,0,0,-53.2535849999999,-32.3729999999998,0,0,0,1
3.8299705,98,98,ALT_HOLD,0,0,0,NaN,NaN,NaN,NaN,0,0,0,0,0,0,-53.5773149999999,-32.4710999999998,0,0,0,1
3.8431003,98,98,ALT_HOLD,0,0,0,NaN,NaN,NaN,NaN,0,0,0,0,0,0,-53.9020259999999,-32.5691999999998,0,0,0,1
3.8507588,99,99,ALT_HOLD,0,0,601,1000,1000,1000,1000,0,0,0,0,0,0,-54.2277179999999,-32.6672999999998,0,0,0,1
3.8642646,99,99,ALT_HOLD,0,0,0,NaN,NaN,NaN,NaN,0,0,0,0,0,0,-54.5543909999999,-32.7653999999998,0,0,0,1
3.8765675,99,99,ALT_HOLD,0,0,0,NaN,NaN,NaN,NaN,0,0,0,0,0,0,-54.8820449999999,-32.8634999999998,0,0,0,1
3.8889496,99,99,ALT_HOLD,0,0,0,NaN,NaN,NaN,NaN,0,0,0,0,0,0,-55.2106799999999,-32.9615999999998,0,0,0,1
3.891518,100,100,ALT_HOLD,0,0,602,1000,1000,1000,1000,0,0,0,0,0,0,-55.5402959999999,-33.0596999999999,0,0,0,1
3.9042221,100,100,ALT_HOLD,0,0,0,NaN,NaN,NaN,NaN,0,0,0,0,0,0,-55.8708929999999,-33.1577999999999,0,0,0,1
3.9174117,100,100,ALT_HOLD,0,0,0,NaN,NaN,NaN,NaN,0,0,0,0,0,0,-56.2024709999999,-33.2558999999999,0,0,0,1
3.9258891,101,101,ALT_HOLD,0,0,603,1000,1000,1000,1000,0,0,0,0,0,0,-56.5350299999999,-33.3539999999999,0,0,0,1
3.9392713,101,101,ALT_HOLD,0,0,0,NaN,NaN,NaN,NaN,0,0,0,0,0,0,-56.8685699999999,-33.4520999999999,0,0,0,1
3.9516582,101,101,ALT_HOLD,0,0,0,NaN,NaN,NaN,NaN,0,0,0,0,0,0,-57.2030909999999,-33.5501999999999,0,0,0,1
3.9651712,101,101,ALT_HOLD,0,0,0,NaN,NaN,NaN,NaN,0,0,0,0,0,0,-57.5385929999999,-33.6482999999999,0,0,0,1
3.9702521,102,102,ALT_HOLD,0,0,604,1000,1000,1000,1000,0,0,0,0,0,0,-57.8750759999999,-33.7463999999999,0,0,0,1
3.9845297,102,102,ALT_HOLD,0,0,0,NaN,NaN,NaN,NaN,0,0,0,0,0,0,-58.2125399999999,-33.8444999999999,0,0,0,1
3.9972757,102,102,ALT_HOLD,0,0,0,NaN,NaN,NaN,NaN,0,0,0,0,0,0,-58.5509849999999,-33.9425999999999,0,0,0,1
4.0100035,103,103,ALT_HOLD,0,0,605,1000,1000,1000,1000,0,0,0,0,0,0,-58.8904109999999,-34.0406999999999,0,0,0,1
4.0239133,103,103,ALT_HOLD,0,0,0,NaN,NaN,NaN,NaN,0,0,0,0,0,0,-59.2308179999999,-34.1387999999999,0,0,0,1
4.0363166,103,103,ALT_HOLD,0,0,0,NaN,NaN,NaN,NaN,0,0,0,0,0,0,-59.5722059999999,-34.2368999999999,0,0,0,1
4.0431817,104,104,ALT_HOLD,0,0,606,1000,1000,1000,1000,0,0,0,0,0,0,-59.9145749999999,-34.3349999999999,0,0,0,1
4.0560077,104,104,ALT_HOLD,0,0,0,NaN,NaN,NaN,NaN,0,0,0,0,0,0,-60.2579249999999,-34.4330999999999,0,0,0,1
4.0685965,104,104,ALT_HOLD,0,0,0,NaN,NaN,NaN,NaN,0,0,0,0,0,0,-60.6022559999999,-34.5311999999999,0,0,0,1
4.0795154,105,105,ALT_HOLD,0,0,607,1000,1000,1000,1000,0,0,0,0,0,0,-60.9475679999999,-34.6292999999999,0,0,0,1
4.0927458,105,105,ALT_HOLD,0,0,0,NaN,NaN,NaN,NaN,0,0,0,0,0,0,-61.2938609999999,-34.7273999999999,0,0,0,1
4.1052163,105,105,ALT_HOLD,0,0,0,NaN,NaN,NaN,NaN,0,0,0,0,0,0,-61.6411349999998,-34.8254999999999,0,0,0,1
4.1167365,106,106,ALT_HOLD,0,0,608,1000,1000,1000,1000,0,0,0,0,0,0,-61.9893899999999,-34.9235999999999,0,0,0,1
4.1304751,106,106,ALT_HOLD,0,0,0,NaN,NaN,NaN,NaN,0,0,0,0,0,0,-62.3386259999998,-35.0216999999999,0,0,0,1
4.1428761,106,106,ALT_HOLD,0,0,0,NaN,NaN,NaN,NaN,0,0,0,0,0,0,-62.6888429999998,-35.1197999999999,0,0,0,1
4.1503326,107,107,ALT_HOLD,0,0,609,1000,1000,1000,1000,0,0,0,0,0,0,-63.0400409999998,-35.2178999999999,0,0,0,1
4.1631649,107,107,ALT_HOLD,0,0,0,NaN,NaN,NaN,NaN,0,0,0,0,0,0,-63.3922199999998,-35.3159999999999,0,0,0,1
4.175744,107,107,ALT_HOLD,0,0,0,NaN,NaN,NaN,NaN,0,0,0,0,0,0,-63.7453799999998,-35.4140999999999,0,0,0,1
4.1840601,108,108,ALT_HOLD,0,0,610,1000,1000,1000,1000,0,0,0,0,0,0,-64.0995209999998,-35.5121999999999,0,0,0,1
4.1973904,108,108,ALT_HOLD,0,0,0,NaN,NaN,NaN,NaN,0,0,0,0,0,0,-64.4546429999998,-35.6102999999999,0,0,0,1
4.2096978,108,108,ALT_HOLD,0,0,0,NaN,NaN,NaN,NaN,0,0,0,0,0,0,-64.8107459999998,-35.7083999999999,0,0,0,1
4.2179422,109,109,ALT_HOLD,0,0,611,1000,1000,1000,1000,0,0,0,0,0,0,-65.1678299999998,-35.8064999999999,0,0,0,1
4.2316474,109,109,ALT_HOLD,0,0,0,NaN,NaN,NaN,NaN,0,0,0,0,0,0,-65.5258949999998,-35.9045999999999,0,0,0,1
4.244579,109,109,ALT_HOLD,0,0,0,NaN,NaN,NaN,NaN,0,0,0,0,0,0,-65.8849409999998,-36.0026999999999,0,0,0,1
4.2541363,110,110,ALT_HOLD,0,0,612,1000,1000,1000,1000,0,0,0,0,0,0,-66.2449679999998,-36.1007999999999,0,0,0,1
4.2672034,110,110,ALT_HOLD,0,0,0,NaN,NaN,NaN,NaN,0,0,0,0,0,0,-66.6059759999998,-36.1988999999999,0,0,0,1
4.2795974,110,110,ALT_HOLD,0,0,0,NaN,NaN,NaN,NaN,0,0,0,0,0,0,-66.9679649999998,-36.2969999999999,0,0,0,1
4.2876025,111,111,ALT_HOLD,0,0,613,1000,1000,1000,1000,0,0,0,0,0,0,-67.3309349999998,-36.3950999999999,0,0,0,1
4.3010098,111,111,ALT_HOLD,0,0,0,NaN,NaN,NaN,NaN,0,0,0,0,0,0,-67.6948859999998,-36.4931999999999,0,0,0,1
4.313416,111,111,ALT_HOLD,0,0,0,NaN,NaN,NaN,NaN,0,0,0,0,0,0,-68.0598179999998,-36.5912999999999,0,0,0,1
4.3258035,111,111,ALT_HOLD,0,0,0,NaN,NaN,NaN,NaN,0,0,0,0,0,0,-68.4257309999998,-36.6893999999999,0,0,0,1
4.3291672,112,112,ALT_HOLD,0,0,614,1000,1000,1000,1000,0,0,0,0,0,0,-68.7926249999998,-36.7874999999999,0,0,0,1
4.3421295,112,112,ALT_HOLD,0,0,0,NaN,NaN,NaN,NaN,0,0,0,0,0,0,-69.1604999999998,-36.8855999999999,0,0,0,1
4.3549706,112,112,ALT_HOLD,0,0,0,NaN,NaN,NaN,NaN,0,0,0,0,0,0,-69.5293559999998,-36.9836999999999,0,0,0,1
4.3666623,113,113,ALT_HOLD,0,0,615,1000,1000,1000,1000,0,0,0,0,0,0,-69.8991929999998,-37.0817999999999,0,0,0,1
4.3797916,113,113,ALT_HOLD,0,0,0,NaN,NaN,NaN,NaN,0,0,0,0,0,0,-70.2700109999998,-37.1798999999999,0,0,0,1
4.3924301,113,113,ALT_HOLD,0,0,0,NaN,NaN,NaN,NaN,0,0,0,0,0,0,-70.6418099999998,-37.2779999999999,0,0,0,1
4.4008859,114,114,ALT_HOLD,0,0,616,1000,1000,1000,1000,0,0,0,0,0,0,-71.0145899999998,-37.3761,0,0,0,1
4.4139835,114,114,ALT_HOLD,0,0,0,NaN,NaN,NaN,NaN,0,0,0,0,0,0,-71.3883509999998,-37.4742,0,0,0,1
4.4264407,114,114,ALT_HOLD,0,0,0,NaN,NaN,NaN,NaN,0,0,0,0,0,0,-71.7630929999998,-37.5723,0,0,0,1
4.4369399,115,115,ALT_HOLD,0,0,617,1000,1000,1000,1000,0,0,0,0,0,0,-72.1388159999998,-37.6704,0,0,0,1
4.4516235,115,115,ALT_HOLD,0,0,0,NaN,NaN,NaN,NaN,0,0,0,0,0,0,-72.5155199999998,-37.7685,0,0,0,1
4.4647219,115,115,ALT_HOLD,0,0,0,NaN,NaN,NaN,NaN,0,0,0,0,0,0,-72.8932049999998,-37.8666,0,0,0,1
4.4710474,116,116,ALT_HOLD,0,0,618,1000,1000,1000,1000,0,0,0,0,0,0,-73.2718709999998,-37.9647,0,0,0,1
4.4844315,116,116,ALT_HOLD,0,0,0,NaN,NaN,NaN,NaN,0,0,0,0,0,0,-73.6515179999998,-38.0628,0,0,0,1
4.4969454,116,116,ALT_HOLD,0,0,0,NaN,NaN,NaN,NaN,0,0,0,0,0,0,-74.0321459999998,-38.1609,0,0,0,1
4.5050762,117,117,ALT_HOLD,0,0,619,1000,1000,1000,1000,0,0,0,0,0,0,-74.4137549999998,-38.259,0,0,0,1
4.5178737,117,117,ALT_HOLD,0,0,0,NaN,NaN,NaN,NaN,0,0,0,0,0,0,-74.7963449999998,-38.3571,0,0,0,1
4.5305052,117,117,ALT_HOLD,0,0,0,NaN,NaN,NaN,NaN,0,0,0,0,0,0,-75.1799159999998,-38.4552,0,0,0,1
4.5429314,118,118,ALT_HOLD,0,0,620,1000,1000,1000,1000,0,0,0,0,0,0,-75.5644679999998,-38.5533,0,0,0,1
4.5561128,118,118,ALT_HOLD,0,0,0,NaN,NaN,NaN,NaN,0,0,0,0,0,0,-75.9500009999998,-38.6514,0,0,0,1
4.5685537,118,118,ALT_HOLD,0,0,0,NaN,NaN,NaN,NaN,0,0,0,0,0,0,-76.3365149999998,-38.7495,0,0,0,1
4.5810499,118,118,ALT_HOLD,0,0,0,NaN,NaN,NaN,NaN,0,0,0,0,0,0,-76.7240099999998,-38.8476,0,0,0,1
4.5936462,118,118,ALT_HOLD,0,0,0,NaN,NaN,NaN,NaN,0,0,0,0,0,0,-77.1124859999998,-38.9457,0,0,0,1
4.6061049,118,118,ALT_HOLD,0,0,0,NaN,NaN,NaN,NaN,0,0,0,0,0,0,-77.5019429999998,-39.0438,0,0,0,1
4.6169553,119,119,ALT_HOLD,0,0,621,1000,1000,1000,1000,0,0,0,0,0,0,-77.8923809999998,-39.1419,0,0,0,1
4.6299928,119,119,ALT_HOLD,0,0,0,NaN,NaN,NaN,NaN,0,0,0,0,0,0,-78.2837999999998,-39.24,0,0,0,1
4.6424098,119,119,ALT_HOLD,0,0,0,NaN,NaN,NaN,NaN,0,0,0,0,0,0,-78.6761999999998,-39.3381,0,0,0,1
4.6550262,120,120,ALT_HOLD,0,0,622,1000,1000,1000,1000,0,0,0,0,0,0,-79.0695809999998,-39.4362,0,0,0,1
4.6680122,120,120,ALT_HOLD,0,0,0,NaN,NaN,NaN,NaN,0,0,0,0,0,0,-79.4639429999998,-39.5343,0,0,0,1
4.6806083,120,120,ALT_HOLD,0,0,0,NaN,NaN,NaN,NaN,0,0,0,0,0,0,-79.8592859999998,-39.6324,0,0,0,1
4.6890444,121,121,ALT_HOLD,0,0,623,1000,1000,1000,1000,0,0,0,0,0,0,-80.2556099999998,-39.7305,0,0,0,1
4.702283,121,121,ALT_HOLD,0,0,0,NaN,NaN,NaN,NaN,0,0,0,0,0,0,-80.6529149999998,-39.8286,0,0,0,1
4.7146947,121,121,ALT_HOLD,0,0,0,NaN,NaN,NaN,NaN,0,0,0,0,0,0,-81.0512009999998,-39.9267,0,0,0,1
4.7264318,122,122,ALT_HOLD,0,0,624,1000,1000,1000,1000,0,0,0,0,0,0,-81.4504679999998,-40.0248,0,0,0,1
4.7395789,122,122,ALT_HOLD,0,0,0,NaN,NaN,NaN,NaN,0,0,0,0,0,0,-81.8507159999998,-40.1229,0,0,0,1
4.7519414,122,122,ALT_HOLD,0,0,0,NaN,NaN,NaN,NaN,0,0,0,0,0,0,-82.2519449999998,-40.221,0,0,0,1
4.7643085,122,122,ALT_HOLD,0,0,0,NaN,NaN,NaN,NaN,0,0,0,0,0,0,-82.6541549999998,-40.3191,0,0,0,1
4.7666157,123,123,ALT_HOLD,0,0,625,1000,1000,1000,1000,0,0,0,0,0,0,-83.0573459999998,-40.4172,0,0,0,1
4.7793656,123,123,ALT_HOLD,0,0,0,NaN,NaN,NaN,NaN,0,0,0,0,0,0,-83.4615179999998,-40.5153,0,0,0,1
4.7915868,123,123,ALT_HOLD,0,0,0,NaN,NaN,NaN,NaN,0,0,0,0,0,0,-83.8666709999998,-40.6134,0,0,0,1
4.8006943,124,124,ALT_HOLD,0,0,626,1000,1000,1000,1000,0,0,0,0,0,0,-84.2728049999998,-40.7115,0,0,0,1
4.8140035,124,124,ALT_HOLD,0,0,0,NaN,NaN,NaN,NaN,0,0,0,0,0,0,-84.6799199999998,-40.8096,0,0,0,1
4.8264656,124,124,ALT_HOLD,0,0,0,NaN,NaN,NaN,NaN,0,0,0,0,0,0,-85.0880159999998,-40.9077,0,0,0,1
4.8342908,125,125,ALT_HOLD,0,0,627,1000,1000,1000,1000,0,0,0,0,0,0,-85.4970929999998,-41.0058,0,0,0,1
4.8472025,125,125,ALT_HOLD,0,0,0,NaN,NaN,NaN,NaN,0,0,0,0,0,0,-85.9071509999998,-41.1039,0,0,0,1
4.8595119,125,125,ALT_HOLD,0,0,0,NaN,NaN,NaN,NaN,0,0,0,0,0,0,-86.3181899999998,-41.202,0,0,0,1
4.8718667,125,125,ALT_HOLD,0,0,0,NaN,NaN,NaN,NaN,0,0,0,0,0,0,-86.7302099999998,-41.3001,0,0,0,1
4.8749816,126,126,ALT_HOLD,0,0,628,1000,1000,1000,1000,0,0,0,0,0,0,-87.1432109999998,-41.3982,0,0,0,1
4.8882029,126,126,ALT_HOLD,0,0,0,NaN,NaN,NaN,NaN,0,0,0,0,0,0,-87.5571929999998,-41.4963,0,0,0,1
4.9007421,126,126,ALT_HOLD,0,0,0,NaN,NaN,NaN,NaN,0,0,0,0,0,0,-87.9721559999998,-41.5944,0,0,0,1
4.9088078,127,127,ALT_HOLD,0,0,629,1000,1000,1000,1000,0,0,0,0,0,0,-88.3880999999998,-41.6925000000001,0,0,0,1
4.9218981,127,127,ALT_HOLD,0,0,0,NaN,NaN,NaN,NaN,0,0,0,0,0,0,-88.8050249999998,-41.7906000000001,0,0,0,1
4.9341945,127,127,ALT_HOLD,0,0,0,NaN,NaN,NaN,NaN,0,0,0,0,0,0,-89.2229309999998,-41.8887000000001,0,0,0,1
4.9424594,128,128,ALT_HOLD,0,0,630,1000,1000,1000,1000,0,0,0,0,0,0,-89.6418179999998,-41.9868000000001,0,0,0,1
4.955944,128,128,ALT_HOLD,0,0,0,NaN,NaN,NaN,NaN,0,0,0,0,0,0,-90.0616859999998,-42.0849000000001,0,0,0,1
4.9685367,128,128,ALT_HOLD,0,0,0,NaN,NaN,NaN,NaN,0,0,0,0,0,0,-90.4825349999998,-42.1830000000001,0,0,0,1
4.9812159,128,128,ALT_HOLD,0,0,0,NaN,NaN,NaN,NaN,0,0,0,0,0,0,-90.9043649999998,-42.2811000000001,0,0,0,1
4.983695,129,129,ALT_HOLD,0,0,631,1000,1000,1000,1000,0,0,0,0,0,0,-91.3271759999998,-42.3792000000001,0,0,0,1
4.9964374,129,129,ALT_HOLD,0,0,0,NaN,NaN,NaN,NaN,0,0,0,0,0,0,-91.7509679999998,-42.4773000000001,0,0,0,1
5.0090348,129,129,ALT_HOLD,0,0,0,NaN,NaN,NaN,NaN,0,0,0,0,0,0,-92.1757409999998,-42.5754000000001,0,0,0,1
5.0168408,130,130,ALT_HOLD,0,0,632,1000,1000,1000,1000,0,0,0,0,0,0,-92.6014949999998,-42.6735000000001,0,0,0,1
5.0300528,130,130,ALT_HOLD,0,0,0,NaN,NaN,NaN,NaN,0,0,0,0,0,0,-93.0282299999998,-42.7716000000001,0,0,0,1
5.0431427,130,130,ALT_HOLD,0,0,0,NaN,NaN,NaN,NaN,0,0,0,0,0,0,-93.4559459999998,-42.8697000000001,0,0,0,1
5.0503885,131,131,ALT_HOLD,0,0,633,1000,1000,1000,1000,0,0,0,0,0,0,-93.8846429999998,-42.9678000000001,0,0,0,1
5.063912,131,131,ALT_HOLD,0,0,0,NaN,NaN,NaN,NaN,0,0,0,0,0,0,-94.3143209999998,-43.0659000000001,0,0,0,1
5.0761432,131,131,ALT_HOLD,0,0,0,NaN,NaN,NaN,NaN,0,0,0,0,0,0,-94.7449799999998,-43.1640000000001,0,0,0,1
5.0890035,131,131,ALT_HOLD,0,0,0,NaN,NaN,NaN,NaN,0,0,0,0,0,0,-95.1766199999998,-43.2621000000001,0,0,0,1
5.0930099,132,132,ALT_HOLD,0,0,634,1000,1000,1000,1000,0,0,0,0,0,0,-95.6092409999998,-43.3602000000001,0,0,0,1
5.1068594,132,132,ALT_HOLD,0,0,0,NaN,NaN,NaN,NaN,0,0,0,0,0,0,-96.0428429999998,-43.4583000000001,0,0,0,1
5.1198797,132,132,ALT_HOLD,0,0,0,NaN,NaN,NaN,NaN,0,0,0,0,0,0,-96.4774259999999,-43.5564000000001,0,0,0,1
5.1262021,133,133,ALT_HOLD,0,0,635,1000,1000,1000,1000,0,0,0,0,0,0,-96.9129899999999,-43.6545000000001,0,0,0,1
5.139235,133,133,ALT_HOLD,0,0,0,NaN,NaN,NaN,NaN,0,0,0,0,0,0,-97.3495349999998,-43.7526000000001,0,0,0,1
5.1514143,133,133,ALT_HOLD,0,0,0,NaN,NaN,NaN,NaN,0,0,0,0,0,0,-97.7870609999999,-43.8507000000001,0,0,0,1
5.1634386,134,134,ALT_HOLD,0,0,636,1000,1000,1000,1000,0,0,0,0,0,0,-98.2255679999999,-43.9488000000001,0,0,0,1
5.1768039,134,134,ALT_HOLD,0,0,0,NaN,NaN,NaN,NaN,0,0,0,0,0,0,-98.6650559999999,-44.0469000000001,0,0,0,1
5.1890917,134,134,ALT_HOLD,0,0,0,NaN,NaN,NaN,NaN,0,0,0,0,0,0,-99.1055249999999,-44.1450000000001,0,0,0,1
5.2013917,134,134,ALT_HOLD,0,0,0,NaN,NaN,NaN,NaN,0,0,0,0,0,0,-99.5469749999999,-44.2431000000001,0,0,0,1
5.2043007,135,135,ALT_HOLD,0,0,637,1000,1000,1000,1000,0,0,0,0,0,0,-99.9894059999999,-44.3412000000001,0,0,0,1
5.2173291,135,135,ALT_HOLD,0,0,0,NaN,NaN,NaN,NaN,0,0,0,0,0,0,-100.432818,-44.4393000000001,0,0,0,1
5.2302543,135,135,ALT_HOLD,0,0,0,NaN,NaN,NaN,NaN,0,0,0,0,0,0,-100.877211,-44.5374000000001,0,0,0,1
5.2417968,136,136,ALT_HOLD,0,0,638,1000,1000,1000,1000,0,0,0,0,0,0,-101.322585,-44.6355000000001,0,0,0,1
5.2552123,136,136,ALT_HOLD,0,0,0,NaN,NaN,NaN,NaN,0,0,0,0,0,0,-101.76894,-44.7336000000001,0,0,0,1
5.2678206,136,136,ALT_HOLD,0,0,0,NaN,NaN,NaN,NaN,0,0,0,0,0,0,-102.216276,-44.8317000000001,0,0,0,1
5.2761991,137,137,ALT_HOLD,0,0,639,1000,1000,1000,1000,0,0,0,0,0,0,-102.664593,-44.9298000000001,0,0,0,1
5.2896083,137,137,ALT_HOLD,0,0,0,NaN,NaN,NaN,NaN,0,0,0,0,0,0,-103.113891,-45.0279000000001,0,0,0,1
5.3020815,137,137,ALT_HOLD,0,0,0,NaN,NaN,NaN,NaN,0,0,0,0,0,0,-103.56417,-45.1260000000001,0,0,0,1
5.3126898,138,138,ALT_HOLD,0,0,640,1000,1000,1000,1000,0,0,0,0,0,0,-104.01543,-45.2241000000001,0,0,0,1
5.3259393,138,138,ALT_HOLD,0,0,0,NaN,NaN,NaN,NaN,0,0,0,0,0,0,-104.467671,-45.3222000000001,0,0,0,1
5.3382277,138,138,ALT_HOLD,0,0,0,NaN,NaN,NaN,NaN,0,0,0,0,0,0,-104.920893,-45.4203000000001,0,0,0,1
5.3457007,139,139,ALT_HOLD,0,0,641,1000,1000,1000,1000,0,0,0,0,0,0,-105.375096,-45.5184000000001,0,0,0,1
5.3596464,139,139,ALT_HOLD,0,0,0,NaN,NaN,NaN,NaN,0,0,0,0,0,0,-105.83028,-45.6165000000001,0,0,0,1
5.3719487,139,139,ALT_HOLD,0,0,0,NaN,NaN,NaN,NaN,0,0,0,0,0,0,-106.286445,-45.7146000000001,0,0,0,1
5.379249,140,140,ALT_HOLD,0,0,642,1000,1000,1000,1000,0,0,0,0,0,0,-106.743591,-45.8127000000001,0,0,0,1
5.3925236,140,140,ALT_HOLD,0,0,0,NaN,NaN,NaN,NaN,0,0,0,0,0,0,-107.201718,-45.9108000000002,0,0,0,1
5.4053289,140,140,ALT_HOLD,0,0,0,NaN,NaN,NaN,NaN,0,0,0,0,0,0,-107.660826,-46.0089000000002,0,0,0,1
5.4182437,140,140,ALT_HOLD,0,0,0,NaN,NaN,NaN,NaN,0,0,0,0,0,0,-108.120915,-46.1070000000002,0,0,0,1
5.4236816,141,141,ALT_HOLD,0,0,643,1000,1000,1000,1000,0,0,0,0,0,0,-108.581985,-46.2051000000002,0,0,0,1
5.4380385,141,141,ALT_HOLD,0,0,0,NaN,NaN,NaN,NaN,0,0,0,0,0,0,-109.044036,-46.3032000000002,0,0,0,1
5.4506517,141,141,ALT_HOLD,0,0,0,NaN,NaN,NaN,NaN,0,0,0,0,0,0,-109.507068,-46.4013000000002,0,0,0,1
5.4638278,141,141,ALT_HOLD,0,0,0,NaN,NaN,NaN,NaN,0,0,0,0,0,0,-109.971081,-46.4994000000002,0,0,0,1
5.4708756,142,142,ALT_HOLD,0,0,644,1000,1000,1000,1000,0,0,0,0,0,0,-110.436075,-46.5975000000002,0,0,0,1
5.4847803,142,142,ALT_HOLD,0,0,0,NaN,NaN,NaN,NaN,0,0,0,0,0,0,-110.90205,-46.6956000000002,0,0,0,1
5.4973159,142,142,ALT_HOLD,0,0,0,NaN,NaN,NaN,NaN,0,0,0,0,0,0,-111.369006,-46.7937000000002,0,0,0,1
5.5098869,142,142,ALT_HOLD,0,0,0,NaN,NaN,NaN,NaN,0,0,0,0,0,0,-111.836943,-46.8918000000002,0,0,0,1
5.5182276,143,143,ALT_HOLD,0,0,645,1000,1000,1000,1000,0,0,0,0,0,0,-112.305861,-46.9899000000002,0,0,0,1
5.5313735,143,143,ALT_HOLD,0,0,0,NaN,NaN,NaN,NaN,0,0,0,0,0,0,-112.77576,-47.0880000000002,0,0,0,1
5.5441649,143,143,ALT_HOLD,0,0,0,NaN,NaN,NaN,NaN,0,0,0,0,0,0,-113.24664,-47.1861000000002,0,0,0,1
5.5514472,144,144,ALT_HOLD,0,0,646,1000,1000,1000,1000,0,0,0,0,0,0,-113.718501,-47.2842000000002,0,0,0,1
5.5647544,144,144,ALT_HOLD,0,0,0,NaN,NaN,NaN,NaN,0,0,0,0,0,0,-114.191343,-47.3823000000002,0,0,0,1
5.5771925,144,144,ALT_HOLD,0,0,0,NaN,NaN,NaN,NaN,0,0,0,0,0,0,-114.665166,-47.4804000000002,0,0,0,1
5.5850336,145,145,ALT_HOLD,0,0,647,1000,1000,1000,1000,0,0,0,0,0,0,-115.13997,-47.5785000000002,0,0,0,1
5.5983681,145,145,ALT_HOLD,0,0,0,NaN,NaN,NaN,NaN,0,0,0,0,0,0,-115.615755,-47.6766000000002,0,0,0,1
5.6110399,145,145,ALT_HOLD,0,0,0,NaN,NaN,NaN,NaN,0,0,0,0,0,0,-116.092521,-47.7747000000002,0,0,0,1
5.6208123,146,146,ALT_HOLD,0,0,648,1000,1000,1000,1000,0,0,0,0,0,0,-116.570268,-47.8728000000002,0,0,0,1
5.6341668,146,146,ALT_HOLD,0,0,0,NaN,NaN,NaN,NaN,0,0,0,0,0,0,-117.048996,-47.9709000000002,0,0,0,1
5.6468501,146,146,ALT_HOLD,0,0,0,NaN,NaN,NaN,NaN,0,0,0,0,0,0,-117.528705,-48.0690000000002,0,0,0,1
5.654415,147,147,ALT_HOLD,0,0,649,1000,1000,1000,1000,0,0,0,0,0,0,-118.009395,-48.1671000000002,0,0,0,1
5.6684627,147,147,ALT_HOLD,0,0,0,NaN,NaN,NaN,NaN,0,0,0,0,0,0,-118.491066,-48.2652000000002,0,0,0,1
5.6809262,147,147,ALT_HOLD,0,0,0,NaN,NaN,NaN,NaN,0,0,0,0,0,0,-118.973718,-48.3633000000002,0,0,0,1
5.6885055,148,148,ALT_HOLD,0,0,650,1000,1000,1000,1000,0,0,0,0,0,0,-119.457351,-48.4614000000002,0,0,0,1
5.7014035,148,148,ALT_HOLD,0,0,0,NaN,NaN,NaN,NaN,0,0,0,0,0,0,-119.941965,-48.5595000000002,0,0,0,1
5.7137017,148,148,ALT_HOLD,0,0,0,NaN,NaN,NaN,NaN,0,0,0,0,0,0,-120.42756,-48.6576000000002,0,0,0,1
5.7215181,149,149,ALT_HOLD,0,0,651,1000,1000,1000,1000,0,0,0,0,0,0,-120.914136,-48.7557000000002,0,0,0,1
5.7343935,149,149,ALT_HOLD,0,0,0,NaN,NaN,NaN,NaN,0,0,0,0,0,0,-121.401693,-48.8538000000002,0,0,0,1
5.7468236,149,149,ALT_HOLD,0,0,0,NaN,NaN,NaN,NaN,0,0,0,0,0,0,-121.890231,-48.9519000000002,0,0,0,1
5.7587864,150,150,ALT_HOLD,0,0,652,1000,1000,1000,1000,0,0,0,0,0,0,-122.37975,-49.0500000000002,0,0,0,1
5.7721266,150,150,ALT_HOLD,0,0,0,NaN,NaN,NaN,NaN,0,0,0,0,0,0,-122.87025,-49.1481000000002,0,0,0,1
5.7846552,150,150,ALT_HOLD,0,0,0,NaN,NaN,NaN,NaN,0,0,0,0,0,0,-123.361731,-49.2462000000002,0,0,0,1
5.7918255,151,151,ALT_HOLD,0,0,653,1000,1000,1000,1000,0,0,0,0,0,0,-123.854193,-49.3443000000002,0,0,0,1
5.8064916,151,151,ALT_HOLD,0,0,0,NaN,NaN,NaN,NaN,0,0,0,0,0,0,-124.347636,-49.4424000000002,0,0,0,1
5.8187243,151,151,ALT_HOLD,0,0,0,NaN,NaN,NaN,NaN,0,0,0,0,0,0,-124.84206,-49.5405000000002,0,0,0,1
5.8249557,152,152,ALT_HOLD,0,0,654,1000,1000,1000,1000,0,0,0,0,0,0,-125.337465,-49.6386000000002,0,0,0,1
5.8386627,152,152,ALT_HOLD,0,0,0,NaN,NaN,NaN,NaN,0,0,0,0,0,0,-125.833851,-49.7367000000002,0,0,0,1
5.8510581,152,152,ALT_HOLD,0,0,0,NaN,NaN,NaN,NaN,0,0,0,0,0,0,-126.331218,-49.8348000000002,0,0,0,1
5.8579129,153,153,ALT_HOLD,0,0,655,1000,1000,1000,1000,0,0,0,0,0,0,-126.829566,-49.9329000000002,0,0,0,1
5.8706999,153,153,ALT_HOLD,0,0,0,NaN,NaN,NaN,NaN,0,0,0,0,0,0,-127.328895,-50.0310000000002,0,0,0,1
5.8832194,153,153,ALT_HOLD,0,0,0,NaN,NaN,NaN,NaN,0,0,0,0,0,0,-127.829205,-50.1291000000002,0,0,0,1
5.8923047,154,154,ALT_HOLD,0,0,656,1000,1000,1000,1000,0,0,0,0,0,0,-128.330496,-50.2272000000003,0,0,0,1
5.9059902,154,154,ALT_HOLD,0,0,0,NaN,NaN,NaN,NaN,0,0,0,0,0,0,-128.832768,-50.3253000000003,0,0,0,1
5.9187864,154,154,ALT_HOLD,0,0,0,NaN,NaN,NaN,NaN,0,0,0,0,0,0,-129.336021,-50.4234000000003,0,0,0,1
5.9267319,155,155,ALT_HOLD,0,0,657,1000,1000,1000,1000,0,0,0,0,0,0,-129.840255,-50.5215000000003,0,0,0,1
5.9400019,155,155,ALT_HOLD,0,0,0,NaN,NaN,NaN,NaN,0,0,0,0,0,0,-130.34547,-50.6196000000003,0,0,0,1
5.9525257,155,155,ALT_HOLD,0,0,0,NaN,NaN,NaN,NaN,0,0,0,0,0,0,-130.851666,-50.7177000000003,0,0,0,1
5.9655377,155,155,ALT_HOLD,0,0,0,NaN,NaN,NaN,NaN,0,0,0,0,0,0,-131.358843,-50.8158000000003,0,0,0,1
5.9794121,155,155,ALT_HOLD,0,0,0,NaN,NaN,NaN,NaN,0,0,0,0,0,0,-131.867001,-50.9139000000003,0,0,0,1
5.9924322,155,155,ALT_HOLD,0,0,0,NaN,NaN,NaN,NaN,0,0,0,0,0,0,-132.37614,-51.0120000000003,0,0,0,1
6.004305,156,156,ALT_HOLD,0,0,658,1000,1000,1000,1000,0,0,0,0,0,0,-132.88626,-51.1101000000003,0,0,0,1
6.0173728,156,156,ALT_HOLD,0,0,0,NaN,NaN,NaN,NaN,0,0,0,0,0,0,-133.397361,-51.2082000000003,0,0,0,1
6.0298087,156,156,ALT_HOLD,0,0,0,NaN,NaN,NaN,NaN,0,0,0,0,0,0,-133.909443,-51.3063000000003,0,0,0,1
6.0374591,157,157,ALT_HOLD,0,0,659,1000,1000,1000,1000,0,0,0,0,0,0,-134.422506,-51.4044000000003,0,0,0,1
6.0508506,157,157,ALT_HOLD,0,0,0,NaN,NaN,NaN,NaN,0,0,0,0,0,0,-134.93655,-51.5025000000003,0,0,0,1
6.0634613,157,157,ALT_HOLD,0,0,0,NaN,NaN,NaN,NaN,0,0,0,0,0,0,-135.451575,-51.6006000000003,0,0,0,1
6.0759584,157,157,ALT_HOLD,0,0,0,NaN,NaN,NaN,NaN,0,0,0,0,0,0,-135.967581,-51.6987000000003,0,0,0,1
6.0790845,158,158,ALT_HOLD,0,0,660,1000,1000,1000,1000,0,0,0,0,0,0,-136.484568,-51.7968000000003,0,0,0,1
6.0927612,158,158,ALT_HOLD,0,0,0,NaN,NaN,NaN,NaN,0,0,0,0,0,0,-137.002536,-51.8949000000003,0,0,0,1
6.1050088,158,158,ALT_HOLD,0,0,0,NaN,NaN,NaN,NaN,0,0,0,0,0,0,-137.521485,-51.9930000000003,0,0,0,1
6.1122856,159,159,ALT_HOLD,0,0,661,1000,1000,1000,1000,0,0,0,0,0,0,-138.041415,-52.0911000000003,0,0,0,1
6.1261002,159,159,ALT_HOLD,0,0,0,NaN,NaN,NaN,NaN,0,0,0,0,0,0,-138.562326,-52.1892000000003,0,0,0,1
6.1384714,159,159,ALT_HOLD,0,0,0,NaN,NaN,NaN,NaN,0,0,0,0,0,0,-139.084218,-52.2873000000003,0,0,0,1
6.1458443,160,160,ALT_HOLD,0,0,662,1000,1000,1000,1000,0,0,0,0,0,0,-139.607091,-52.3854000000003,0,0,0,1
6.1591001,160,160,ALT_HOLD,0,0,0,NaN,NaN,NaN,NaN,0,0,0,0,0,0,-140.130945,-52.4835000000003,0,0,0,1
6.1720647,160,160,ALT_HOLD,0,0,0,NaN,NaN,NaN,NaN,0,0,0,0,0,0,-140.65578,-52.5816000000003,0,0,0,1
6.1851155,160,160,ALT_HOLD,0,0,0,NaN,NaN,NaN,NaN,0,0,0,0,0,0,-141.181596,-52.6797000000003,0,0,0,1
6.1987032,160,160,ALT_HOLD,0,0,0,NaN,NaN,NaN,NaN,0,0,0,0,0,0,-141.708393,-52.7778000000003,0,0,0,1
6.2121762,160,160,ALT_HOLD,0,0,0,NaN,NaN,NaN,NaN,0,0,0,0,0,0,-142.236171,-52.8759000000003,0,0,0,1
6.2208224,161,161,ALT_HOLD,0,0,663,1000,1000,1000,1000,0,0,0,0,0,0,-142.76493,-52.9740000000003,0,0,0,1
6.2342243,161,161,ALT_HOLD,0,0,0,NaN,NaN,NaN,NaN,0,0,0,0,0,0,-143.29467,-53.0721000000003,0,0,0,1
6.246779,161,161,ALT_HOLD,0,0,0,NaN,NaN,NaN,NaN,0,0,0,0,0,0,-143.825391,-53.1702000000003,0,0,0,1
6.2541396,162,162,ALT_HOLD,0,0,664,1000,1000,1000,1000,0,0,0,0,0,0,-144.357093,-53.2683000000003,0,0,0,1
6.2673127,162,162,ALT_HOLD,0,0,0,NaN,NaN,NaN,NaN,0,0,0,0,0,0,-144.889776,-53.3664000000003,0,0,0,1
6.2796883,162,162,ALT_HOLD,0,0,0,NaN,NaN,NaN,NaN,0,0,0,0,0,0,-145.42344,-53.4645000000003,0,0,0,1
6.2921951,162,162,ALT_HOLD,0,0,0,NaN,NaN,NaN,NaN,0,0,0,0,0,0,-145.958085,-53.5626000000003,0,0,0,1
6.2947897,163,163,ALT_HOLD,0,0,665,1000,1000,1000,1000,0,0,0,0,0,0,-146.493711,-53.6607000000003,0,0,0,1
6.3072766,163,163,ALT_HOLD,0,0,0,NaN,NaN,NaN,NaN,0,0,0,0,0,0,-147.030318,-53.7588000000003,0,0,0,1
6.3198195,163,163,ALT_HOLD,0,0,0,NaN,NaN,NaN,NaN,0,0,0,0,0,0,-147.567906,-53.8569000000003,0,0,0,1
6.3303569,164,164,ALT_HOLD,0,0,666,1000,1000,1000,1000,0,0,0,0,0,0,-148.106475,-53.9550000000003,0,0,0,1
6.3434656,164,164,ALT_HOLD,0,0,0,NaN,NaN,NaN,NaN,0,0,0,0,0,0,-148.646025,-54.0531000000003,0,0,0,1
6.3558956,164,164,ALT_HOLD,0,0,0,NaN,NaN,NaN,NaN,0,0,0,0,0,0,-149.186556,-54.1512000000003,0,0,0,1
6.366513,165,165,ALT_HOLD,0,0,667,1000,1000,1000,1000,0,0,0,0,0,0,-149.728068,-54.2493000000003,0,0,0,1
6.3796895,165,165,ALT_HOLD,0,0,0,NaN,NaN,NaN,NaN,0,0,0,0,0,0,-150.270561,-54.3474000000003,0,0,0,1
6.3922462,165,165,ALT_HOLD,0,0,0,NaN,NaN,NaN,NaN,0,0,0,0,0,0,-150.814035,-54.4455000000004,0,0,0,1
6.404747,165,165,ALT_HOLD,0,0,0,NaN,NaN,NaN,NaN,0,0,0,0,0,0,-151.35849,-54.5436000000004,0,0,0,1
6.4081034,166,166,ALT_HOLD,0,0,668,1000,1000,1000,1000,0,0,0,0,0,0,-151.903926,-54.6417000000004,0,0,0,1
6.4220706,166,166,ALT_HOLD,0,0,0,NaN,NaN,NaN,NaN,0,0,0,0,0,0,-152.450343,-54.7398000000004,0,0,0,1
6.4343816,166,166,ALT_HOLD,0,0,0,NaN,NaN,NaN,NaN,0,0,0,0,0,0,-152.997741,-54.8379000000004,0,0,0,1
6.4424738,167,167,ALT_HOLD,0,0,669,1000,1000,1000,1000,0,0,0,0,0,0,-153.54612,-54.9360000000004,0,0,0,1
6.4557303,167,167,ALT_HOLD,0,0,0,NaN,NaN,NaN,NaN,0,0,0,0,0,0,-154.09548,-55.0341000000004,0,0,0,1
6.4682226,167,167,ALT_HOLD,0,0,0,NaN,NaN,NaN,NaN,0,0,0,0,0,0,-154.645821,-55.1322000000004,0,0,0,1
6.4805688,167,167,ALT_HOLD,0,0,0,NaN,NaN,NaN,NaN,0,0,0,0,0,0,-155.197143,-55.2303000000004,0,0,0,1
6.4837198,168,168,ALT_HOLD,0,0,670,1000,1000,1000,1000,0,0,0,0,0,0,-155.749446,-55.3284000000004,0,0,0,1
6.4966233,168,168,ALT_HOLD,0,0,0,NaN,NaN,NaN,NaN,0,0,0,0,0,0,-156.30273,-55.4265000000004,0,0,0,1
6.5091629,168,168,ALT_HOLD,0,0,0,NaN,NaN,NaN,NaN,0,0,0,0,0,0,-156.856995,-55.5246000000004,0,0,0,1
6.5168425,169,169,ALT_HOLD,0,0,671,1000,1000,1000,1000,0,0,0,0,0,0,-157.412241,-55.6227000000004,0,0,0,1
6.5302252,169,169,ALT_HOLD,0,0,0,NaN,NaN,NaN,NaN,0,0,0,0,0,0,-157.968468,-55.7208000000004,0,0,0,1
6.5427064,169,169,ALT_HOLD,0,0,0,NaN,NaN,NaN,NaN,0,0,0,0,0,0,-158.525676,-55.8189000000004,0,0,0,1
6.5500704,170,170,ALT_HOLD,0,0,672,1000,1000,1000,1000,0,0,0,0,0,0,-159.083865,-55.9170000000004,0,0,0,1
6.5640238,170,170,ALT_HOLD,0,0,0,NaN,NaN,NaN,NaN,0,0,0,0,0,0,-159.643035,-56.0151000000004,0,0,0,1
6.5763856,170,170,ALT_HOLD,0,0,0,NaN,NaN,NaN,NaN,0,0,0,0,0,0,-160.203186,-56.1132000000004,0,0,0,1
6.5846841,171,171,ALT_HOLD,0,0,673,1000,1000,1000,1000,0,0,0,0,0,0,-160.764318,-56.2113000000004,0,0,0,1
6.5984054,171,171,ALT_HOLD,0,0,0,NaN,NaN,NaN,NaN,0,0,0,0,0,0,-161.326431,-56.3094000000004,0,0,0,1
6.6109424,171,171,ALT_HOLD,0,0,0,NaN,NaN,NaN,NaN,0,0,0,0,0,0,-161.889525,-56.4075000000004,0,0,0,1
6.6234645,171,171,ALT_HOLD,0,0,0,NaN,NaN,NaN,NaN,0,0,0,0,0,0,-162.4536,-56.5056000000004,0,0,0,1
6.6359355,171,171,ALT_HOLD,0,0,0,NaN,NaN,NaN,NaN,0,0,0,0,0,0,-163.018656,-56.6037000000004,0,0,0,1
6.6482728,171,171,ALT_HOLD,0,0,0,NaN,NaN,NaN,NaN,0,0,0,0,0,0,-163.584693,-56.7018000000004,0,0,0,1
6.6596806,172,172,ALT_HOLD,0,0,674,1000,1000,1000,1000,0,0,0,0,0,0,-164.151711,-56.7999000000004,0,0,0,1
6.6732043,172,172,ALT_HOLD,0,0,0,NaN,NaN,NaN,NaN,0,0,0,0,0,0,-164.71971,-56.8980000000004,0,0,0,1
6.6858766,172,172,ALT_HOLD,0,0,0,NaN,NaN,NaN,NaN,0,0,0,0,0,0,-165.28869,-56.9961000000004,0,0,0,1
6.6928534,173,173,ALT_HOLD,0,0,675,1000,1000,1000,1000,0,0,0,0,0,0,-165.858651,-57.0942000000004,0,0,0,1
6.7063076,173,173,ALT_HOLD,0,0,0,NaN,NaN,NaN,NaN,0,0,0,0,0,0,-166.429593,-57.1923000000004,0,0,0,1
6.7188297,173,173,ALT_HOLD,0,0,0,NaN,NaN,NaN,NaN,0,0,0,0,0,0,-167.001516,-57.2904000000004,0,0,0,1
6.7311627,173,173,ALT_HOLD,0,0,0,NaN,NaN,NaN,NaN,0,0,0,0,0,0,-167.57442,-57.3885000000004,0,0,0,1
6.7341493,174,174,ALT_HOLD,0,0,676,1000,1000,1000,1000,0,0,0,0,0,0,-168.148305,-57.4866000000004,0,0,0,1
6.7476211,174,174,ALT_HOLD,0,0,0,NaN,NaN,NaN,NaN,0,0,0,0,0,0,-168.723171,-57.5847000000004,0,0,0,1
6.7600866,174,174,ALT_HOLD,0,0,0,NaN,NaN,NaN,NaN,0,0,0,0,0,0,-169.299018,-57.6828000000004,0,0,0,1
6.7674448,175,175,ALT_HOLD,0,0,677,1000,1000,1000,1000,0,0,0,0,0,0,-169.875846,-57.7809000000004,0,0,0,1
6.780924,175,175,ALT_HOLD,0,0,0,NaN,NaN,NaN,NaN,0,0,0,0,0,0,-170.453655,-57.8790000000004,0,0,0,1
6.7943154,175,175,ALT_HOLD,0,0,0,NaN,NaN,NaN,NaN,0,0,0,0,0,0,-171.032445,-57.9771000000004,0,0,0,1
6.8009732,176,176,ALT_HOLD,0,0,678,1000,1000,1000,1000,0,0,0,0,0,0,-171.612216,-58.0752000000004,0,0,0,1
6.8151929,176,176,ALT_HOLD,0,0,0,NaN,NaN,NaN,NaN,0,0,0,0,0,0,-172.192968,-58.1733000000004,0,0,0,1
6.8282932,176,176,ALT_HOLD,0,0,0,NaN,NaN,NaN,NaN,0,0,0,0,0,0,-172.774701,-58.2714000000004,0,0,0,1
6.8411077,176,176,ALT_HOLD,0,0,0,NaN,NaN,NaN,NaN,0,0,0,0,0,0,-173.357415,-58.3695000000004,0,0,0,1
6.8457285,177,177,ALT_HOLD,0,0,679,1000,1000,1000,1000,0,0,0,0,0,0,-173.94111,-58.4676000000004,0,0,0,1
6.8588324,177,177,ALT_HOLD,0,0,0,NaN,NaN,NaN,NaN,0,0,0,0,0,0,-174.525786,-58.5657000000004,0,0,0,1
6.8713248,177,177,ALT_HOLD,0,0,0,NaN,NaN,NaN,NaN,0,0,0,0,0,0,-175.111443,-58.6638000000004,0,0,0,1
6.8795683,178,178,ALT_HOLD,0,0,680,1000,1000,1000,1000,0,0,0,0,0,0,-175.698081,-58.7619000000005,0,0,0,1
6.8934422,178,178,ALT_HOLD,0,0,0,NaN,NaN,NaN,NaN,0,0,0,0,0,0,-176.2857,-58.8600000000005,0,0,0,1
6.9058782,178,178,ALT_HOLD,0,0,0,NaN,NaN,NaN,NaN,0,0,0,0,0,0,-176.8743,-58.9581000000005,0,0,0,1
6.9128993,179,179,ALT_HOLD,0,0,681,1000,1000,1000,1000,0,0,0,0,0,0,-177.463881,-59.0562000000005,0,0,0,1
6.9264973,179,179,ALT_HOLD,0,0,0,NaN,NaN,NaN,NaN,0,0,0,0,0,0,-178.054443,-59.1543000000005,0,0,0,1
6.9390348,179,179,ALT_HOLD,0,0,0,NaN,NaN,NaN,NaN,0,0,0,0,0,0,-178.645986,-59.2524000000005,0,0,0,1
6.9513047,179,179,ALT_HOLD,0,0,0,NaN,NaN,NaN,NaN,0,0,0,0,0,0,-179.23851,-59.3505000000005,0,0,0,1
6.963972,179,179,ALT_HOLD,0,0,0,NaN,NaN,NaN,NaN,0,0,0,0,0,0,-179.832015,-59.4486000000005,0,0,0,1
6.9762081,179,179,ALT_HOLD,0,0,0,NaN,NaN,NaN,NaN,0,0,0,0,0,0,-180.426501,-59.5467000000005,0,0,0,1
6.9890079,179,179,ALT_HOLD,0,0,0,NaN,NaN,NaN,NaN,0,0,0,0,0,0,-181.021968,-59.6448000000005,0,0,0,1
6.9915146,180,180,ALT_HOLD,0,0,682,1000,1000,1000,1000,0,0,0,0,0,0,-181.618416,-59.7429000000005,0,0,0,1
7.0056405,180,180,ALT_HOLD,0,0,0,NaN,NaN,NaN,NaN,0,0,0,0,0,0,-182.215845,-59.8410000000005,0,0,0,1
7.0178313,180,180,ALT_HOLD,0,0,0,NaN,NaN,NaN,NaN,0,0,0,0,0,0,-182.814255,-59.9391000000005,0,0,0,1
7.0263929,181,181,ALT_HOLD,0,0,683,1000,1000,1000,1000,0,0,0,0,0,0,-183.413646,-60.0372000000005,0,0,0,1
7.0397768,181,181,ALT_HOLD,0,0,0,NaN,NaN,NaN,NaN,0,0,0,0,0,0,-184.014018,-60.1353000000005,0,0,0,1
7.0529976,181,181,ALT_HOLD,0,0,0,NaN,NaN,NaN,NaN,0,0,0,0,0,0,-184.615371,-60.2334000000005,0,0,0,1
