time_s,valid_rx_count,response_tx_count,mode,armed,frame_count,pwm_1_us,pwm_2_us,pwm_3_us,pwm_4_us,motor_1_radps,motor_2_radps,motor_3_radps,motor_4_radps,total_thrust_N,total_thrust_to_weight,altitude_m,vertical_speed_up_mps,roll_rad,pitch_rad,yaw_rad,quat_norm
0.001549,0,0,,0,0,NaN,NaN,NaN,NaN,0,0,0,0,0,0,-0,-0.0981,0,0,0,1
0.0436188,0,0,,0,0,NaN,NaN,NaN,NaN,0,0,0,0,0,0,-0.000981,-0.1962,0,0,0,1
0.0593295,0,0,,0,0,NaN,NaN,NaN,NaN,0,0,0,0,0,0,-0.002943,-0.2943,0,0,0,1
0.0717088,1,1,,0,504,1000,1000,1000,1000,0,0,0,0,0,0,-0.005886,-0.3924,0,0,0,1
0.086532,1,1,STABILIZE,0,0,NaN,NaN,NaN,NaN,0,0,0,0,0,0,-0.00981,-0.4905,0,0,0,1
0.0991737,1,1,STABILIZE,0,0,NaN,NaN,NaN,NaN,0,0,0,0,0,0,-0.014715,-0.5886,0,0,0,1
0.108114,2,2,STABILIZE,0,505,1000,1000,1000,1000,0,0,0,0,0,0,-0.020601,-0.6867,0,0,0,1
0.1217822,2,2,STABILIZE,0,0,NaN,NaN,NaN,NaN,0,0,0,0,0,0,-0.027468,-0.7848,0,0,0,1
0.1353442,2,2,STABILIZE,0,0,NaN,NaN,NaN,NaN,0,0,0,0,0,0,-0.035316,-0.8829,0,0,0,1
0.1420603,3,3,STABILIZE,0,506,1000,1000,1000,1000,0,0,0,0,0,0,-0.044145,-0.981,0,0,0,1
0.1548912,3,3,STABILIZE,0,0,NaN,NaN,NaN,NaN,0,0,0,0,0,0,-0.053955,-1.0791,0,0,0,1
0.1671116,3,3,STABILIZE,0,0,NaN,NaN,NaN,NaN,0,0,0,0,0,0,-0.064746,-1.1772,0,0,0,1
0.1768301,4,4,STABILIZE,0,507,1000,1000,1000,1000,0,0,0,0,0,0,-0.076518,-1.2753,0,0,0,1
0.1899351,4,4,STABILIZE,0,0,NaN,NaN,NaN,NaN,0,0,0,0,0,0,-0.089271,-1.3734,0,0,0,1
0.2022692,4,4,STABILIZE,0,0,NaN,NaN,NaN,NaN,0,0,0,0,0,0,-0.103005,-1.4715,0,0,0,1
0.2110481,5,5,STABILIZE,0,508,1000,1000,1000,1000,0,0,0,0,0,0,-0.11772,-1.5696,0,0,0,1
0.2251675,5,5,STABILIZE,0,0,NaN,NaN,NaN,NaN,0,0,0,0,0,0,-0.133416,-1.6677,0,0,0,1
0.2378208,5,5,STABILIZE,0,0,NaN,NaN,NaN,NaN,0,0,0,0,0,0,-0.150093,-1.7658,0,0,0,1
0.2504456,5,5,STABILIZE,0,0,NaN,NaN,NaN,NaN,0,0,0,0,0,0,-0.167751,-1.8639,0,0,0,1
0.2559814,6,6,STABILIZE,0,509,1000,1000,1000,1000,0,0,0,0,0,0,-0.18639,-1.962,0,0,0,1
0.2702994,6,6,STABILIZE,0,0,NaN,NaN,NaN,NaN,0,0,0,0,0,0,-0.20601,-2.0601,0,0,0,1
0.282836,6,6,STABILIZE,0,0,NaN,NaN,NaN,NaN,0,0,0,0,0,0,-0.226611,-2.1582,0,0,0,1
0.2941216,7,7,STABILIZE,0,510,1000,1000,1000,1000,0,0,0,0,0,0,-0.248193,-2.2563,0,0,0,1
0.3070162,7,7,STABILIZE,0,0,NaN,NaN,NaN,NaN,0,0,0,0,0,0,-0.270756,-2.3544,0,0,0,1
0.3195388,7,7,STABILIZE,0,0,NaN,NaN,NaN,NaN,0,0,0,0,0,0,-0.2943,-2.4525,0,0,0,1
0.3276801,8,8,STABILIZE,0,511,1000,1000,1000,1000,0,0,0,0,0,0,-0.318825,-2.5506,0,0,0,1
0.3411517,8,8,STABILIZE,0,0,NaN,NaN,NaN,NaN,0,0,0,0,0,0,-0.344331,-2.6487,0,0,0,1
0.3539775,8,8,STABILIZE,0,0,NaN,NaN,NaN,NaN,0,0,0,0,0,0,-0.370818,-2.7468,0,0,0,1
0.3618628,9,9,STABILIZE,0,512,1000,1000,1000,1000,0,0,0,0,0,0,-0.398286,-2.8449,0,0,0,1
0.3753057,9,9,STABILIZE,0,0,NaN,NaN,NaN,NaN,0,0,0,0,0,0,-0.426735,-2.943,0,0,0,1
0.3877408,9,9,STABILIZE,0,0,NaN,NaN,NaN,NaN,0,0,0,0,0,0,-0.456165,-3.0411,0,0,0,1
0.3946642,10,10,STABILIZE,0,513,1000,1000,1000,1000,0,0,0,0,0,0,-0.486576,-3.1392,0,0,0,1
0.4078546,10,10,STABILIZE,0,0,NaN,NaN,NaN,NaN,0,0,0,0,0,0,-0.517968,-3.2373,0,0,0,1
0.4201014,10,10,STABILIZE,0,0,NaN,NaN,NaN,NaN,0,0,0,0,0,0,-0.550341,-3.3354,0,0,0,1
0.4285079,11,11,STABILIZE,0,514,1000,1000,1000,1000,0,0,0,0,0,0,-0.583695,-3.4335,0,0,0,1
0.4418075,11,11,STABILIZE,0,0,NaN,NaN,NaN,NaN,0,0,0,0,0,0,-0.61803,-3.5316,0,0,0,1
0.454553,11,11,STABILIZE,0,0,NaN,NaN,NaN,NaN,0,0,0,0,0,0,-0.653346,-3.6297,0,0,0,1
0.464609,12,12,STABILIZE,0,515,1000,1000,1000,1000,0,0,0,0,0,0,-0.689643,-3.7278,0,0,0,1
0.4782068,12,12,STABILIZE,0,0,NaN,NaN,NaN,NaN,0,0,0,0,0,0,-0.726921,-3.8259,0,0,0,1
0.4912278,12,12,STABILIZE,0,0,NaN,NaN,NaN,NaN,0,0,0,0,0,0,-0.76518,-3.924,0,0,0,1
0.4979212,13,13,STABILIZE,0,516,1000,1000,1000,1000,0,0,0,0,0,0,-0.80442,-4.0221,0,0,0,1
0.5122193,13,13,STABILIZE,0,0,NaN,NaN,NaN,NaN,0,0,0,0,0,0,-0.844641,-4.1202,0,0,0,1
0.524801,13,13,STABILIZE,0,0,NaN,NaN,NaN,NaN,0,0,0,0,0,0,-0.885843,-4.2183,0,0,0,1
0.5311269,14,14,STABILIZE,0,517,1000,1000,1000,1000,0,0,0,0,0,0,-0.928026,-4.3164,0,0,0,1
0.5443033,14,14,STABILIZE,0,0,NaN,NaN,NaN,NaN,0,0,0,0,0,0,-0.97119,-4.4145,0,0,0,1
0.5567865,14,14,STABILIZE,0,0,NaN,NaN,NaN,NaN,0,0,0,0,0,0,-1.015335,-4.5126,0,0,0,1
0.5644999,15,15,STABILIZE,0,518,1000,1000,1000,1000,0,0,0,0,0,0,-1.060461,-4.6107,0,0,0,1
0.5773231,15,15,STABILIZE,0,0,NaN,NaN,NaN,NaN,0,0,0,0,0,0,-1.106568,-4.7088,0,0,0,1
0.5899228,15,15,STABILIZE,0,0,NaN,NaN,NaN,NaN,0,0,0,0,0,0,-1.153656,-4.8069,0,0,0,1
0.6021514,16,16,STABILIZE,0,519,1000,1000,1000,1000,0,0,0,0,0,0,-1.201725,-4.905,0,0,0,1
0.6160455,16,16,STABILIZE,0,0,NaN,NaN,NaN,NaN,0,0,0,0,0,0,-1.250775,-5.0031,0,0,0,1
0.6285596,16,16,STABILIZE,0,0,NaN,NaN,NaN,NaN,0,0,0,0,0,0,-1.300806,-5.1012,0,0,0,1
0.6354133,17,17,STABILIZE,0,520,1000,1000,1000,1000,0,0,0,0,0,0,-1.351818,-5.1993,0,0,0,1
0.6486449,17,17,GUIDED,0,0,NaN,NaN,NaN,NaN,0,0,0,0,0,0,-1.403811,-5.2974,0,0,0,1
0.6611538,17,17,GUIDED,0,0,NaN,NaN,NaN,NaN,0,0,0,0,0,0,-1.456785,-5.3955,0,0,0,1
0.6693124,18,18,GUIDED,0,521,1000,1000,1000,1000,0,0,0,0,0,0,-1.51074,-5.4936,0,0,0,1
0.6824698,18,18,GUIDED,0,0,NaN,NaN,NaN,NaN,0,0,0,0,0,0,-1.565676,-5.5917,0,0,0,1
0.6949672,18,18,GUIDED,0,0,NaN,NaN,NaN,NaN,0,0,0,0,0,0,-1.621593,-5.6898,0,0,0,1
0.7074787,18,18,GUIDED,0,0,NaN,NaN,NaN,NaN,0,0,0,0,0,0,-1.678491,-5.7879,0,0,0,1
0.7203769,18,18,GUIDED,0,0,NaN,NaN,NaN,NaN,0,0,0,0,0,0,-1.73637,-5.88599999999999,0,0,0,1
0.732744,18,18,GUIDED,0,0,NaN,NaN,NaN,NaN,0,0,0,0,0,0,-1.79523,-5.98409999999999,0,0,0,1
0.7437905,19,19,GUIDED,0,522,1000,1000,1000,1000,0,0,0,0,0,0,-1.855071,-6.08219999999999,0,0,0,1
0.7569676,19,19,GUIDED,0,0,NaN,NaN,NaN,NaN,0,0,0,0,0,0,-1.915893,-6.18029999999999,0,0,0,1
0.7693586,19,19,GUIDED,0,0,NaN,NaN,NaN,NaN,0,0,0,0,0,0,-1.977696,-6.27839999999999,0,0,0,1
0.7782382,20,20,GUIDED,0,523,1000,1000,1000,1000,0,0,0,0,0,0,-2.04048,-6.37649999999999,0,0,0,1
0.7912165,20,20,GUIDED,0,0,NaN,NaN,NaN,NaN,0,0,0,0,0,0,-2.104245,-6.47459999999999,0,0,0,1
0.8035867,20,20,GUIDED,0,0,NaN,NaN,NaN,NaN,0,0,0,0,0,0,-2.168991,-6.57269999999999,0,0,0,1
0.8159804,20,20,GUIDED,0,0,NaN,NaN,NaN,NaN,0,0,0,0,0,0,-2.234718,-6.67079999999999,0,0,0,1
0.8189934,21,21,GUIDED,0,524,1000,1000,1000,1000,0,0,0,0,0,0,-2.301426,-6.76889999999999,0,0,0,1
0.8333424,21,21,GUIDED,0,0,NaN,NaN,NaN,NaN,0,0,0,0,0,0,-2.369115,-6.86699999999999,0,0,0,1
0.8458401,21,21,GUIDED,0,0,NaN,NaN,NaN,NaN,0,0,0,0,0,0,-2.437785,-6.96509999999999,0,0,0,1
0.8535348,22,22,GUIDED,0,525,1000,1000,1000,1000,0,0,0,0,0,0,-2.507436,-7.06319999999999,0,0,0,1
0.8668397,22,22,GUIDED,0,0,NaN,NaN,NaN,NaN,0,0,0,0,0,0,-2.578068,-7.16129999999999,0,0,0,1
0.8794467,22,22,GUIDED,0,0,NaN,NaN,NaN,NaN,0,0,0,0,0,0,-2.649681,-7.25939999999999,0,0,0,1
0.8897473,23,23,GUIDED,0,526,1000,1000,1000,1000,0,0,0,0,0,0,-2.722275,-7.35749999999999,0,0,0,1
0.9034469,23,23,GUIDED,0,0,NaN,NaN,NaN,NaN,0,0,0,0,0,0,-2.79585,-7.45559999999999,0,0,0,1
0.9161454,23,23,GUIDED,0,0,NaN,NaN,NaN,NaN,0,0,0,0,0,0,-2.870406,-7.55369999999999,0,0,0,1
0.9265619,24,24,GUIDED,0,527,1000,1000,1000,1000,0,0,0,0,0,0,-2.945943,-7.65179999999999,0,0,0,1
0.9397663,24,24,GUIDED,0,0,NaN,NaN,NaN,NaN,0,0,0,0,0,0,-3.022461,-7.74989999999999,0,0,0,1
0.9529885,24,24,GUIDED,0,0,NaN,NaN,NaN,NaN,0,0,0,0,0,0,-3.09996,-7.84799999999999,0,0,0,1
0.9610576,25,25,GUIDED,0,528,1000,1000,1000,1000,0,0,0,0,0,0,-3.17844,-7.94609999999999,0,0,0,1
0.9748521,25,25,GUIDED,0,0,NaN,NaN,NaN,NaN,0,0,0,0,0,0,-3.257901,-8.04419999999999,0,0,0,1
0.9876313,25,25,GUIDED,0,0,NaN,NaN,NaN,NaN,0,0,0,0,0,0,-3.338343,-8.14229999999999,0,0,0,1
0.9946513,26,26,GUIDED,0,529,1000,1000,1000,1000,0,0,0,0,0,0,-3.419766,-8.24039999999999,0,0,0,1
1.0079096,26,26,GUIDED,0,0,NaN,NaN,NaN,NaN,0,0,0,0,0,0,-3.50217,-8.33849999999999,0,0,0,1
1.020459,26,26,GUIDED,0,0,NaN,NaN,NaN,NaN,0,0,0,0,0,0,-3.585555,-8.43659999999999,0,0,0,1
1.0330703,26,26,GUIDED,0,0,NaN,NaN,NaN,NaN,0,0,0,0,0,0,-3.669921,-8.53469999999999,0,0,0,1
1.0397341,27,27,GUIDED,0,530,1000,1000,1000,1000,0,0,0,0,0,0,-3.755268,-8.63279999999999,0,0,0,1
1.053786,27,27,GUIDED,0,0,NaN,NaN,NaN,NaN,0,0,0,0,0,0,-3.841596,-8.73089999999999,0,0,0,1
1.06667,27,27,GUIDED,0,0,NaN,NaN,NaN,NaN,0,0,0,0,0,0,-3.928905,-8.82899999999999,0,0,0,1
1.0744583,28,28,GUIDED,0,531,1000,1000,1000,1000,0,0,0,0,0,0,-4.017195,-8.92709999999999,0,0,0,1
1.0879717,28,28,GUIDED,0,0,NaN,NaN,NaN,NaN,0,0,0,0,0,0,-4.106466,-9.02519999999999,0,0,0,1
1.1004744,28,28,GUIDED,0,0,NaN,NaN,NaN,NaN,0,0,0,0,0,0,-4.196718,-9.12329999999999,0,0,0,1
1.1077717,29,29,GUIDED,0,532,1000,1000,1000,1000,0,0,0,0,0,0,-4.287951,-9.22139999999999,0,0,0,1
1.1216244,29,29,GUIDED,0,0,NaN,NaN,NaN,NaN,0,0,0,0,0,0,-4.380165,-9.31949999999999,0,0,0,1
1.1340875,29,29,GUIDED,0,0,NaN,NaN,NaN,NaN,0,0,0,0,0,0,-4.47336,-9.41759999999999,0,0,0,1
1.1467175,30,30,GUIDED,0,533,1000,1000,1000,1000,0,0,0,0,0,0,-4.567536,-9.5157,0,0,0,1
1.1595065,30,30,GUIDED,0,0,NaN,NaN,NaN,NaN,0,0,0,0,0,0,-4.662693,-9.6138,0,0,0,1
1.1720116,30,30,GUIDED,0,0,NaN,NaN,NaN,NaN,0,0,0,0,0,0,-4.758831,-9.7119,0,0,0,1
1.1820884,31,31,GUIDED,0,534,1000,1000,1000,1000,0,0,0,0,0,0,-4.85595,-9.81,0,0,0,1
1.1955645,31,31,GUIDED,0,0,NaN,NaN,NaN,NaN,0,0,0,0,0,0,-4.95405,-9.9081,0,0,0,1
1.2090956,31,31,GUIDED,0,0,NaN,NaN,NaN,NaN,0,0,0,0,0,0,-5.053131,-10.0062,0,0,0,1
1.2154006,32,32,GUIDED,0,535,1000,1000,1000,1000,0,0,0,0,0,0,-5.153193,-10.1043,0,0,0,1
1.2284358,32,32,GUIDED,0,0,NaN,NaN,NaN,NaN,0,0,0,0,0,0,-5.254236,-10.2024,0,0,0,1
1.2409006,32,32,GUIDED,0,0,NaN,NaN,NaN,NaN,0,0,0,0,0,0,-5.35626,-10.3005,0,0,0,1
1.2533482,32,32,GUIDED,0,0,NaN,NaN,NaN,NaN,0,0,0,0,0,0,-5.459265,-10.3986,0,0,0,1
1.265852,32,32,GUIDED,0,0,NaN,NaN,NaN,NaN,0,0,0,0,0,0,-5.563251,-10.4967,0,0,0,1
1.2786872,32,32,GUIDED,0,0,NaN,NaN,NaN,NaN,0,0,0,0,0,0,-5.668218,-10.5948,0,0,0,1
1.2914065,32,32,GUIDED,0,0,NaN,NaN,NaN,NaN,0,0,0,0,0,0,-5.774166,-10.6929,0,0,0,1
1.2942075,33,33,GUIDED,0,536,1000,1000,1000,1000,0,0,0,0,0,0,-5.881095,-10.791,0,0,0,1
1.307657,33,33,GUIDED,0,0,NaN,NaN,NaN,NaN,0,0,0,0,0,0,-5.989005,-10.8891,0,0,0,1
1.3201497,33,33,GUIDED,0,0,NaN,NaN,NaN,NaN,0,0,0,0,0,0,-6.097896,-10.9872,0,0,0,1
1.3278222,34,34,GUIDED,0,537,1000,1000,1000,1000,0,0,0,0,0,0,-6.207768,-11.0853,0,0,0,1
1.3409289,34,34,GUIDED,0,0,NaN,NaN,NaN,NaN,0,0,0,0,0,0,-6.318621,-11.1834,0,0,0,1
1.3537825,34,34,GUIDED,0,0,NaN,NaN,NaN,NaN,0,0,0,0,0,0,-6.430455,-11.2815,0,0,0,1
1.3676648,34,34,GUIDED,0,0,NaN,NaN,NaN,NaN,0,0,0,0,0,0,-6.54327,-11.3796,0,0,0,1
1.3818614,34,34,GUIDED,0,0,NaN,NaN,NaN,NaN,0,0,0,0,0,0,-6.657066,-11.4777,0,0,0,1
1.3948482,34,34,GUIDED,0,0,NaN,NaN,NaN,NaN,0,0,0,0,0,0,-6.771843,-11.5758,0,0,0,1
1.4029007,35,35,GUIDED,0,538,1000,1000,1000,1000,0,0,0,0,0,0,-6.887601,-11.6739,0,0,0,1
1.4162552,35,35,GUIDED,0,0,NaN,NaN,NaN,NaN,0,0,0,0,0,0,-7.00434,-11.772,0,0,0,1
1.4287958,35,35,GUIDED,0,0,NaN,NaN,NaN,NaN,0,0,0,0,0,0,-7.12206,-11.8701,0,0,0,1
1.4372735,36,36,GUIDED,0,539,1000,1000,1000,1000,0,0,0,0,0,0,-7.240761,-11.9682,0,0,0,1
1.4508672,36,36,GUIDED,0,0,NaN,NaN,NaN,NaN,0,0,0,0,0,0,-7.360443,-12.0663,0,0,0,1
1.464716,36,36,GUIDED,0,0,NaN,NaN,NaN,NaN,0,0,0,0,0,0,-7.481106,-12.1644,0,0,0,1
1.4738365,37,37,GUIDED,0,540,1000,1000,1000,1000,0,0,0,0,0,0,-7.60275,-12.2625,0,0,0,1
1.4878709,37,37,GUIDED,0,0,NaN,NaN,NaN,NaN,0,0,0,0,0,0,-7.725375,-12.3606,0,0,0,1
1.5010198,37,37,GUIDED,0,0,NaN,NaN,NaN,NaN,0,0,0,0,0,0,-7.848981,-12.4587,0,0,0,1
1.5072077,38,38,GUIDED,0,541,1000,1000,1000,1000,0,0,0,0,0,0,-7.973568,-12.5568,0,0,0,1
1.520628,38,38,GUIDED,0,0,NaN,NaN,NaN,NaN,0,0,0,0,0,0,-8.099136,-12.6549,0,0,0,1
1.5331532,38,38,GUIDED,0,0,NaN,NaN,NaN,NaN,0,0,0,0,0,0,-8.225685,-12.753,0,0,0,1
1.544081,39,39,GUIDED,0,542,1000,1000,1000,1000,0,0,0,0,0,0,-8.353215,-12.8511,0,0,0,1
1.5580939,39,39,GUIDED,0,0,NaN,NaN,NaN,NaN,0,0,0,0,0,0,-8.481726,-12.9492,0,0,0,1
1.5704105,39,39,GUIDED,0,0,NaN,NaN,NaN,NaN,0,0,0,0,0,0,-8.611218,-13.0473,0,0,0,1
1.5834088,39,39,GUIDED,0,0,NaN,NaN,NaN,NaN,0,0,0,0,0,0,-8.741691,-13.1454,0,0,0,1
1.5959876,39,39,GUIDED,0,0,NaN,NaN,NaN,NaN,0,0,0,0,0,0,-8.873145,-13.2435,0,0,0,1
1.6083837,39,39,GUIDED,0,0,NaN,NaN,NaN,NaN,0,0,0,0,0,0,-9.00558,-13.3416,0,0,0,1
1.6186779,40,40,GUIDED,0,543,1000,1000,1000,1000,0,0,0,0,0,0,-9.138996,-13.4397,0,0,0,1
1.6325071,40,40,GUIDED,0,0,NaN,NaN,NaN,NaN,0,0,0,0,0,0,-9.273393,-13.5378,0,0,0,1
1.6453055,40,40,GUIDED,0,0,NaN,NaN,NaN,NaN,0,0,0,0,0,0,-9.408771,-13.6359,0,0,0,1
1.6525923,41,41,GUIDED,0,544,1000,1000,1000,1000,0,0,0,0,0,0,-9.54513,-13.734,0,0,0,1
1.6660606,41,41,GUIDED,0,0,NaN,NaN,NaN,NaN,0,0,0,0,0,0,-9.68247,-13.8321,0,0,0,1
1.6786808,41,41,GUIDED,0,0,NaN,NaN,NaN,NaN,0,0,0,0,0,0,-9.820791,-13.9302,0,0,0,1
1.6911723,41,41,GUIDED,0,0,NaN,NaN,NaN,NaN,0,0,0,0,0,0,-9.960093,-14.0283,0,0,0,1
1.703717,41,41,GUIDED,0,0,NaN,NaN,NaN,NaN,0,0,0,0,0,0,-10.100376,-14.1264,0,0,0,1
1.7165016,41,41,GUIDED,0,0,NaN,NaN,NaN,NaN,0,0,0,0,0,0,-10.24164,-14.2245,0,0,0,1
1.7270718,42,42,GUIDED,0,545,1000,1000,1000,1000,0,0,0,0,0,0,-10.383885,-14.3226,0,0,0,1
1.740213,42,42,GUIDED,0,0,NaN,NaN,NaN,NaN,0,0,0,0,0,0,-10.527111,-14.4207,0,0,0,1
1.7528509,42,42,GUIDED,0,0,NaN,NaN,NaN,NaN,0,0,0,0,0,0,-10.671318,-14.5188,0,0,0,1
1.7606567,43,43,GUIDED,0,546,1000,1000,1000,1000,0,0,0,0,0,0,-10.816506,-14.6169,0,0,0,1
1.7745315,43,43,GUIDED,0,0,NaN,NaN,NaN,NaN,0,0,0,0,0,0,-10.962675,-14.715,0,0,0,1
1.7879193,43,43,GUIDED,0,0,NaN,NaN,NaN,NaN,0,0,0,0,0,0,-11.109825,-14.8131,0,0,0,1
1.8006383,43,43,GUIDED,0,0,NaN,NaN,NaN,NaN,0,0,0,0,0,0,-11.257956,-14.9112,0,0,0,1
1.8133876,43,43,GUIDED,0,0,NaN,NaN,NaN,NaN,0,0,0,0,0,0,-11.407068,-15.0093,0,0,0,1
1.8261253,43,43,GUIDED,0,0,NaN,NaN,NaN,NaN,0,0,0,0,0,0,-11.557161,-15.1074,0,0,0,1
1.8357798,44,44,GUIDED,0,547,1000,1000,1000,1000,0,0,0,0,0,0,-11.708235,-15.2055,0,0,0,1
1.8495103,44,44,GUIDED,0,0,NaN,NaN,NaN,NaN,0,0,0,0,0,0,-11.86029,-15.3036,0,0,0,1
1.8620117,44,44,GUIDED,0,0,NaN,NaN,NaN,NaN,0,0,0,0,0,0,-12.013326,-15.4017,0,0,0,1
1.8697319,45,45,GUIDED,0,548,1000,1000,1000,1000,0,0,0,0,0,0,-12.167343,-15.4998,0,0,0,1
1.8827713,45,45,GUIDED,0,0,NaN,NaN,NaN,NaN,0,0,0,0,0,0,-12.322341,-15.5979,0,0,0,1
1.8951802,45,45,GUIDED,0,0,NaN,NaN,NaN,NaN,0,0,0,0,0,0,-12.47832,-15.696,0,0,0,1
1.9080651,45,45,GUIDED,0,0,NaN,NaN,NaN,NaN,0,0,0,0,0,0,-12.63528,-15.7941,0,0,0,1
1.9147044,46,46,GUIDED,0,549,1000,1000,1000,1000,0,0,0,0,0,0,-12.793221,-15.8922,0,0,0,1
1.9281265,46,46,GUIDED,0,0,NaN,NaN,NaN,NaN,0,0,0,0,0,0,-12.952143,-15.9903,0,0,0,1
1.9413679,46,46,GUIDED,0,0,NaN,NaN,NaN,NaN,0,0,0,0,0,0,-13.112046,-16.0884,0,0,0,1
1.9486647,47,47,GUIDED,0,550,1000,1000,1000,1000,0,0,0,0,0,0,-13.27293,-16.1865,0,0,0,1
1.9614901,47,47,GUIDED,0,0,NaN,NaN,NaN,NaN,0,0,0,0,0,0,-13.434795,-16.2846,0,0,0,1
1.9739936,47,47,GUIDED,0,0,NaN,NaN,NaN,NaN,0,0,0,0,0,0,-13.597641,-16.3827,0,0,0,1
1.9822843,48,48,GUIDED,0,551,1000,1000,1000,1000,0,0,0,0,0,0,-13.761468,-16.4808,0,0,0,1
1.9954322,48,48,GUIDED,0,0,NaN,NaN,NaN,NaN,0,0,0,0,0,0,-13.926276,-16.5789,0,0,0,1
2.0078059,48,48,GUIDED,0,0,NaN,NaN,NaN,NaN,0,0,0,0,0,0,-14.092065,-16.677,0,0,0,1
2.0190525,49,49,GUIDED,0,552,1000,1000,1000,1000,0,0,0,0,0,0,-14.258835,-16.7751,0,0,0,1
2.0325762,49,49,GUIDED,0,0,NaN,NaN,NaN,NaN,0,0,0,0,0,0,-14.426586,-16.8732,0,0,0,1
2.0449444,49,49,GUIDED,0,0,NaN,NaN,NaN,NaN,0,0,0,0,0,0,-14.595318,-16.9713,0,0,0,1
2.0570279,50,50,GUIDED,0,553,1000,1000,1000,1000,0,0,0,0,0,0,-14.765031,-17.0694,0,0,0,1
2.0703048,50,50,GUIDED,0,0,NaN,NaN,NaN,NaN,0,0,0,0,0,0,-14.935725,-17.1675,0,0,0,1
2.0827661,50,50,GUIDED,0,0,NaN,NaN,NaN,NaN,0,0,0,0,0,0,-15.1074,-17.2656,0,0,0,1
2.0907735,51,51,GUIDED,0,554,1000,1000,1000,1000,0,0,0,0,0,0,-15.280056,-17.3637,0,0,0,1
2.1038199,51,51,GUIDED,0,0,NaN,NaN,NaN,NaN,0,0,0,0,0,0,-15.453693,-17.4618,0,0,0,1
2.1162904,51,51,GUIDED,0,0,NaN,NaN,NaN,NaN,0,0,0,0,0,0,-15.628311,-17.5599,0,0,0,1
2.1274354,52,52,GUIDED,0,555,1000,1000,1000,1000,0,0,0,0,0,0,-15.80391,-17.658,0,0,0,1
2.140406,52,52,GUIDED,0,0,NaN,NaN,NaN,NaN,0,0,0,0,0,0,-15.98049,-17.7561,0,0,0,1
2.1528173,52,52,GUIDED,0,0,NaN,NaN,NaN,NaN,0,0,0,0,0,0,-16.158051,-17.8542,0,0,0,1
2.1653082,52,52,GUIDED,0,0,NaN,NaN,NaN,NaN,0,0,0,0,0,0,-16.336593,-17.9523,0,0,0,1
2.1731444,53,53,GUIDED,0,556,1000,1000,1000,1000,0,0,0,0,0,0,-16.516116,-18.0504,0,0,0,1
2.1865626,53,53,GUIDED,0,0,NaN,NaN,NaN,NaN,0,0,0,0,0,0,-16.69662,-18.1485,0,0,0,1
2.1992367,53,53,GUIDED,0,0,NaN,NaN,NaN,NaN,0,0,0,0,0,0,-16.878105,-18.2466,0,0,0,1
2.2110754,54,54,GUIDED,0,557,1000,1000,1000,1000,0,0,0,0,0,0,-17.060571,-18.3447,0,0,0,1
2.2242587,54,54,GUIDED,0,0,NaN,NaN,NaN,NaN,0,0,0,0,0,0,-17.244018,-18.4428,0,0,0,1
2.2369872,54,54,GUIDED,0,0,NaN,NaN,NaN,NaN,0,0,0,0,0,0,-17.428446,-18.5409,0,0,0,1
2.2447784,55,55,GUIDED,0,558,1000,1000,1000,1000,0,0,0,0,0,0,-17.613855,-18.639,0,0,0,1
2.2579196,55,55,GUIDED,0,0,NaN,NaN,NaN,NaN,0,0,0,0,0,0,-17.800245,-18.7371,0,0,0,1
2.2708133,55,55,GUIDED,0,0,NaN,NaN,NaN,NaN,0,0,0,0,0,0,-17.987616,-18.8352,0,0,0,1
2.2776652,56,56,GUIDED,0,559,1000,1000,1000,1000,0,0,0,0,0,0,-18.175968,-18.9333,0,0,0,1
2.2903802,56,56,GUIDED,0,0,NaN,NaN,NaN,NaN,0,0,0,0,0,0,-18.365301,-19.0314,0,0,0,1
2.3031028,56,56,GUIDED,0,0,NaN,NaN,NaN,NaN,0,0,0,0,0,0,-18.555615,-19.1295,0,0,0,1
2.311857,57,57,GUIDED,0,560,1000,1000,1000,1000,0,0,0,0,0,0,-18.74691,-19.2276,0,0,0,1
2.3251707,57,57,GUIDED,0,0,NaN,NaN,NaN,NaN,0,0,0,0,0,0,-18.939186,-19.3257,0,0,0,1
2.3380168,57,57,GUIDED,0,0,NaN,NaN,NaN,NaN,0,0,0,0,0,0,-19.132443,-19.4238,0,0,0,1
2.3504372,57,57,GUIDED,0,0,NaN,NaN,NaN,NaN,0,0,0,0,0,0,-19.326681,-19.5219,0,0,0,1
2.3634466,57,57,GUIDED,0,0,NaN,NaN,NaN,NaN,0,0,0,0,0,0,-19.5219,-19.62,0,0,0,1
2.3759219,57,57,GUIDED,0,0,NaN,NaN,NaN,NaN,0,0,0,0,0,0,-19.7181,-19.7181,0,0,0,1
2.3855513,58,58,GUIDED,0,561,1000,1000,1000,1000,0,0,0,0,0,0,-19.915281,-19.8162,0,0,0,1
2.4002194,58,58,GUIDED,0,0,NaN,NaN,NaN,NaN,0,0,0,0,0,0,-20.113443,-19.9143,0,0,0,1
2.4131757,58,58,GUIDED,0,0,NaN,NaN,NaN,NaN,0,0,0,0,0,0,-20.312586,-20.0124,0,0,0,1
2.4192401,59,59,GUIDED,0,562,1000,1000,1000,1000,0,0,0,0,0,0,-20.51271,-20.1105,0,0,0,1
2.4323921,59,59,GUIDED,0,0,NaN,NaN,NaN,NaN,0,0,0,0,0,0,-20.713815,-20.2086,0,0,0,1
2.444754,59,59,GUIDED,0,0,NaN,NaN,NaN,NaN,0,0,0,0,0,0,-20.915901,-20.3067,0,0,0,1
2.4575215,59,59,GUIDED,0,0,NaN,NaN,NaN,NaN,0,0,0,0,0,0,-21.118968,-20.4048,0,0,0,1
2.4605352,60,60,GUIDED,0,563,1000,1000,1000,1000,0,0,0,0,0,0,-21.323016,-20.5029,0,0,0,1
2.475004,60,60,GUIDED,0,0,NaN,NaN,NaN,NaN,0,0,0,0,0,0,-21.528045,-20.601,0,0,0,1
2.4876586,60,60,GUIDED,0,0,NaN,NaN,NaN,NaN,0,0,0,0,0,0,-21.734055,-20.6991,0,0,0,1
2.4949805,61,61,GUIDED,0,564,1000,1000,1000,1000,0,0,0,0,0,0,-21.941046,-20.7972,0,0,0,1
2.5081356,61,61,GUIDED,0,0,NaN,NaN,NaN,NaN,0,0,0,0,0,0,-22.149018,-20.8953,0,0,0,1
2.5209096,61,61,GUIDED,0,0,NaN,NaN,NaN,NaN,0,0,0,0,0,0,-22.357971,-20.9934,0,0,0,1
2.5279136,62,62,GUIDED,0,565,1000,1000,1000,1000,0,0,0,0,0,0,-22.567905,-21.0915,0,0,0,1
2.5418127,62,62,GUIDED,0,0,NaN,NaN,NaN,NaN,0,0,0,0,0,0,-22.77882,-21.1896,0,0,0,1
2.5543971,62,62,GUIDED,0,0,NaN,NaN,NaN,NaN,0,0,0,0,0,0,-22.990716,-21.2877,0,0,0,1
2.5667646,62,62,GUIDED,0,0,NaN,NaN,NaN,NaN,0,0,0,0,0,0,-23.203593,-21.3858,0,0,0,1
2.5794844,62,62,GUIDED,0,0,NaN,NaN,NaN,NaN,0,0,0,0,0,0,-23.417451,-21.4839,0,0,0,1
2.5919934,62,62,GUIDED,0,0,NaN,NaN,NaN,NaN,0,0,0,0,0,0,-23.63229,-21.582,0,0,0,1
2.6020677,63,63,GUIDED,0,566,1000,1000,1000,1000,0,0,0,0,0,0,-23.84811,-21.6801,0,0,0,1
2.6158339,63,63,GUIDED,0,0,NaN,NaN,NaN,NaN,0,0,0,0,0,0,-24.064911,-21.7782,0,0,0,1
2.6285403,63,63,GUIDED,0,0,NaN,NaN,NaN,NaN,0,0,0,0,0,0,-24.282693,-21.8763,0,0,0,1
2.6354466,64,64,GUIDED,0,567,1000,1000,1000,1000,0,0,0,0,0,0,-24.501456,-21.9744,0,0,0,1
2.6491212,64,64,GUIDED,0,0,NaN,NaN,NaN,NaN,0,0,0,0,0,0,-24.7212,-22.0725,0,0,0,1
2.6615418,64,64,GUIDED,0,0,NaN,NaN,NaN,NaN,0,0,0,0,0,0,-24.941925,-22.1706,0,0,0,1
2.6740692,64,64,GUIDED,0,0,NaN,NaN,NaN,NaN,0,0,0,0,0,0,-25.163631,-22.2686999999999,0,0,0,1
2.6773326,65,65,GUIDED,0,568,1000,1000,1000,1000,0,0,0,0,0,0,-25.386318,-22.3667999999999,0,0,0,1
2.691163,65,65,GUIDED,0,0,NaN,NaN,NaN,NaN,0,0,0,0,0,0,-25.609986,-22.4648999999999,0,0,0,1
2.7036341,65,65,GUIDED,0,0,NaN,NaN,NaN,NaN,0,0,0,0,0,0,-25.834635,-22.5629999999999,0,0,0,1
2.7116245,66,66,GUIDED,0,569,1000,1000,1000,1000,0,0,0,0,0,0,-26.060265,-22.6610999999999,0,0,0,1
2.7260998,66,66,GUIDED,0,0,NaN,NaN,NaN,NaN,0,0,0,0,0,0,-26.286876,-22.7591999999999,0,0,0,1
2.7398891,66,66,GUIDED,0,0,NaN,NaN,NaN,NaN,0,0,0,0,0,0,-26.514468,-22.8572999999999,0,0,0,1
2.7449959,67,67,GUIDED,0,570,1000,1000,1000,1000,0,0,0,0,0,0,-26.743041,-22.9553999999999,0,0,0,1
2.7579939,67,67,GUIDED,0,0,NaN,NaN,NaN,NaN,0,0,0,0,0,0,-26.972595,-23.0534999999999,0,0,0,1
2.7706493,67,67,GUIDED,0,0,NaN,NaN,NaN,NaN,0,0,0,0,0,0,-27.20313,-23.1515999999999,0,0,0,1
2.783417,67,67,GUIDED,0,0,NaN,NaN,NaN,NaN,0,0,0,0,0,0,-27.434646,-23.2496999999999,0,0,0,1
2.7895253,68,68,GUIDED,0,571,1000,1000,1000,1000,0,0,0,0,0,0,-27.667143,-23.3477999999999,0,0,0,1
2.8035414,68,68,GUIDED,0,0,NaN,NaN,NaN,NaN,0,0,0,0,0,0,-27.900621,-23.4458999999999,0,0,0,1
2.8163266,68,68,GUIDED,0,0,NaN,NaN,NaN,NaN,0,0,0,0,0,0,-28.13508,-23.5439999999999,0,0,0,1
2.8230904,69,69,GUIDED,0,572,1000,1000,1000,1000,0,0,0,0,0,0,-28.37052,-23.6420999999999,0,0,0,1
2.836252,69,69,GUIDED,0,0,NaN,NaN,NaN,NaN,0,0,0,0,0,0,-28.606941,-23.7401999999999,0,0,0,1
2.848638,69,69,GUIDED,0,0,NaN,NaN,NaN,NaN,0,0,0,0,0,0,-28.844343,-23.8382999999999,0,0,0,1
2.8562461,70,70,GUIDED,0,573,1000,1000,1000,1000,0,0,0,0,0,0,-29.082726,-23.9363999999999,0,0,0,1
2.8697288,70,70,GUIDED,0,0,NaN,NaN,NaN,NaN,0,0,0,0,0,0,-29.32209,-24.0344999999999,0,0,0,1
2.8823952,70,70,GUIDED,0,0,NaN,NaN,NaN,NaN,0,0,0,0,0,0,-29.562435,-24.1325999999999,0,0,0,1
2.8949693,70,70,GUIDED,0,0,NaN,NaN,NaN,NaN,0,0,0,0,0,0,-29.803761,-24.2306999999999,0,0,0,1
2.9075106,70,70,GUIDED,0,0,NaN,NaN,NaN,NaN,0,0,0,0,0,0,-30.046068,-24.3287999999999,0,0,0,1
2.9198931,70,70,GUIDED,0,0,NaN,NaN,NaN,NaN,0,0,0,0,0,0,-30.289356,-24.4268999999999,0,0,0,1
2.9311693,71,71,GUIDED,0,574,1000,1000,1000,1000,0,0,0,0,0,0,-30.533625,-24.5249999999999,0,0,0,1
2.9442737,71,71,GUIDED,0,0,NaN,NaN,NaN,NaN,0,0,0,0,0,0,-30.778875,-24.6230999999999,0,0,0,1
2.9567832,71,71,GUIDED,0,0,NaN,NaN,NaN,NaN,0,0,0,0,0,0,-31.025106,-24.7211999999999,0,0,0,1
2.964925,72,72,GUIDED,0,575,1000,1000,1000,1000,0,0,0,0,0,0,-31.272318,-24.8192999999999,0,0,0,1
2.97845,72,72,GUIDED,0,0,NaN,NaN,NaN,NaN,0,0,0,0,0,0,-31.520511,-24.9173999999999,0,0,0,1
2.9909187,72,72,GUIDED,0,0,NaN,NaN,NaN,NaN,0,0,0,0,0,0,-31.769685,-25.0154999999999,0,0,0,1
3.0032257,72,72,GUIDED,0,0,NaN,NaN,NaN,NaN,0,0,0,0,0,0,-32.01984,-25.1135999999999,0,0,0,1
3.0158285,72,72,GUIDED,0,0,NaN,NaN,NaN,NaN,0,0,0,0,0,0,-32.270976,-25.2116999999999,0,0,0,1
3.028373,72,72,GUIDED,0,0,NaN,NaN,NaN,NaN,0,0,0,0,0,0,-32.523093,-25.3097999999999,0,0,0,1
3.0395445,73,73,GUIDED,0,576,1000,1000,1000,1000,0,0,0,0,0,0,-32.776191,-25.4078999999999,0,0,0,1
3.0540456,73,73,GUIDED,0,0,NaN,NaN,NaN,NaN,0,0,0,0,0,0,-33.03027,-25.5059999999999,0,0,0,1
3.0668608,73,73,GUIDED,0,0,NaN,NaN,NaN,NaN,0,0,0,0,0,0,-33.28533,-25.6040999999999,0,0,0,1
3.0785244,74,74,GUIDED,0,577,1000,1000,1000,1000,0,0,0,0,0,0,-33.541371,-25.7021999999999,0,0,0,1
3.0923126,74,74,GUIDED,0,0,NaN,NaN,NaN,NaN,0,0,0,0,0,0,-33.798393,-25.8002999999999,0,0,0,1
3.1052783,74,74,GUIDED,0,0,NaN,NaN,NaN,NaN,0,0,0,0,0,0,-34.056396,-25.8983999999999,0,0,0,1
3.1128287,75,75,GUIDED,0,578,1000,1000,1000,1000,0,0,0,0,0,0,-34.31538,-25.9964999999999,0,0,0,1
3.1257461,75,75,GUIDED,0,0,NaN,NaN,NaN,NaN,0,0,0,0,0,0,-34.575345,-26.0945999999999,0,0,0,1
3.1382212,75,75,GUIDED,0,0,NaN,NaN,NaN,NaN,0,0,0,0,0,0,-34.836291,-26.1926999999999,0,0,0,1
3.1513915,75,75,GUIDED,0,0,NaN,NaN,NaN,NaN,0,0,0,0,0,0,-35.098218,-26.2907999999999,0,0,0,1
3.1605603,76,76,GUIDED,0,579,1000,1000,1000,1000,0,0,0,0,0,0,-35.361126,-26.3888999999999,0,0,0,1
3.1738703,76,76,GUIDED,0,0,NaN,NaN,NaN,NaN,0,0,0,0,0,0,-35.625015,-26.4869999999999,0,0,0,1
3.1865857,76,76,GUIDED,0,0,NaN,NaN,NaN,NaN,0,0,0,0,0,0,-35.889885,-26.5850999999999,0,0,0,1
3.194612,77,77,GUIDED,0,580,1000,1000,1000,1000,0,0,0,0,0,0,-36.155736,-26.6831999999999,0,0,0,1
3.2077964,77,77,GUIDED,0,0,NaN,NaN,NaN,NaN,0,0,0,0,0,0,-36.422568,-26.7812999999999,0,0,0,1
3.2210812,77,77,GUIDED,0,0,NaN,NaN,NaN,NaN,0,0,0,0,0,0,-36.690381,-26.8793999999999,0,0,0,1
3.2289924,78,78,GUIDED,0,581,1000,1000,1000,1000,0,0,0,0,0,0,-36.959175,-26.9774999999999,0,0,0,1
3.2423035,78,78,GUIDED,0,0,NaN,NaN,NaN,NaN,0,0,0,0,0,0,-37.22895,-27.0755999999999,0,0,0,1
3.254991,78,78,GUIDED,0,0,NaN,NaN,NaN,NaN,0,0,0,0,0,0,-37.499706,-27.1736999999999,0,0,0,1
3.2621158,79,79,GUIDED,0,582,1000,1000,1000,1000,0,0,0,0,0,0,-37.771443,-27.2717999999999,0,0,0,1
3.2754889,79,79,GUIDED,0,0,NaN,NaN,NaN,NaN,0,0,0,0,0,0,-38.044161,-27.3698999999999,0,0,0,1
3.2881409,79,79,GUIDED,0,0,NaN,NaN,NaN,NaN,0,0,0,0,0,0,-38.31786,-27.4679999999999,0,0,0,1
3.2984268,80,80,GUIDED,0,583,1000,1000,1000,1000,0,0,0,0,0,0,-38.59254,-27.5660999999999,0,0,0,1
3.3114765,80,80,GUIDED,0,0,NaN,NaN,NaN,NaN,0,0,0,0,0,0,-38.868201,-27.6641999999999,0,0,0,1
3.3238555,80,80,GUIDED,0,0,NaN,NaN,NaN,NaN,0,0,0,0,0,0,-39.144843,-27.7622999999999,0,0,0,1
3.3348244,81,81,GUIDED,0,584,1000,1000,1000,1000,0,0,0,0,0,0,-39.422466,-27.8603999999999,0,0,0,1
3.348937,81,81,GUIDED,0,0,NaN,NaN,NaN,NaN,0,0,0,0,0,0,-39.70107,-27.9584999999999,0,0,0,1
3.3612898,81,81,GUIDED,0,0,NaN,NaN,NaN,NaN,0,0,0,0,0,0,-39.9806549999999,-28.0565999999999,0,0,0,1
3.3699774,82,82,GUIDED,0,585,1000,1000,1000,1000,0,0,0,0,0,0,-40.2612209999999,-28.1546999999999,0,0,0,1
3.3832239,82,82,GUIDED,0,0,NaN,NaN,NaN,NaN,0,0,0,0,0,0,-40.5427679999999,-28.2527999999999,0,0,0,1
3.3959234,82,82,GUIDED,0,0,NaN,NaN,NaN,NaN,0,0,0,0,0,0,-40.8252959999999,-28.3508999999999,0,0,0,1
3.4030402,83,83,GUIDED,0,586,1000,1000,1000,1000,0,0,0,0,0,0,-41.1088049999999,-28.4489999999999,0,0,0,1
3.416155,83,83,GUIDED,0,0,NaN,NaN,NaN,NaN,0,0,0,0,0,0,-41.3932949999999,-28.5470999999999,0,0,0,1
3.4286731,83,83,GUIDED,0,0,NaN,NaN,NaN,NaN,0,0,0,0,0,0,-41.6787659999999,-28.6451999999999,0,0,0,1
3.4410347,83,83,GUIDED,0,0,NaN,NaN,NaN,NaN,0,0,0,0,0,0,-41.9652179999999,-28.7432999999999,0,0,0,1
3.4536337,83,83,GUIDED,0,0,NaN,NaN,NaN,NaN,0,0,0,0,0,0,-42.2526509999999,-28.8413999999999,0,0,0,1
3.46644,83,83,GUIDED,0,0,NaN,NaN,NaN,NaN,0,0,0,0,0,0,-42.5410649999999,-28.9394999999999,0,0,0,1
3.4773873,84,84,GUIDED,0,587,1000,1000,1000,1000,0,0,0,0,0,0,-42.8304599999999,-29.0375999999999,0,0,0,1
3.4917425,84,84,GUIDED,0,0,NaN,NaN,NaN,NaN,0,0,0,0,0,0,-43.1208359999999,-29.1356999999999,0,0,0,1
3.5040712,84,84,GUIDED,0,0,NaN,NaN,NaN,NaN,0,0,0,0,0,0,-43.4121929999999,-29.2337999999999,0,0,0,1
3.5114631,85,85,GUIDED,0,588,1000,1000,1000,1000,0,0,0,0,0,0,-43.7045309999999,-29.3318999999999,0,0,0,1
3.5257451,85,85,GUIDED,0,0,NaN,NaN,NaN,NaN,0,0,0,0,0,0,-43.9978499999999,-29.4299999999999,0,0,0,1
3.5384192,85,85,GUIDED,0,0,NaN,NaN,NaN,NaN,0,0,0,0,0,0,-44.2921499999999,-29.5280999999999,0,0,0,1
3.5508535,85,85,GUIDED,0,0,NaN,NaN,NaN,NaN,0,0,0,0,0,0,-44.5874309999999,-29.6261999999999,0,0,0,1
3.5643915,85,85,GUIDED,0,0,NaN,NaN,NaN,NaN,0,0,0,0,0,0,-44.8836929999999,-29.7242999999999,0,0,0,1
3.5768897,85,85,GUIDED,0,0,NaN,NaN,NaN,NaN,0,0,0,0,0,0,-45.1809359999999,-29.8223999999999,0,0,0,1
3.5862504,86,86,GUIDED,0,589,1000,1000,1000,1000,0,0,0,0,0,0,-45.4791599999999,-29.9204999999999,0,0,0,1
3.5996803,86,86,GUIDED,0,0,NaN,NaN,NaN,NaN,0,0,0,0,0,0,-45.7783649999999,-30.0185999999999,0,0,0,1
3.6129824,86,86,GUIDED,0,0,NaN,NaN,NaN,NaN,0,0,0,0,0,0,-46.0785509999999,-30.1166999999998,0,0,0,1
3.6198703,87,87,GUIDED,0,590,1000,1000,1000,1000,0,0,0,0,0,0,-46.3797179999999,-30.2147999999998,0,0,0,1
3.6343304,87,87,GUIDED,0,0,NaN,NaN,NaN,NaN,0,0,0,0,0,0,-46.6818659999999,-30.3128999999998,0,0,0,1
3.6469507,87,87,GUIDED,0,0,NaN,NaN,NaN,NaN,0,0,0,0,0,0,-46.9849949999999,-30.4109999999998,0,0,0,1
3.6593923,87,87,GUIDED,0,0,NaN,NaN,NaN,NaN,0,0,0,0,0,0,-47.2891049999999,-30.5090999999998,0,0,0,1
3.6653876,88,88,GUIDED,0,591,1000,1000,1000,1000,0,0,0,0,0,0,-47.5941959999999,-30.6071999999998,0,0,0,1
3.6795519,88,88,GUIDED,0,0,NaN,NaN,NaN,NaN,0,0,0,0,0,0,-47.9002679999999,-30.7052999999998,0,0,0,1
3.6924658,88,88,GUIDED,0,0,NaN,NaN,NaN,NaN,0,0,0,0,0,0,-48.2073209999999,-30.8033999999998,0,0,0,1
3.6978199,89,89,GUIDED,0,592,1000,1000,1000,1000,0,0,0,0,0,0,-48.5153549999999,-30.9014999999998,0,0,0,1
3.7113608,89,89,GUIDED,0,0,NaN,NaN,NaN,NaN,0,0,0,0,0,0,-48.8243699999999,-30.9995999999998,0,0,0,1
3.7238293,89,89,GUIDED,0,0,NaN,NaN,NaN,NaN,0,0,0,0,0,0,-49.1343659999999,-31.0976999999998,0,0,0,1
3.7327378,90,90,GUIDED,0,593,1000,1000,1000,1000,0,0,0,0,0,0,-49.4453429999999,-31.1957999999998,0,0,0,1
3.745872,90,90,GUIDED,0,0,NaN,NaN,NaN,NaN,0,0,0,0,0,0,-49.7573009999999,-31.2938999999998,0,0,0,1
3.7585502,90,90,GUIDED,0,0,NaN,NaN,NaN,NaN,0,0,0,0,0,0,-50.0702399999999,-31.3919999999998,0,0,0,1
3.7713505,90,90,GUIDED,0,0,NaN,NaN,NaN,NaN,0,0,0,0,0,0,-50.3841599999999,-31.4900999999998,0,0,0,1
3.7841206,90,90,GUIDED,0,0,NaN,NaN,NaN,NaN,0,0,0,0,0,0,-50.6990609999999,-31.5881999999998,0,0,0,1
3.7964923,90,90,GUIDED,0,0,NaN,NaN,NaN,NaN,0,0,0,0,0,0,-51.0149429999999,-31.6862999999998,0,0,0,1
3.8065494,91,91,GUIDED,0,594,1000,1000,1000,1000,0,0,0,0,0,0,-51.3318059999999,-31.7843999999998,0,0,0,1
3.8207417,91,91,GUIDED,0,0,NaN,NaN,NaN,NaN,0,0,0,0,0,0,-51.6496499999999,-31.8824999999998,0,0,0,1
3.8332647,91,91,GUIDED,0,0,NaN,NaN,NaN,NaN,0,0,0,0,0,0,-51.9684749999999,-31.9805999999998,0,0,0,1
3.8400571,92,92,GUIDED,0,595,1000,1000,1000,1000,0,0,0,0,0,0,-52.2882809999999,-32.0786999999998,0,0,0,1
3.8529227,92,92,GUIDED,0,0,NaN,NaN,NaN,NaN,0,0,0,0,0,0,-52.6090679999999,-32.1767999999998,0,0,0,1
3.8653285,92,92,GUIDED,0,0,NaN,NaN,NaN,NaN,0,0,0,0,0,0,-52.9308359999999,-32.2748999999998,0,0,0,1
3.8780047,92,92,GUIDED,0,0,NaN,NaN,NaN,NaN,0,0,0,0,0,0,-53.2535849999999,-32.3729999999998,0,0,0,1
3.8812259,93,93,GUIDED,0,596,1000,1000,1000,1000,0,0,0,0,0,0,-53.5773149999999,-32.4710999999998,0,0,0,1
3.8948481,93,93,GUIDED,0,0,NaN,NaN,NaN,NaN,0,0,0,0,0,0,-53.9020259999999,-32.5691999999998,0,0,0,1
3.9073247,93,93,GUIDED,0,0,NaN,NaN,NaN,NaN,0,0,0,0,0,0,-54.2277179999999,-32.6672999999998,0,0,0,1
3.9190643,94,94,GUIDED,0,597,1000,1000,1000,1000,0,0,0,0,0,0,-54.5543909999999,-32.7653999999998,0,0,0,1
3.9338978,94,94,GUIDED,0,0,NaN,NaN,NaN,NaN,0,0,0,0,0,0,-54.8820449999999,-32.8634999999998,0,0,0,1
3.9468949,94,94,GUIDED,0,0,NaN,NaN,NaN,NaN,0,0,0,0,0,0,-55.2106799999999,-32.9615999999998,0,0,0,1
3.9529233,95,95,GUIDED,0,598,1000,1000,1000,1000,0,0,0,0,0,0,-55.5402959999999,-33.0596999999999,0,0,0,1
3.9662474,95,95,GUIDED,0,0,NaN,NaN,NaN,NaN,0,0,0,0,0,0,-55.8708929999999,-33.1577999999999,0,0,0,1
3.9787814,95,95,GUIDED,0,0,NaN,NaN,NaN,NaN,0,0,0,0,0,0,-56.2024709999999,-33.2558999999999,0,0,0,1
3.9890802,96,96,GUIDED,0,599,1000,1000,1000,1000,0,0,0,0,0,0,-56.5350299999999,-33.3539999999999,0,0,0,1
4.0028754,96,96,GUIDED,0,0,NaN,NaN,NaN,NaN,0,0,0,0,0,0,-56.8685699999999,-33.4520999999999,0,0,0,1
4.0154357,96,96,GUIDED,0,0,NaN,NaN,NaN,NaN,0,0,0,0,0,0,-57.2030909999999,-33.5501999999999,0,0,0,1
4.023982,97,97,GUIDED,0,600,1000,1000,1000,1000,0,0,0,0,0,0,-57.5385929999999,-33.6482999999999,0,0,0,1
4.037101,97,97,GUIDED,0,0,NaN,NaN,NaN,NaN,0,0,0,0,0,0,-57.8750759999999,-33.7463999999999,0,0,0,1
4.0494916,97,97,GUIDED,0,0,NaN,NaN,NaN,NaN,0,0,0,0,0,0,-58.2125399999999,-33.8444999999999,0,0,0,1
4.060569,98,98,GUIDED,0,601,1000,1000,1000,1000,0,0,0,0,0,0,-58.5509849999999,-33.9425999999999,0,0,0,1
4.0737774,98,98,GUIDED,0,0,NaN,NaN,NaN,NaN,0,0,0,0,0,0,-58.8904109999999,-34.0406999999999,0,0,0,1
4.0861812,98,98,GUIDED,0,0,NaN,NaN,NaN,NaN,0,0,0,0,0,0,-59.2308179999999,-34.1387999999999,0,0,0,1
4.0988035,98,98,GUIDED,0,0,NaN,NaN,NaN,NaN,0,0,0,0,0,0,-59.5722059999999,-34.2368999999999,0,0,0,1
4.1027368,99,99,GUIDED,0,602,1000,1000,1000,1000,0,0,0,0,0,0,-59.9145749999999,-34.3349999999999,0,0,0,1
4.1162556,99,99,GUIDED,0,0,NaN,NaN,NaN,NaN,0,0,0,0,0,0,-60.2579249999999,-34.4330999999999,0,0,0,1
4.1297919,99,99,GUIDED,0,0,NaN,NaN,NaN,NaN,0,0,0,0,0,0,-60.6022559999999,-34.5311999999999,0,0,0,1
4.1361114,100,100,GUIDED,0,603,1000,1000,1000,1000,0,0,0,0,0,0,-60.9475679999999,-34.6292999999999,0,0,0,1
4.1492391,100,100,GUIDED,0,0,NaN,NaN,NaN,NaN,0,0,0,0,0,0,-61.2938609999999,-34.7273999999999,0,0,0,1
4.161616,100,100,GUIDED,0,0,NaN,NaN,NaN,NaN,0,0,0,0,0,0,-61.6411349999998,-34.8254999999999,0,0,0,1
4.1733758,101,101,GUIDED,0,604,1000,1000,1000,1000,0,0,0,0,0,0,-61.9893899999999,-34.9235999999999,0,0,0,1
4.1863592,101,101,GUIDED,0,0,NaN,NaN,NaN,NaN,0,0,0,0,0,0,-62.3386259999998,-35.0216999999999,0,0,0,1
4.1991857,101,101,GUIDED,0,0,NaN,NaN,NaN,NaN,0,0,0,0,0,0,-62.6888429999998,-35.1197999999999,0,0,0,1
4.2106569,102,102,GUIDED,0,605,1000,1000,1000,1000,0,0,0,0,0,0,-63.0400409999998,-35.2178999999999,0,0,0,1
4.2238864,102,102,GUIDED,0,0,NaN,NaN,NaN,NaN,0,0,0,0,0,0,-63.3922199999998,-35.3159999999999,0,0,0,1
4.2363092,102,102,GUIDED,0,0,NaN,NaN,NaN,NaN,0,0,0,0,0,0,-63.7453799999998,-35.4140999999999,0,0,0,1
4.2452082,103,103,GUIDED,0,606,1000,1000,1000,1000,0,0,0,0,0,0,-64.0995209999998,-35.5121999999999,0,0,0,1
4.2582997,103,103,GUIDED,0,0,NaN,NaN,NaN,NaN,0,0,0,0,0,0,-64.4546429999998,-35.6102999999999,0,0,0,1
4.2708574,103,103,GUIDED,0,0,NaN,NaN,NaN,NaN,0,0,0,0,0,0,-64.8107459999998,-35.7083999999999,0,0,0,1
4.2814719,104,104,GUIDED,0,607,1000,1000,1000,1000,0,0,0,0,0,0,-65.1678299999998,-35.8064999999999,0,0,0,1
4.2944543,104,104,GUIDED,0,0,NaN,NaN,NaN,NaN,0,0,0,0,0,0,-65.5258949999998,-35.9045999999999,0,0,0,1
4.3068395,104,104,GUIDED,0,0,NaN,NaN,NaN,NaN,0,0,0,0,0,0,-65.8849409999998,-36.0026999999999,0,0,0,1
4.3172137,105,105,GUIDED,0,608,1000,1000,1000,1000,0,0,0,0,0,0,-66.2449679999998,-36.1007999999999,0,0,0,1
4.3318426,105,105,GUIDED,0,0,NaN,NaN,NaN,NaN,0,0,0,0,0,0,-66.6059759999998,-36.1988999999999,0,0,0,1
4.3447321,105,105,GUIDED,0,0,NaN,NaN,NaN,NaN,0,0,0,0,0,0,-66.9679649999998,-36.2969999999999,0,0,0,1
4.3530284,106,106,GUIDED,0,609,1000,1000,1000,1000,0,0,0,0,0,0,-67.3309349999998,-36.3950999999999,0,0,0,1
4.3665689,106,106,GUIDED,0,0,NaN,NaN,NaN,NaN,0,0,0,0,0,0,-67.6948859999998,-36.4931999999999,0,0,0,1
4.3791416,106,106,GUIDED,0,0,NaN,NaN,NaN,NaN,0,0,0,0,0,0,-68.0598179999998,-36.5912999999999,0,0,0,1
4.3866004,107,107,GUIDED,0,610,1000,1000,1000,1000,0,0,0,0,0,0,-68.4257309999998,-36.6893999999999,0,0,0,1
4.3998111,107,107,GUIDED,0,0,NaN,NaN,NaN,NaN,0,0,0,0,0,0,-68.7926249999998,-36.7874999999999,0,0,0,1
4.4124988,107,107,GUIDED,0,0,NaN,NaN,NaN,NaN,0,0,0,0,0,0,-69.1604999999998,-36.8855999999999,0,0,0,1
4.4250249,107,107,GUIDED,0,0,NaN,NaN,NaN,NaN,0,0,0,0,0,0,-69.5293559999998,-36.9836999999999,0,0,0,1
4.4376171,107,107,GUIDED,0,0,NaN,NaN,NaN,NaN,0,0,0,0,0,0,-69.8991929999998,-37.0817999999999,0,0,0,1
4.4501402,107,107,GUIDED,0,0,NaN,NaN,NaN,NaN,0,0,0,0,0,0,-70.2700109999998,-37.1798999999999,0,0,0,1
4.460854,108,108,GUIDED,0,611,1000,1000,1000,1000,0,0,0,0,0,0,-70.6418099999998,-37.2779999999999,0,0,0,1
4.4743943,108,108,GUIDED,0,0,NaN,NaN,NaN,NaN,0,0,0,0,0,0,-71.0145899999998,-37.3761,0,0,0,1
4.4867669,108,108,GUIDED,0,0,NaN,NaN,NaN,NaN,0,0,0,0,0,0,-71.3883509999998,-37.4742,0,0,0,1
4.4938049,109,109,GUIDED,0,612,1000,1000,1000,1000,0,0,0,0,0,0,-71.7630929999998,-37.5723,0,0,0,1
4.5068193,109,109,GUIDED,0,0,NaN,NaN,NaN,NaN,0,0,0,0,0,0,-72.1388159999998,-37.6704,0,0,0,1
4.5192572,109,109,GUIDED,0,0,NaN,NaN,NaN,NaN,0,0,0,0,0,0,-72.5155199999998,-37.7685,0,0,0,1
4.5317632,109,109,GUIDED,0,0,NaN,NaN,NaN,NaN,0,0,0,0,0,0,-72.8932049999998,-37.8666,0,0,0,1
4.5400922,110,110,GUIDED,0,613,1000,1000,1000,1000,0,0,0,0,0,0,-73.2718709999998,-37.9647,0,0,0,1
4.5543631,110,110,GUIDED,0,0,NaN,NaN,NaN,NaN,0,0,0,0,0,0,-73.6515179999998,-38.0628,0,0,0,1
4.5668282,110,110,GUIDED,0,0,NaN,NaN,NaN,NaN,0,0,0,0,0,0,-74.0321459999998,-38.1609,0,0,0,1
4.5738838,111,111,GUIDED,0,614,1000,1000,1000,1000,0,0,0,0,0,0,-74.4137549999998,-38.259,0,0,0,1
4.5882463,111,111,GUIDED,0,0,NaN,NaN,NaN,NaN,0,0,0,0,0,0,-74.7963449999998,-38.3571,0,0,0,1
4.6006353,111,111,GUIDED,0,0,NaN,NaN,NaN,NaN,0,0,0,0,0,0,-75.1799159999998,-38.4552,0,0,0,1
4.6081088,112,112,GUIDED,0,615,1000,1000,1000,1000,0,0,0,0,0,0,-75.5644679999998,-38.5533,0,0,0,1
4.6210653,112,112,GUIDED,0,0,NaN,NaN,NaN,NaN,0,0,0,0,0,0,-75.9500009999998,-38.6514,0,0,0,1
4.633658,112,112,GUIDED,0,0,NaN,NaN,NaN,NaN,0,0,0,0,0,0,-76.3365149999998,-38.7495,0,0,0,1
4.6465878,112,112,GUIDED,0,0,NaN,NaN,NaN,NaN,0,0,0,0,0,0,-76.7240099999998,-38.8476,0,0,0,1
4.6590051,112,112,GUIDED,0,0,NaN,NaN,NaN,NaN,0,0,0,0,0,0,-77.1124859999998,-38.9457,0,0,0,1
4.6728794,112,112,GUIDED,0,0,NaN,NaN,NaN,NaN,0,0,0,0,0,0,-77.5019429999998,-39.0438,0,0,0,1
4.6863359,113,113,GUIDED,0,616,1000,1000,1000,1000,0,0,0,0,0,0,-77.8923809999998,-39.1419,0,0,0,1
4.6994459,113,113,GUIDED,0,0,NaN,NaN,NaN,NaN,0,0,0,0,0,0,-78.2837999999998,-39.24,0,0,0,1
4.7117424,113,113,GUIDED,0,0,NaN,NaN,NaN,NaN,0,0,0,0,0,0,-78.6761999999998,-39.3381,0,0,0,1
4.7196479,114,114,GUIDED,0,617,1000,1000,1000,1000,0,0,0,0,0,0,-79.0695809999998,-39.4362,0,0,0,1
4.732744,114,114,GUIDED,0,0,NaN,NaN,NaN,NaN,0,0,0,0,0,0,-79.4639429999998,-39.5343,0,0,0,1
4.7451695,114,114,GUIDED,0,0,NaN,NaN,NaN,NaN,0,0,0,0,0,0,-79.8592859999998,-39.6324,0,0,0,1
4.7561553,115,115,GUIDED,0,618,1000,1000,1000,1000,0,0,0,0,0,0,-80.2556099999998,-39.7305,0,0,0,1
4.7691312,115,115,GUIDED,0,0,NaN,NaN,NaN,NaN,0,0,0,0,0,0,-80.6529149999998,-39.8286,0,0,0,1
4.781806,115,115,GUIDED,0,0,NaN,NaN,NaN,NaN,0,0,0,0,0,0,-81.0512009999998,-39.9267,0,0,0,1
4.7894317,116,116,GUIDED,0,619,1000,1000,1000,1000,0,0,0,0,0,0,-81.4504679999998,-40.0248,0,0,0,1
4.8026693,116,116,GUIDED,0,0,NaN,NaN,NaN,NaN,0,0,0,0,0,0,-81.8507159999998,-40.1229,0,0,0,1
4.8151809,116,116,GUIDED,0,0,NaN,NaN,NaN,NaN,0,0,0,0,0,0,-82.2519449999998,-40.221,0,0,0,1
4.8236731,117,117,GUIDED,0,620,1000,1000,1000,1000,0,0,0,0,0,0,-82.6541549999998,-40.3191,0,0,0,1
4.8367356,117,117,GUIDED,0,0,NaN,NaN,NaN,NaN,0,0,0,0,0,0,-83.0573459999998,-40.4172,0,0,0,1
4.8495144,117,117,GUIDED,0,0,NaN,NaN,NaN,NaN,0,0,0,0,0,0,-83.4615179999998,-40.5153,0,0,0,1
4.8619286,117,117,GUIDED,0,0,NaN,NaN,NaN,NaN,0,0,0,0,0,0,-83.8666709999998,-40.6134,0,0,0,1
4.864536,118,118,GUIDED,0,621,1000,1000,1000,1000,0,0,0,0,0,0,-84.2728049999998,-40.7115,0,0,0,1
4.8774745,118,118,GUIDED,0,0,NaN,NaN,NaN,NaN,0,0,0,0,0,0,-84.6799199999998,-40.8096,0,0,0,1
4.8902033,118,118,GUIDED,0,0,NaN,NaN,NaN,NaN,0,0,0,0,0,0,-85.0880159999998,-40.9077,0,0,0,1
4.8991461,119,119,GUIDED,0,622,1000,1000,1000,1000,0,0,0,0,0,0,-85.4970929999998,-41.0058,0,0,0,1
4.9120906,119,119,GUIDED,0,0,NaN,NaN,NaN,NaN,0,0,0,0,0,0,-85.9071509999998,-41.1039,0,0,0,1
4.9245938,119,119,GUIDED,0,0,NaN,NaN,NaN,NaN,0,0,0,0,0,0,-86.3181899999998,-41.202,0,0,0,1
4.9355322,120,120,GUIDED,0,623,1000,1000,1000,1000,0,0,0,0,0,0,-86.7302099999998,-41.3001,0,0,0,1
4.9485818,120,120,GUIDED,0,0,NaN,NaN,NaN,NaN,0,0,0,0,0,0,-87.1432109999998,-41.3982,0,0,0,1
4.9610317,120,120,GUIDED,0,0,NaN,NaN,NaN,NaN,0,0,0,0,0,0,-87.5571929999998,-41.4963,0,0,0,1
4.9734549,120,120,GUIDED,0,0,NaN,NaN,NaN,NaN,0,0,0,0,0,0,-87.9721559999998,-41.5944,0,0,0,1
4.9770865,121,121,GUIDED,0,624,1000,1000,1000,1000,0,0,0,0,0,0,-88.3880999999998,-41.6925000000001,0,0,0,1
4.9902444,121,121,GUIDED,0,0,NaN,NaN,NaN,NaN,0,0,0,0,0,0,-88.8050249999998,-41.7906000000001,0,0,0,1
5.0029865,121,121,GUIDED,0,0,NaN,NaN,NaN,NaN,0,0,0,0,0,0,-89.2229309999998,-41.8887000000001,0,0,0,1
5.0125066,122,122,GUIDED,0,625,1000,1000,1000,1000,0,0,0,0,0,0,-89.6418179999998,-41.9868000000001,0,0,0,1
5.0255155,122,122,GUIDED,0,0,NaN,NaN,NaN,NaN,0,0,0,0,0,0,-90.0616859999998,-42.0849000000001,0,0,0,1
5.0381153,122,122,GUIDED,0,0,NaN,NaN,NaN,NaN,0,0,0,0,0,0,-90.4825349999998,-42.1830000000001,0,0,0,1
5.048034,123,123,GUIDED,0,626,1000,1000,1000,1000,0,0,0,0,0,0,-90.9043649999998,-42.2811000000001,0,0,0,1
5.0611007,123,123,GUIDED,0,0,NaN,NaN,NaN,NaN,0,0,0,0,0,0,-91.3271759999998,-42.3792000000001,0,0,0,1
5.0735164,123,123,GUIDED,0,0,NaN,NaN,NaN,NaN,0,0,0,0,0,0,-91.7509679999998,-42.4773000000001,0,0,0,1
5.0857107,124,124,GUIDED,0,627,1000,1000,1000,1000,0,0,0,0,0,0,-92.1757409999998,-42.5754000000001,0,0,0,1
5.1011848,124,124,GUIDED,0,0,NaN,NaN,NaN,NaN,0,0,0,0,0,0,-92.6014949999998,-42.6735000000001,0,0,0,1
5.1154724,124,124,GUIDED,0,0,NaN,NaN,NaN,NaN,0,0,0,0,0,0,-93.0282299999998,-42.7716000000001,0,0,0,1
5.1283143,125,125,GUIDED,0,628,1000,1000,1000,1000,0,0,0,0,0,0,-93.4559459999998,-42.8697000000001,0,0,0,1
5.1424666,125,125,GUIDED,0,0,NaN,NaN,NaN,NaN,0,0,0,0,0,0,-93.8846429999998,-42.9678000000001,0,0,0,1
5.1548669,125,125,GUIDED,0,0,NaN,NaN,NaN,NaN,0,0,0,0,0,0,-94.3143209999998,-43.0659000000001,0,0,0,1
5.1671711,125,125,GUIDED,0,0,NaN,NaN,NaN,NaN,0,0,0,0,0,0,-94.7449799999998,-43.1640000000001,0,0,0,1
5.1709228,126,126,GUIDED,0,629,1000,1000,1000,1000,0,0,0,0,0,0,-95.1766199999998,-43.2621000000001,0,0,0,1
5.1841996,126,126,GUIDED,0,0,NaN,NaN,NaN,NaN,0,0,0,0,0,0,-95.6092409999998,-43.3602000000001,0,0,0,1
5.1965677,126,126,GUIDED,0,0,NaN,NaN,NaN,NaN,0,0,0,0,0,0,-96.0428429999998,-43.4583000000001,0,0,0,1
5.2088747,126,126,GUIDED,0,0,NaN,NaN,NaN,NaN,0,0,0,0,0,0,-96.4774259999999,-43.5564000000001,0,0,0,1
5.2219755,126,126,GUIDED,0,0,NaN,NaN,NaN,NaN,0,0,0,0,0,0,-96.9129899999999,-43.6545000000001,0,0,0,1
5.2356656,126,126,GUIDED,0,0,NaN,NaN,NaN,NaN,0,0,0,0,0,0,-97.3495349999998,-43.7526000000001,0,0,0,1
5.2455708,127,127,GUIDED,0,630,1000,1000,1000,1000,0,0,0,0,0,0,-97.7870609999999,-43.8507000000001,0,0,0,1
5.2585334,127,127,GUIDED,0,0,NaN,NaN,NaN,NaN,0,0,0,0,0,0,-98.2255679999999,-43.9488000000001,0,0,0,1
5.2713415,127,127,GUIDED,0,0,NaN,NaN,NaN,NaN,0,0,0,0,0,0,-98.6650559999999,-44.0469000000001,0,0,0,1
5.2786499,128,128,GUIDED,0,631,1000,1000,1000,1000,0,0,0,0,0,0,-99.1055249999999,-44.1450000000001,0,0,0,1
5.2923613,128,128,GUIDED,0,0,NaN,NaN,NaN,NaN,0,0,0,0,0,0,-99.5469749999999,-44.2431000000001,0,0,0,1
5.3048118,128,128,GUIDED,0,0,NaN,NaN,NaN,NaN,0,0,0,0,0,0,-99.9894059999999,-44.3412000000001,0,0,0,1
5.3157223,129,129,GUIDED,0,632,1000,1000,1000,1000,0,0,0,0,0,0,-100.432818,-44.4393000000001,0,0,0,1
5.3290818,129,129,GUIDED,0,0,NaN,NaN,NaN,NaN,0,0,0,0,0,0,-100.877211,-44.5374000000001,0,0,0,1
5.3417378,129,129,GUIDED,0,0,NaN,NaN,NaN,NaN,0,0,0,0,0,0,-101.322585,-44.6355000000001,0,0,0,1
5.3496406,130,130,GUIDED,0,633,1000,1000,1000,1000,0,0,0,0,0,0,-101.76894,-44.7336000000001,0,0,0,1
5.3628742,130,130,GUIDED,0,0,NaN,NaN,NaN,NaN,0,0,0,0,0,0,-102.216276,-44.8317000000001,0,0,0,1
5.3756755,130,130,GUIDED,0,0,NaN,NaN,NaN,NaN,0,0,0,0,0,0,-102.664593,-44.9298000000001,0,0,0,1
5.3869559,131,131,GUIDED,0,634,1000,1000,1000,1000,0,0,0,0,0,0,-103.113891,-45.0279000000001,0,0,0,1
5.4002388,131,131,GUIDED,0,0,NaN,NaN,NaN,NaN,0,0,0,0,0,0,-103.56417,-45.1260000000001,0,0,0,1
5.4130651,131,131,GUIDED,0,0,NaN,NaN,NaN,NaN,0,0,0,0,0,0,-104.01543,-45.2241000000001,0,0,0,1
5.4234461,132,132,GUIDED,0,635,1000,1000,1000,1000,0,0,0,0,0,0,-104.467671,-45.3222000000001,0,0,0,1
5.4365672,132,132,GUIDED,0,0,NaN,NaN,NaN,NaN,0,0,0,0,0,0,-104.920893,-45.4203000000001,0,0,0,1
5.4490472,132,132,GUIDED,0,0,NaN,NaN,NaN,NaN,0,0,0,0,0,0,-105.375096,-45.5184000000001,0,0,0,1
5.4604625,133,133,GUIDED,0,636,1000,1000,1000,1000,0,0,0,0,0,0,-105.83028,-45.6165000000001,0,0,0,1
5.4734316,133,133,GUIDED,0,0,NaN,NaN,NaN,NaN,0,0,0,0,0,0,-106.286445,-45.7146000000001,0,0,0,1
5.4861119,133,133,GUIDED,0,0,NaN,NaN,NaN,NaN,0,0,0,0,0,0,-106.743591,-45.8127000000001,0,0,0,1
5.4936887,134,134,GUIDED,0,637,1000,1000,1000,1000,0,0,0,0,0,0,-107.201718,-45.9108000000002,0,0,0,1
5.5067077,134,134,GUIDED,0,0,NaN,NaN,NaN,NaN,0,0,0,0,0,0,-107.660826,-46.0089000000002,0,0,0,1
5.5193627,134,134,GUIDED,0,0,NaN,NaN,NaN,NaN,0,0,0,0,0,0,-108.120915,-46.1070000000002,0,0,0,1
5.5270786,135,135,GUIDED,0,638,1000,1000,1000,1000,0,0,0,0,0,0,-108.581985,-46.2051000000002,0,0,0,1
5.5401521,135,135,GUIDED,0,0,NaN,NaN,NaN,NaN,0,0,0,0,0,0,-109.044036,-46.3032000000002,0,0,0,1
5.5525897,135,135,GUIDED,0,0,NaN,NaN,NaN,NaN,0,0,0,0,0,0,-109.507068,-46.4013000000002,0,0,0,1
5.5604131,136,136,GUIDED,0,639,1000,1000,1000,1000,0,0,0,0,0,0,-109.971081,-46.4994000000002,0,0,0,1
5.5737041,136,136,GUIDED,0,0,NaN,NaN,NaN,NaN,0,0,0,0,0,0,-110.436075,-46.5975000000002,0,0,0,1
5.5864323,136,136,GUIDED,0,0,NaN,NaN,NaN,NaN,0,0,0,0,0,0,-110.90205,-46.6956000000002,0,0,0,1
5.5940077,137,137,GUIDED,0,640,1000,1000,1000,1000,0,0,0,0,0,0,-111.369006,-46.7937000000002,0,0,0,1
5.6080893,137,137,GUIDED,0,0,NaN,NaN,NaN,NaN,0,0,0,0,0,0,-111.836943,-46.8918000000002,0,0,0,1
5.6211484,137,137,GUIDED,0,0,NaN,NaN,NaN,NaN,0,0,0,0,0,0,-112.305861,-46.9899000000002,0,0,0,1
5.6301317,138,138,GUIDED,0,641,1000,1000,1000,1000,0,0,0,0,0,0,-112.77576,-47.0880000000002,0,0,0,1
5.6432118,138,138,GUIDED,0,0,NaN,NaN,NaN,NaN,0,0,0,0,0,0,-113.24664,-47.1861000000002,0,0,0,1
5.6565302,138,138,GUIDED,0,0,NaN,NaN,NaN,NaN,0,0,0,0,0,0,-113.718501,-47.2842000000002,0,0,0,1
5.6695255,138,138,GUIDED,0,0,NaN,NaN,NaN,NaN,0,0,0,0,0,0,-114.191343,-47.3823000000002,0,0,0,1
5.6780616,139,139,GUIDED,0,642,1000,1000,1000,1000,0,0,0,0,0,0,-114.665166,-47.4804000000002,0,0,0,1
5.6910714,139,139,GUIDED,0,0,NaN,NaN,NaN,NaN,0,0,0,0,0,0,-115.13997,-47.5785000000002,0,0,0,1
5.7035091,139,139,GUIDED,0,0,NaN,NaN,NaN,NaN,0,0,0,0,0,0,-115.615755,-47.6766000000002,0,0,0,1
5.7159175,139,139,GUIDED,0,0,NaN,NaN,NaN,NaN,0,0,0,0,0,0,-116.092521,-47.7747000000002,0,0,0,1
5.7241648,140,140,GUIDED,0,643,1000,1000,1000,1000,0,0,0,0,0,0,-116.570268,-47.8728000000002,0,0,0,1
5.7378634,140,140,GUIDED,0,0,NaN,NaN,NaN,NaN,0,0,0,0,0,0,-117.048996,-47.9709000000002,0,0,0,1
5.7504308,140,140,GUIDED,0,0,NaN,NaN,NaN,NaN,0,0,0,0,0,0,-117.528705,-48.0690000000002,0,0,0,1
5.7615759,141,141,GUIDED,0,644,1000,1000,1000,1000,0,0,0,0,0,0,-118.009395,-48.1671000000002,0,0,0,1
5.7746224,141,141,GUIDED,0,0,NaN,NaN,NaN,NaN,0,0,0,0,0,0,-118.491066,-48.2652000000002,0,0,0,1
5.7870027,141,141,GUIDED,0,0,NaN,NaN,NaN,NaN,0,0,0,0,0,0,-118.973718,-48.3633000000002,0,0,0,1
5.7977618,142,142,GUIDED,0,645,1000,1000,1000,1000,0,0,0,0,0,0,-119.457351,-48.4614000000002,0,0,0,1
5.8110815,142,142,GUIDED,0,0,NaN,NaN,NaN,NaN,0,0,0,0,0,0,-119.941965,-48.5595000000002,0,0,0,1
5.8240386,142,142,GUIDED,0,0,NaN,NaN,NaN,NaN,0,0,0,0,0,0,-120.42756,-48.6576000000002,0,0,0,1
5.8315109,143,143,GUIDED,0,646,1000,1000,1000,1000,0,0,0,0,0,0,-120.914136,-48.7557000000002,0,0,0,1
5.8456184,143,143,GUIDED,0,0,NaN,NaN,NaN,NaN,0,0,0,0,0,0,-121.401693,-48.8538000000002,0,0,0,1
5.8580426,143,143,GUIDED,0,0,NaN,NaN,NaN,NaN,0,0,0,0,0,0,-121.890231,-48.9519000000002,0,0,0,1
5.8653638,144,144,GUIDED,0,647,1000,1000,1000,1000,0,0,0,0,0,0,-122.37975,-49.0500000000002,0,0,0,1
5.8788054,144,144,GUIDED,0,0,NaN,NaN,NaN,NaN,0,0,0,0,0,0,-122.87025,-49.1481000000002,0,0,0,1
5.892158,144,144,GUIDED,0,0,NaN,NaN,NaN,NaN,0,0,0,0,0,0,-123.361731,-49.2462000000002,0,0,0,1
5.8989236,145,145,GUIDED,0,648,1000,1000,1000,1000,0,0,0,0,0,0,-123.854193,-49.3443000000002,0,0,0,1
5.9127889,145,145,GUIDED,0,0,NaN,NaN,NaN,NaN,0,0,0,0,0,0,-124.347636,-49.4424000000002,0,0,0,1
5.9257896,145,145,GUIDED,0,0,NaN,NaN,NaN,NaN,0,0,0,0,0,0,-124.84206,-49.5405000000002,0,0,0,1
5.9324181,146,146,GUIDED,0,649,1000,1000,1000,1000,0,0,0,0,0,0,-125.337465,-49.6386000000002,0,0,0,1
5.9465765,146,146,GUIDED,0,0,NaN,NaN,NaN,NaN,0,0,0,0,0,0,-125.833851,-49.7367000000002,0,0,0,1
5.9589617,146,146,GUIDED,0,0,NaN,NaN,NaN,NaN,0,0,0,0,0,0,-126.331218,-49.8348000000002,0,0,0,1
5.9662836,147,147,GUIDED,0,650,1000,1000,1000,1000,0,0,0,0,0,0,-126.829566,-49.9329000000002,0,0,0,1
5.9796467,147,147,GUIDED,0,0,NaN,NaN,NaN,NaN,0,0,0,0,0,0,-127.328895,-50.0310000000002,0,0,0,1
5.9928121,147,147,GUIDED,0,0,NaN,NaN,NaN,NaN,0,0,0,0,0,0,-127.829205,-50.1291000000002,0,0,0,1
6.0030492,148,148,GUIDED,0,651,1000,1000,1000,1000,0,0,0,0,0,0,-128.330496,-50.2272000000003,0,0,0,1
6.0168469,148,148,GUIDED,0,0,NaN,NaN,NaN,NaN,0,0,0,0,0,0,-128.832768,-50.3253000000003,0,0,0,1
6.0290765,148,148,GUIDED,0,0,NaN,NaN,NaN,NaN,0,0,0,0,0,0,-129.336021,-50.4234000000003,0,0,0,1
6.037012,149,149,GUIDED,0,652,1000,1000,1000,1000,0,0,0,0,0,0,-129.840255,-50.5215000000003,0,0,0,1
6.0506058,149,149,GUIDED,0,0,NaN,NaN,NaN,NaN,0,0,0,0,0,0,-130.34547,-50.6196000000003,0,0,0,1
6.0630457,149,149,GUIDED,0,0,NaN,NaN,NaN,NaN,0,0,0,0,0,0,-130.851666,-50.7177000000003,0,0,0,1
6.0745743,150,150,GUIDED,0,653,1000,1000,1000,1000,0,0,0,0,0,0,-131.358843,-50.8158000000003,0,0,0,1
6.0878312,150,150,GUIDED,0,0,NaN,NaN,NaN,NaN,0,0,0,0,0,0,-131.867001,-50.9139000000003,0,0,0,1
6.100762,150,150,GUIDED,0,0,NaN,NaN,NaN,NaN,0,0,0,0,0,0,-132.37614,-51.0120000000003,0,0,0,1
6.1117856,151,151,GUIDED,0,654,1000,1000,1000,1000,0,0,0,0,0,0,-132.88626,-51.1101000000003,0,0,0,1
6.1253138,151,151,GUIDED,0,0,NaN,NaN,NaN,NaN,0,0,0,0,0,0,-133.397361,-51.2082000000003,0,0,0,1
6.1382181,151,151,GUIDED,0,0,NaN,NaN,NaN,NaN,0,0,0,0,0,0,-133.909443,-51.3063000000003,0,0,0,1
6.1481396,152,152,GUIDED,0,655,1000,1000,1000,1000,0,0,0,0,0,0,-134.422506,-51.4044000000003,0,0,0,1
6.1613582,152,152,GUIDED,0,0,NaN,NaN,NaN,NaN,0,0,0,0,0,0,-134.93655,-51.5025000000003,0,0,0,1
6.1744551,152,152,GUIDED,0,0,NaN,NaN,NaN,NaN,0,0,0,0,0,0,-135.451575,-51.6006000000003,0,0,0,1
6.1814237,153,153,GUIDED,0,656,1000,1000,1000,1000,0,0,0,0,0,0,-135.967581,-51.6987000000003,0,0,0,1
6.1950841,153,153,GUIDED,0,0,NaN,NaN,NaN,NaN,0,0,0,0,0,0,-136.484568,-51.7968000000003,0,0,0,1
6.207706,153,153,GUIDED,0,0,NaN,NaN,NaN,NaN,0,0,0,0,0,0,-137.002536,-51.8949000000003,0,0,0,1
6.2146946,154,154,GUIDED,0,657,1000,1000,1000,1000,0,0,0,0,0,0,-137.521485,-51.9930000000003,0,0,0,1
6.2288144,154,154,GUIDED,0,0,NaN,NaN,NaN,NaN,0,0,0,0,0,0,-138.041415,-52.0911000000003,0,0,0,1
6.2412805,154,154,GUIDED,0,0,NaN,NaN,NaN,NaN,0,0,0,0,0,0,-138.562326,-52.1892000000003,0,0,0,1
6.2478426,155,155,GUIDED,0,658,1000,1000,1000,1000,0,0,0,0,0,0,-139.084218,-52.2873000000003,0,0,0,1
6.2608285,155,155,GUIDED,0,0,NaN,NaN,NaN,NaN,0,0,0,0,0,0,-139.607091,-52.3854000000003,0,0,0,1
6.2733532,155,155,GUIDED,0,0,NaN,NaN,NaN,NaN,0,0,0,0,0,0,-140.130945,-52.4835000000003,0,0,0,1
6.285795,155,155,GUIDED,0,0,NaN,NaN,NaN,NaN,0,0,0,0,0,0,-140.65578,-52.5816000000003,0,0,0,1
6.289461,156,156,GUIDED,0,659,1000,1000,1000,1000,0,0,0,0,0,0,-141.181596,-52.6797000000003,0,0,0,1
6.3028748,156,156,GUIDED,0,0,NaN,NaN,NaN,NaN,0,0,0,0,0,0,-141.708393,-52.7778000000003,0,0,0,1
6.3157511,156,156,GUIDED,0,0,NaN,NaN,NaN,NaN,0,0,0,0,0,0,-142.236171,-52.8759000000003,0,0,0,1
6.324933,157,157,GUIDED,0,660,1000,1000,1000,1000,0,0,0,0,0,0,-142.76493,-52.9740000000003,0,0,0,1
6.3401472,157,157,GUIDED,0,0,NaN,NaN,NaN,NaN,0,0,0,0,0,0,-143.29467,-53.0721000000003,0,0,0,1
6.3529326,157,157,GUIDED,0,0,NaN,NaN,NaN,NaN,0,0,0,0,0,0,-143.825391,-53.1702000000003,0,0,0,1
6.3576125,158,158,GUIDED,0,661,1000,1000,1000,1000,0,0,0,0,0,0,-144.357093,-53.2683000000003,0,0,0,1
6.3707088,158,158,GUIDED,0,0,NaN,NaN,NaN,NaN,0,0,0,0,0,0,-144.889776,-53.3664000000003,0,0,0,1
6.3833079,158,158,GUIDED,0,0,NaN,NaN,NaN,NaN,0,0,0,0,0,0,-145.42344,-53.4645000000003,0,0,0,1
6.3959467,158,158,GUIDED,0,0,NaN,NaN,NaN,NaN,0,0,0,0,0,0,-145.958085,-53.5626000000003,0,0,0,1
6.4085843,158,158,GUIDED,0,0,NaN,NaN,NaN,NaN,0,0,0,0,0,0,-146.493711,-53.6607000000003,0,0,0,1
6.4215867,158,158,GUIDED,0,0,NaN,NaN,NaN,NaN,0,0,0,0,0,0,-147.030318,-53.7588000000003,0,0,0,1
6.432353,159,159,GUIDED,0,662,1000,1000,1000,1000,0,0,0,0,0,0,-147.567906,-53.8569000000003,0,0,0,1
6.4455701,159,159,GUIDED,0,0,NaN,NaN,NaN,NaN,0,0,0,0,0,0,-148.106475,-53.9550000000003,0,0,0,1
6.4578902,159,159,GUIDED,0,0,NaN,NaN,NaN,NaN,0,0,0,0,0,0,-148.646025,-54.0531000000003,0,0,0,1
6.4693136,160,160,GUIDED,0,663,1000,1000,1000,1000,0,0,0,0,0,0,-149.186556,-54.1512000000003,0,0,0,1
6.4822729,160,160,GUIDED,0,0,NaN,NaN,NaN,NaN,0,0,0,0,0,0,-149.728068,-54.2493000000003,0,0,0,1
6.4946481,160,160,GUIDED,0,0,NaN,NaN,NaN,NaN,0,0,0,0,0,0,-150.270561,-54.3474000000003,0,0,0,1
6.5049751,161,161,GUIDED,0,664,1000,1000,1000,1000,0,0,0,0,0,0,-150.814035,-54.4455000000004,0,0,0,1
6.5179781,161,161,GUIDED,0,0,NaN,NaN,NaN,NaN,0,0,0,0,0,0,-151.35849,-54.5436000000004,0,0,0,1
6.5303817,161,161,GUIDED,0,0,NaN,NaN,NaN,NaN,0,0,0,0,0,0,-151.903926,-54.6417000000004,0,0,0,1
6.5398717,162,162,GUIDED,0,665,1000,1000,1000,1000,0,0,0,0,0,0,-152.450343,-54.7398000000004,0,0,0,1
6.554553,162,162,GUIDED,0,0,NaN,NaN,NaN,NaN,0,0,0,0,0,0,-152.997741,-54.8379000000004,0,0,0,1
6.5676668,162,162,GUIDED,0,0,NaN,NaN,NaN,NaN,0,0,0,0,0,0,-153.54612,-54.9360000000004,0,0,0,1
6.5729954,163,163,GUIDED,0,666,1000,1000,1000,1000,0,0,0,0,0,0,-154.09548,-55.0341000000004,0,0,0,1
6.587009,163,163,GUIDED,0,0,NaN,NaN,NaN,NaN,0,0,0,0,0,0,-154.645821,-55.1322000000004,0,0,0,1
6.5993097,163,163,GUIDED,0,0,NaN,NaN,NaN,NaN,0,0,0,0,0,0,-155.197143,-55.2303000000004,0,0,0,1
6.6118482,163,163,GUIDED,0,0,NaN,NaN,NaN,NaN,0,0,0,0,0,0,-155.749446,-55.3284000000004,0,0,0,1
6.6153742,164,164,GUIDED,0,667,1000,1000,1000,1000,0,0,0,0,0,0,-156.30273,-55.4265000000004,0,0,0,1
6.6282758,164,164,GUIDED,0,0,NaN,NaN,NaN,NaN,0,0,0,0,0,0,-156.856995,-55.5246000000004,0,0,0,1
6.641089,164,164,GUIDED,0,0,NaN,NaN,NaN,NaN,0,0,0,0,0,0,-157.412241,-55.6227000000004,0,0,0,1
6.6494483,165,165,GUIDED,0,668,1000,1000,1000,1000,0,0,0,0,0,0,-157.968468,-55.7208000000004,0,0,0,1
6.662773,165,165,GUIDED,0,0,NaN,NaN,NaN,NaN,0,0,0,0,0,0,-158.525676,-55.8189000000004,0,0,0,1
6.6753935,165,165,GUIDED,0,0,NaN,NaN,NaN,NaN,0,0,0,0,0,0,-159.083865,-55.9170000000004,0,0,0,1
6.683811,166,166,GUIDED,0,669,1000,1000,1000,1000,0,0,0,0,0,0,-159.643035,-56.0151000000004,0,0,0,1
6.6966814,166,166,GUIDED,0,0,NaN,NaN,NaN,NaN,0,0,0,0,0,0,-160.203186,-56.1132000000004,0,0,0,1
6.7092436,166,166,GUIDED,0,0,NaN,NaN,NaN,NaN,0,0,0,0,0,0,-160.764318,-56.2113000000004,0,0,0,1
6.7220079,166,166,GUIDED,0,0,NaN,NaN,NaN,NaN,0,0,0,0,0,0,-161.326431,-56.3094000000004,0,0,0,1
6.7270982,167,167,GUIDED,0,670,1000,1000,1000,1000,0,0,0,0,0,0,-161.889525,-56.4075000000004,0,0,0,1
6.7399694,167,167,GUIDED,0,0,NaN,NaN,NaN,NaN,0,0,0,0,0,0,-162.4536,-56.5056000000004,0,0,0,1
6.7525897,167,167,GUIDED,0,0,NaN,NaN,NaN,NaN,0,0,0,0,0,0,-163.018656,-56.6037000000004,0,0,0,1
6.7610534,168,168,GUIDED,0,671,1000,1000,1000,1000,0,0,0,0,0,0,-163.584693,-56.7018000000004,0,0,0,1
6.7743723,168,168,GUIDED,0,0,NaN,NaN,NaN,NaN,0,0,0,0,0,0,-164.151711,-56.7999000000004,0,0,0,1
6.786883,168,168,GUIDED,0,0,NaN,NaN,NaN,NaN,0,0,0,0,0,0,-164.71971,-56.8980000000004,0,0,0,1
6.7982762,169,169,GUIDED,0,672,1000,1000,1000,1000,0,0,0,0,0,0,-165.28869,-56.9961000000004,0,0,0,1
6.8128221,169,169,GUIDED,0,0,NaN,NaN,NaN,NaN,0,0,0,0,0,0,-165.858651,-57.0942000000004,0,0,0,1
6.8253864,169,169,GUIDED,0,0,NaN,NaN,NaN,NaN,0,0,0,0,0,0,-166.429593,-57.1923000000004,0,0,0,1
6.835609,170,170,GUIDED,0,673,1000,1000,1000,1000,0,0,0,0,0,0,-167.001516,-57.2904000000004,0,0,0,1
6.8497761,170,170,GUIDED,0,0,NaN,NaN,NaN,NaN,0,0,0,0,0,0,-167.57442,-57.3885000000004,0,0,0,1
6.8622232,170,170,GUIDED,0,0,NaN,NaN,NaN,NaN,0,0,0,0,0,0,-168.148305,-57.4866000000004,0,0,0,1
6.8687153,171,171,GUIDED,0,674,1000,1000,1000,1000,0,0,0,0,0,0,-168.723171,-57.5847000000004,0,0,0,1
6.8824067,171,171,GUIDED,0,0,NaN,NaN,NaN,NaN,0,0,0,0,0,0,-169.299018,-57.6828000000004,0,0,0,1
6.8953044,171,171,GUIDED,0,0,NaN,NaN,NaN,NaN,0,0,0,0,0,0,-169.875846,-57.7809000000004,0,0,0,1
6.9034526,172,172,GUIDED,0,675,1000,1000,1000,1000,0,0,0,0,0,0,-170.453655,-57.8790000000004,0,0,0,1
6.9172376,172,172,GUIDED,0,0,NaN,NaN,NaN,NaN,0,0,0,0,0,0,-171.032445,-57.9771000000004,0,0,0,1
6.9300051,172,172,GUIDED,0,0,NaN,NaN,NaN,NaN,0,0,0,0,0,0,-171.612216,-58.0752000000004,0,0,0,1
6.9423354,172,172,GUIDED,0,0,NaN,NaN,NaN,NaN,0,0,0,0,0,0,-172.192968,-58.1733000000004,0,0,0,1
6.9563181,172,172,GUIDED,0,0,NaN,NaN,NaN,NaN,0,0,0,0,0,0,-172.774701,-58.2714000000004,0,0,0,1
6.9700942,172,172,GUIDED,0,0,NaN,NaN,NaN,NaN,0,0,0,0,0,0,-173.357415,-58.3695000000004,0,0,0,1
6.9770548,173,173,GUIDED,0,676,1000,1000,1000,1000,0,0,0,0,0,0,-173.94111,-58.4676000000004,0,0,0,1
6.9906726,173,173,GUIDED,0,0,NaN,NaN,NaN,NaN,0,0,0,0,0,0,-174.525786,-58.5657000000004,0,0,0,1
7.0031195,173,173,GUIDED,0,0,NaN,NaN,NaN,NaN,0,0,0,0,0,0,-175.111443,-58.6638000000004,0,0,0,1
7.0120054,174,174,GUIDED,0,677,1000,1000,1000,1000,0,0,0,0,0,0,-175.698081,-58.7619000000005,0,0,0,1
7.0254328,174,174,GUIDED,0,0,NaN,NaN,NaN,NaN,0,0,0,0,0,0,-176.2857,-58.8600000000005,0,0,0,1
7.0378871,174,174,GUIDED,0,0,NaN,NaN,NaN,NaN,0,0,0,0,0,0,-176.8743,-58.9581000000005,0,0,0,1
7.0505381,174,174,GUIDED,0,0,NaN,NaN,NaN,NaN,0,0,0,0,0,0,-177.463881,-59.0562000000005,0,0,0,1
7.0641532,174,174,GUIDED,0,0,NaN,NaN,NaN,NaN,0,0,0,0,0,0,-178.054443,-59.1543000000005,0,0,0,1
7.0766777,174,174,GUIDED,0,0,NaN,NaN,NaN,NaN,0,0,0,0,0,0,-178.645986,-59.2524000000005,0,0,0,1
7.0869658,175,175,GUIDED,0,678,1000,1000,1000,1000,0,0,0,0,0,0,-179.23851,-59.3505000000005,0,0,0,1
7.1004644,175,175,GUIDED,0,0,NaN,NaN,NaN,NaN,0,0,0,0,0,0,-179.832015,-59.4486000000005,0,0,0,1
7.1133776,175,175,GUIDED,0,0,NaN,NaN,NaN,NaN,0,0,0,0,0,0,-180.426501,-59.5467000000005,0,0,0,1
7.1202751,176,176,GUIDED,0,679,1000,1000,1000,1000,0,0,0,0,0,0,-181.021968,-59.6448000000005,0,0,0,1
7.1340592,176,176,GUIDED,0,0,NaN,NaN,NaN,NaN,0,0,0,0,0,0,-181.618416,-59.7429000000005,0,0,0,1
7.1477448,176,176,GUIDED,0,0,NaN,NaN,NaN,NaN,0,0,0,0,0,0,-182.215845,-59.8410000000005,0,0,0,1
7.1605138,176,176,GUIDED,0,0,NaN,NaN,NaN,NaN,0,0,0,0,0,0,-182.814255,-59.9391000000005,0,0,0,1
7.1646772,177,177,GUIDED,0,680,1000,1000,1000,1000,0,0,0,0,0,0,-183.413646,-60.0372000000005,0,0,0,1
7.1779779,177,177,GUIDED,0,0,NaN,NaN,NaN,NaN,0,0,0,0,0,0,-184.014018,-60.1353000000005,0,0,0,1
7.1903988,177,177,GUIDED,0,0,NaN,NaN,NaN,NaN,0,0,0,0,0,0,-184.615371,-60.2334000000005,0,0,0,1
7.1992846,178,178,GUIDED,0,681,1000,1000,1000,1000,0,0,0,0,0,0,-185.217705,-60.3315000000005,0,0,0,1
7.2126673,178,178,GUIDED,0,0,NaN,NaN,NaN,NaN,0,0,0,0,0,0,-185.82102,-60.4296000000005,0,0,0,1
7.2253377,178,178,GUIDED,0,0,NaN,NaN,NaN,NaN,0,0,0,0,0,0,-186.425316,-60.5277000000005,0,0,0,1
7.2322513,179,179,GUIDED,0,682,1000,1000,1000,1000,0,0,0,0,0,0,-187.030593,-60.6258000000005,0,0,0,1
7.245308,179,179,GUIDED,0,0,NaN,NaN,NaN,NaN,0,0,0,0,0,0,-187.636851,-60.7239000000005,0,0,0,1
7.2579652,179,179,GUIDED,0,0,NaN,NaN,NaN,NaN,0,0,0,0,0,0,-188.24409,-60.8220000000005,0,0,0,1
7.2711567,179,179,GUIDED,0,0,NaN,NaN,NaN,NaN,0,0,0,0,0,0,-188.85231,-60.9201000000005,0,0,0,1
7.2836843,179,179,GUIDED,0,0,NaN,NaN,NaN,NaN,0,0,0,0,0,0,-189.461511,-61.0182000000005,0,0,0,1
7.296932,179,179,GUIDED,0,0,NaN,NaN,NaN,NaN,0,0,0,0,0,0,-190.071693,-61.1163000000005,0,0,0,1
7.3063264,180,180,GUIDED,0,683,1000,1000,1000,1000,0,0,0,0,0,0,-190.682856,-61.2144000000005,0,0,0,1
7.3200927,180,180,GUIDED,0,0,NaN,NaN,NaN,NaN,0,0,0,0,0,0,-191.295,-61.3125000000005,0,0,0,1
7.3325573,180,180,GUIDED,0,0,NaN,NaN,NaN,NaN,0,0,0,0,0,0,-191.908125,-61.4106000000005,0,0,0,1
7.3397369,181,181,GUIDED,0,684,1000,1000,1000,1000,0,0,0,0,0,0,-192.522231,-61.5087000000005,0,0,0,1
7.3536605,181,181,GUIDED,0,0,NaN,NaN,NaN,NaN,0,0,0,0,0,0,-193.137318,-61.6068000000005,0,0,0,1
7.3661916,181,181,GUIDED,0,0,NaN,NaN,NaN,NaN,0,0,0,0,0,0,-193.753386,-61.7049000000005,0,0,0,1
7.3785201,181,181,GUIDED,0,0,NaN,NaN,NaN,NaN,0,0,0,0,0,0,-194.370435,-61.8030000000005,0,0,0,1
7.3815907,182,182,GUIDED,0,685,1000,1000,1000,1000,0,0,0,0,0,0,-194.988465,-61.9011000000005,0,0,0,1
7.3951432,182,182,GUIDED,0,0,NaN,NaN,NaN,NaN,0,0,0,0,0,0,-195.607476,-61.9992000000005,0,0,0,1
7.4076979,182,182,GUIDED,0,0,NaN,NaN,NaN,NaN,0,0,0,0,0,0,-196.227468,-62.0973000000005,0,0,0,1
7.4186526,183,183,GUIDED,0,686,1000,1000,1000,1000,0,0,0,0,0,0,-196.848441,-62.1954000000005,0,0,0,1
7.4318519,183,183,GUIDED,0,0,NaN,NaN,NaN,NaN,0,0,0,0,0,0,-197.470395,-62.2935000000005,0,0,0,1
7.4445147,183,183,GUIDED,0,0,NaN,NaN,NaN,NaN,0,0,0,0,0,0,-198.09333,-62.3916000000005,0,0,0,1
7.4521864,184,184,GUIDED,0,687,1000,1000,1000,1000,0,0,0,0,0,0,-198.717246,-62.4897000000005,0,0,0,1
7.4652568,184,184,GUIDED,0,0,NaN,NaN,NaN,NaN,0,0,0,0,0,0,-199.342143,-62.5878000000005,0,0,0,1
7.4776303,184,184,GUIDED,0,0,NaN,NaN,NaN,NaN,0,0,0,0,0,0,-199.968021,-62.6859000000005,0,0,0,1
7.4892386,185,185,GUIDED,0,688,1000,1000,1000,1000,0,0,0,0,0,0,-200.59488,-62.7840000000005,0,0,0,1
7.5030022,185,185,GUIDED,0,0,NaN,NaN,NaN,NaN,0,0,0,0,0,0,-201.22272,-62.8821000000005,0,0,0,1
7.515489,185,185,GUIDED,0,0,NaN,NaN,NaN,NaN,0,0,0,0,0,0,-201.851541,-62.9802000000006,0,0,0,1
